NO,共通ID,施設・場所名,住所,指定緊急避難場所との住所同一,その他市町村長が必要と認める事項,受入対象者,緯度,経度,備考
1,E0241200001123,デイサービスセンター阿光坊の郷,青森県おいらせ町阿光坊105-110,,,高齢者（要介護1以上）,40.6071043268694,141.370602845327,
2,E0241200001121,特別養護老人ホーム阿光坊の郷,青森県おいらせ町阿光坊105-110,,,高齢者（要介護1以上）,40.6071857791352,141.370543836721,
3,E0241200001122,ショートステイ阿光坊の郷,青森県おいらせ町阿光坊105-110,,,高齢者（要介護1以上）,40.6070432376043,141.370618938574,
4,E0241200006111,甲洋小学校,青森県おいらせ町一川目4-6-10,1,,,40.6452713069055,141.438604065447,
5,E0241200007111,みなくる館,青森県おいらせ町下前田145-1,1,,,40.6043961855097,141.43358742447,
6,E0241200008121,おいらせ町社会福祉協議会デイサービスセンター,青森県おいらせ町下前田158-1,1,,高齢者（要介護1以上）,40.604487911202,141.434767411452,
7,E0241200008111,いきいき館,青森県おいらせ町下前田158-1,1,,,40.604579548582,141.434638665418,
8,E0241200009111,下田小学校,青森県おいらせ町舘越38-1,1,,,40.5972993800235,141.373493270604,
9,E0241200011111,百石小学校,青森県おいらせ町牛込平20-1,1,,,40.6015854673034,141.437245207255,
10,E0241200014121,デイサービスセンター木崎野,青森県おいらせ町向山東2-2-1262,,,高齢者（要介護1以上）,40.6303539721374,141.392128971434,
11,E0241200015122,特別養護老人ホーム木崎野荘,青森県おいらせ町向山東2-2-1263,,,高齢者（要介護1以上）,40.6308995105289,141.392204073278,
12,E0241200015121,ショートステイ特別養護老人ホーム木崎野荘,青森県おいらせ町向山東2-2-1263,,,高齢者（要介護1以上）,40.6304191112852,141.392300632811,
13,E0241200016111,老人福祉センター,青森県おいらせ町向川原3-12,,,,40.5979798153219,141.401809034524,
14,E0241200022122,介護老人保健施設しもだ,青森県おいらせ町山崎2592-7,,,高齢者（要介護1以上）,40.6137848842494,141.401625189208,
15,E0241200022121,グループホームわたぼうし,青森県おいらせ町山崎2592-7,,,高齢者（認知症　日常生活自立度Ⅲ以上）,40.6141758151378,141.401930961034,
16,E0241200023121,有料老人ホームしらとり荘,青森県おいらせ町山崎2595-1,,,高齢者（要介護1以上）,40.6132514227854,141.40182367268,
17,E0241200031111,いちょう公園体育館,青森県おいらせ町沼端14-161,1,,,40.6080164522922,141.437713849086,
18,E0241200032112,いちょう公園交流館,青森県おいらせ町沼端14-165,1,,,40.6075434567703,141.439525895615,
19,E0241200032111,勤労者研修センター,青森県おいらせ町沼端14-165,1,,,40.6078774082363,141.4389840894,
20,E0241200033121,デイサービスセンターたんぽぽ,青森県おいらせ町沼端370-1,,,高齢者（要介護1以上）,40.6120829006798,141.446533467178,
21,E0241200033123,特別養護老人ホーム百石荘,青森県おいらせ町沼端370-1,,,高齢者（要介護1以上）,40.6121073345496,141.44605066956,
22,E0241200033122,ショートステイ百石荘,青森県おいらせ町沼端370-1,,,高齢者（要介護1以上）,40.611211420145,141.445385481725,
23,E0241200034121,ケアハウス百石荘ゆうゆう庵,青森県おいらせ町沼端377-1,,,高齢者（要介護1以上）,40.6118609753903,141.445996471288,
24,E0241200035111,木ノ下中学校,青森県おいらせ町上久保22-2,1,,,40.6457514902163,141.377714415649,
25,E0241200037121,住宅型有料老人ホームマリーゴールド,青森県おいらせ町上久保61-161,,,高齢者（要介護1以上）,40.651793,141.378439,
26,E0241200038121,医療法人正恵会石田温泉病院デイケアセンターわの里,青森県おいらせ町上前田21-1,,,高齢者（要介護1以上）,40.6026904676978,141.431612901954,
27,E0241200038122,医療法人正恵会ショートステイいしだ,青森県おいらせ町上前田21-1,,,高齢者（要介護1以上）,40.6022017197404,141.431709461469,
28,E0241200038123,療養医療施設医療法人正恵会石田温泉病院,青森県おいらせ町上前田21-1,,,高齢者（要介護1以上）,40.6023239070655,141.431366138716,
29,E0241200042111,東公民館,青森県おいらせ町上明堂88-2,1,,,40.5960516611917,141.428905857376,
30,E0241200049111,北公民館,青森県おいらせ町青葉2-50-1395,1,,,40.6561174230803,141.372323142345,
31,E0241200050111,木ノ下児童センターみらい館,青森県おいらせ町青葉2-50-72,1,,,40.6564035852619,141.371885117677,
32,E0241200051111,木ノ下小学校,青森県おいらせ町青葉6-50-184,1,,,40.653405807889,141.369602244631,
33,E0241200054111,木内々小学校,青森県おいらせ町染屋101-7,1,,,40.6010929883095,141.408160491003,
34,E0241200056111,木内々児童センターひまわり館,青森県おいらせ町染屋71,,,,40.6000983860607,141.406277302196,
35,E0241200057111,町民交流センター,青森県おいらせ町中下田125-2,1,,,40.5997308273896,141.39730095094,
36,E0241200059111,中央公民館,青森県おいらせ町中下田159,1,,,40.599225342181,141.398577300562,
37,E0241200064111,百石中学校,青森県おいらせ町東下谷地116,1,,,40.61713012877,141.427982351283,
38,E0241200066121,デイサービスセンターあゆみの里,青森県おいらせ町東下谷地618,,,高齢者（要介護1以上）,40.613133549016,141.445707346798,
39,E0241200066122,グループホームあゆみの里,青森県おいらせ町東下谷地618,,,高齢者（認知症　日常生活自立度Ⅲ以上）,40.612995092428,141.446179415585,
40,E0241200067121,有料老人ホームあゆみの里,青森県おいらせ町東下谷地622,,,高齢者（要介護1以上）,40.6130195259643,141.445428397067,
41,E0241200071121,デイサービスセンターわっしょい,青森県おいらせ町二川目1-6-290,,,高齢者（要介護1以上）,40.65055198472,141.437495107607,
42,E0241200078111,百石高等学校,青森県おいらせ町苗平谷地46,1,,,40.5992426507799,141.432044505671,
43,E0241200079121,障害者支援施設あかしや寮,青森県おいらせ町浜道133-3,,,知的障がい者,40.6474277390718,141.391184667744,
44,E0241200085111,下田中学校,青森県おいらせ町立蛇114-3,1,,,40.6033773604145,141.387536367584,
45,E0241200087122,グループホームいこいの森,青森県おいらせ町緑ケ丘1-50-2077,,,高齢者（認知症　日常生活自立度Ⅲ以上）,40.6662701406903,141.365798182647,
46,E0241200087121,デイサービスセンターいこいの森,青森県おいらせ町緑ケ丘1-50-2077,,,高齢者（要介護1以上）,40.6661968985036,141.366087861218,
47,E0241200088122,住宅型有料老人ホームガーデンプレイスおいらせ,青森県おいらせ町鶉久保3-42,,,高齢者（要介護1以上）,40.657661,141.375551,
48,E0241200088121,デイサービスセンターガーデンプレイスおいらせ,青森県おいらせ町鶉久保3-42,,,高齢者（要介護1以上）,40.657764,141.375304,
49,E0220900001111,吉出コミュニティセンター消防センター,青森県つがる市稲垣町吉出高崎33,1,,,40.865883010856,140.38494495025,
50,E0220900002111,沼館コミュニティセンター,青森県つがる市稲垣町沼館友開45-14,1,,,40.881818538673,140.3838737988,
51,E0220900003111,沼崎コミュニティ消防センター,青森県つがる市稲垣町沼崎幾代崎49,1,,,40.875152405179,140.39386565733,
52,E0220900004111,繁田地区コミュニティ消防センター,青森県つがる市稲垣町繁田若竹11-3,1,,,40.90754466655,140.41527738268,
53,E0238700001121,ディサービスセンター武田の湯,青森県つがる市稲垣町繁田袋井109-19,,,施設等の入所基準に該当又は該当すると認められる避難行動要支援者等,40.93775705,140.4138502,
54,E0220900005111,福富コミュニティセンター,青森県つがる市稲垣町福富笹崎10-1,1,,,40.889655918823,140.39644057799,
55,E0220900006111,穂積コミュニティセンター,青森県つがる市稲垣町穂積酒田66-3,,,,40.890446188292,140.40779717873,
56,E0220900111115,稲垣交流センター,青森県つがる市稲垣町豊川宮川141,1,,,40.879832,140.397117,
57,E0220900008121,特別養護老人ホーム　安住の里,青森県つがる市稲垣町豊川宮川143-1,,,高齢者,40.879662,140.397769,
58,E0220900009111,稲穂いこいの里,青森県つがる市稲垣町豊川宮川145-1,1,,,40.880942981574,140.39570107016,
59,E0220900010111,稲垣ふれあいセンター,青森県つがる市稲垣町豊川宮川145-3,1,,,40.880598663625,140.39697279703,
60,E0220900012111,稲垣中学校,青森県つがる市稲垣町豊川宮川45-1,1,,,40.882621572671,140.39640725836,
61,E0220900013111,豊川コミュニティ消防センター,青森県つがる市稲垣町豊川宮川51-7,1,,,40.883194995348,140.39925376939,
62,E0220900014111,稲垣小学校,青森県つがる市稲垣町豊川宮藤27,1,,,40.881573872401,140.40169301063,
63,E0220900016111,下牛潟保健福祉館,青森県つがる市下牛潟町靏舞岬10,1,,,40.922381807232,140.36819927595,
64,E0220900017111,牛潟公民館,青森県つがる市牛潟町鷲野沢29-789,1,,,40.925037529259,140.34821141768,
65,E0220900018111,車力高齢者コミュニティセンター,青森県つがる市牛潟町鷲野沢73-72,1,,,40.929017485317,140.35229572695,
66,E0220900019111,車力ふれあい会館,青森県つがる市車力町花林48,1,,,40.948479813096,140.35896419145,
67,E0220900021111,車力中学校,青森県つがる市車力町屏風山1-214,1,,,40.95121647939,140.35482523209,
68,E0220900021112,車力小学校,青森県つがる市車力町屏風山1-214,1,,,40.951100649235,140.35389305836,
69,E0220900022111,車力地区コミュニティセンター,青森県つがる市車力町屏風山529,1,,,40.950169320985,140.35599450274,
70,E0232100001121,青森県立森田養護学校,青森県つがる市森田町床舞鶴喰104-5,,,要配慮者,40.76654,140.318089,
71,E0220900023111,森田農村環境改善センター,青森県つがる市森田町上相野若緑61,1,,,40.792951612981,140.37989848423,
72,E0220900024112,森田公民館,青森県つがる市森田町森田月見野119-2,1,,,40.780815394432,140.33438176978,
73,E0220900025111,森田高齢農業者生きがいセンター,青森県つがる市森田町森田月見野123-20,1,,,40.777788012755,140.34804223291,
74,E0220900026121,森田保健福祉センター　あーすとぴあ,青森県つがる市森田町森田月見野277-3,,,高齢者、障がい者（肢体）、妊婦、乳幼児,40.776698,140.346941,
75,E0220900027111,森田コミュニティ消防センター,青森県つがる市森田町森田月見野294-1,1,,,40.777637355203,140.34595654561,
76,E0220900028111,森田中学校,青森県つがる市森田町森田屏風山2-1,1,,,40.777309097259,140.33928273167,
77,E0220900030111,森田小学校,青森県つがる市森田町森田屏風山2-2,1,,,40.778218565858,140.33643405141,
78,E0220900031121,特別養護老人ホーム明光園,青森県つがる市森田町大館勝山142-3,,,高齢者,40.778845,140.292757,
79,E0220900032111,大館コミュニティ消防センター,青森県つがる市森田町大館千歳136-2,1,,,40.78155255516,140.32053806661,
80,E0220900035111,柏第３農業研修センター,青森県つがる市柏下古川絹川134-3,1,,,40.798548723594,140.43100748124,
81,E0220900036111,玉水コミュニティセンター,青森県つがる市柏玉水岸田23-9,1,,,40.807015879785,140.40989818509,
82,E0220900037111,柏農村環境改善センター,青森県つがる市柏桑野木田花崎69,1,,,40.792321271801,140.4108415443,
83,E0220900037112,柏総合体育センター,青森県つがる市柏桑野木田花崎69,1,,,40.792118064484,140.40982717076,
84,E0220900038121,特別養護老人ホーム桑寿園,青森県つがる市柏桑野木田若宮255-1,,,高齢者、障がい者（肢体）、妊婦、乳幼児,40.7795,140.404546,
85,E0220900039111,柏ふるさと交流センター,青森県つがる市柏広須松元102-1,1,,,40.793574951588,140.41090282217,
86,E0220900040111,柏小学校,青森県つがる市柏広須福島126-2,1,,,40.791683426416,140.40890801145,
87,E0220900041111,柏中学校,青森県つがる市柏広須福島82,1,,,40.78622525584,140.4066971649,
88,E0220900042111,上古川コミュニティ消防センター,青森県つがる市柏上古川幾山12-1,1,,,40.791597,140.42017,
89,E0220900043121,サービス付高齢者向け住宅　ニュータウン柏,青森県つがる市柏上古川八重崎223-1,,,高齢者,40.802,140.414962,
90,E0220900044111,清水保健福祉館,青森県つがる市富萢町清水17-22,1,,,41.002353791004,140.3420620986,
91,E0220900045111,権現・深沢地区コミュニティセンター,青森県つがる市富萢町清水4-5,1,,,40.99262696118,140.35791632678,
92,E0220900046112,富萢地区コミュニティセンターアリーナ,青森県つがる市富萢町屏風山1-831,1,,,40.98198,140.369267,
93,E0220900047111,豊富地区コミュニティセンター,青森県つがる市豊富町千貫39-5,1,,,40.971951847693,140.37151791525,
94,E0220900048121,特別養護老人ホーム　ゆうあいの里,青森県つがる市豊富町屏風山1-377,1,,高齢者,40.967011013506,140.36269645673,
95,E0220900048112,車力農民研修センター,青森県つがる市豊富町屏風山1-377,1,,,40.967691511359,140.36282520276,
96,E0220900049111,芦沼コミュニティ消防センター,青森県つがる市木造芦沼12-1,1,,,40.824628462349,140.40145927182,
97,E0220900050111,永田コミュニティ消防センター,青森県つがる市木造永田稲村120-2,1,,,40.831410585188,140.36835322747,
98,E0220900051111,広岡コミュニティ消防センター,青森県つがる市木造越水稲村35-8,,,,40.794196859035,140.29078477654,
99,E0220900053111,越水コミュニティ消防センター,青森県つがる市木造越水神山35-2,1,,,40.806415138882,140.29861988201,
100,E0220900054111,駒田コミュニティ消防センター,青森県つがる市木造越水屏風山3-11,1,,,40.812827271426,140.30124356589,
101,E0220900056111,吉見コミュニティ消防センター,青森県つがる市木造下福原篠田176-4,,,,40.809401549309,140.32962462636,
102,E0220900057111,館岡コミュニティ消防センター,青森県つがる市木造館岡上稲元182,1,,,40.880226231071,140.33518410475,
103,E0220900060111,丸山コミュニティ消防センター,青森県つがる市木造丸山竹鼻1-2,1,,,40.836356684157,140.31626802686,
104,E0220900061111,穂波小学校,青森県つがる市木造菊川喜久野43,1,,,40.811533523196,140.34124065499,
105,E0220900113112,菊川コミュニティ消防センター,青森県つがる市木造菊川植野1-16,1,,,40.809111,140.341232,
106,E0220900063111,近野・十文字コミュニティ消防センター,青森県つがる市木造菊川平岡87,1,,,40.79856524759,140.34844579444,
107,E0220900064111,木造ふれ愛センター,青森県つがる市木造宮崎1-2,1,,,40.802664,140.3883,
108,E0220900065111,兼館コミュニティ消防センター,青森県つがる市木造兼館佐野22-5,1,,,40.847669882874,140.3786986338,
109,E0220900066111,出崎コミュニティ消防センター,青森県つがる市木造兼館袖懸17-1,1,,,40.857421524651,140.38482634014,
110,E0220900067111,菰槌コミュニティ消防センター,青森県つがる市木造菰槌江野島21-1,1,,,40.859937174209,140.33429958128,
111,E0220900068111,三ッ館コミュニティセンター「はすの館」,青森県つがる市木造三ツ館寿抱11-1,1,,,40.79461384344,140.31679420618,
112,E0220900070111,柴田コミュニティ消防センター,青森県つがる市木造柴田弥生田1-2,1,,,40.805406487192,140.3583324299,
113,E0220900071121,つがる市木造福祉センター,青森県つがる市木造若緑52,1,,高齢者、障がい者（肢体、視覚、聴覚、内部、知的）、妊婦、乳幼児,40.80731,140.380842,
114,E0220900071111,生涯学習交流センター「松の館」,青森県つがる市木造若緑52,1,,,40.808319085119,140.38155257377,
115,E0220900072111,木造体育センター,青森県つがる市木造若緑59-1,1,,,40.809337591009,140.38067350826,
116,E0220900108111,つがる市総合体育館,青森県つがる市木造若緑64,1,,,40.809465,140.379335,
117,E0220900073111,出野里コミュニティ消防センター,青森県つがる市木造出野里山吹26,1,,,40.856521452584,140.39693141263,
118,E0220900074111,出来島コミュニティ消防センター,青森県つがる市木造出来島雉子森25,1,,,40.845941267467,140.28067245232,
119,E0220900078111,吹原コミュニティ消防センター,青森県つがる市木造吹原中山51-4,1,,,40.818711572294,140.30656497477,
120,E0220900080111,南広森コミュニティ消防センター,青森県つがる市木造吹原屏風山1-80,1,,,40.824292579886,140.3037006687,
121,E0220900082111,遠山コミュニティ消防センター,青森県つがる市木造千代田米盛65-2,1,,,40.822600139578,140.33518253683,
122,E0220900083111,千代田コミュニティ消防センター,青森県つがる市木造千代田末長40-1,1,,,40.82135635887,140.33853539715,
123,E0220900084111,木造農村環境改善センター,青森県つがる市木造千年33,1,,,40.814456338099,140.37872295839,
124,E0220900085111,川除コミュニティ消防センター,青森県つがる市木造川除栄盛87-3,1,,,40.82769005775,140.40958602549,
125,E0220900086111,石館・堅固コミュニティ消防センター,青森県つがる市木造善積藤田36-1,1,,,40.855185830842,140.36333744715,
126,E0220900087111,善積コミュニティ消防センター,青森県つがる市木造善積萩田51-3,1,,,40.855821719929,140.37208701232,
127,E0220900088111,大湯町コミュニティ消防センター,青森県つがる市木造大湯町清水24-1,1,,,40.869451830206,140.33549738162,
128,E0220900089111,林コミュニティ消防センター,青森県つがる市木造大畑宮崎32-3,1,,,40.840700182409,140.35639587716,
129,E0220900090111,大畑コミュニティ消防センター,青森県つがる市木造大畑朽葉222,1,,,40.836988956711,140.36059948321,
130,E0220900091111,瑞穂小学校,青森県つがる市木造大畑座八1,1,,,40.838971320488,140.35817185886,
131,E0220900092111,土滝コミュニティ消防センター,青森県つがる市木造土滝稲葉192-2,1,,,40.827218928062,140.35932403443,
132,E0220900093111,筒木坂コミュニティ消防センター,青森県つがる市木造筒木坂松本181-1,1,,,40.901352456456,140.33994429258,
133,E0220900094121,デイサービスセンター柏風園,青森県つがる市木造筒木坂鳥谷沢18-9,,,妊婦、乳幼児,40.914085,140.346264,
134,E0220900094122,特別養護老人ホーム柏風園,青森県つがる市木造筒木坂鳥谷沢18-9,,,高齢者、障がい者（肢体、視覚、聴覚、内部）,40.914147,140.345798,
135,E0220900095121,グリーンハウス　和み,青森県つがる市木造藤田44-1,,,高齢者、障がい者（肢体、視覚、聴覚、内部、知的、精神、発達）妊婦、乳幼児,40.817039,140.384541,
136,E0220900096111,ひなた児童会館,青森県つがる市木造日向61-4,1,,,40.810552900333,140.38980776015,
137,E0220900097111,向陽小学校,青森県つがる市木造日向62-1,1,,,40.812066897815,140.39028173365,
138,E0220900098111,木造高等学校,青森県つがる市木造日向73-2,1,,,40.810527278534,140.39262487337,
139,E0220900099111,木造中学校,青森県つがる市木造浮巣20,1,,,40.812813054099,140.38957091921,
140,E0220900100111,福原コミュニティ消防センター,青森県つがる市木造福原妻元33-1,1,,,40.793176226862,140.33098069488,
141,E0220900101111,平滝コミュニティ消防センター,青森県つがる市木造平滝宝滝3-1,1,,,40.911016510304,140.34790952559,
142,E0220900102111,今市コミュニティ消防センター,青森県つがる市木造豊田網代31-2,1,,,40.842441082512,140.40197521536,
143,E0220900104121,有料老人ホームゆうらく,青森県つがる市木造有楽町15-1,,,高齢者,40.809886,140.383572,
144,E0220900105111,蓮花田コミュニティ消防センター,青森県つがる市木造蓮花田駒ケ宿38-2,1,,,40.826973052542,140.37419307419,
145,E0220900106111,蓮川コミュニティ消防センター,青森県つがる市木造蓮川宝船3-13,1,,,40.832703985722,140.39375990822,
146,E0220800003111,みどりのさきもり館,青森県むつ市宇田町21-25,,,,41.25699843,141.139734,
147,E0220800005111,金谷沢生活改善センター,青森県むつ市奥内字金谷沢1-191,,,,41.22901244,141.248705,
148,E0220800007111,近川中学校体育館,青森県むつ市奥内字江豚沢1-2,1,,,41.19687441,141.2737189,
149,E0220800008111,奥内小学校体育館,青森県むつ市奥内字中野40,1,,,41.205892865557,141.27415266072,
150,E0220800010111,田名部高等学校第１・第２体育館,青森県むつ市海老川町6-18,1,,,41.28791805,141.2018138,
151,E0220800012111,関根浜漁民研修センター川代分館,青森県むつ市関根字川代30-1,,,,41.37650222,141.2041121,
152,E0220800013111,関根浜漁民研修センター烏沢分館,青森県むつ市関根字前浜42-27,,,,41.38272577,141.1981221,
153,E0220800014111,関根小学校体育館,青森県むつ市関根字北関根100-1,1,,,41.35586147,141.2027878,
154,E0220800016111,関根浜漁民研修センター,青森県むつ市関根字北関根313-61,1,,,41.37031681,141.2210064,
155,E0220800017111,苫生小学校体育館,青森県むつ市金曲1-5-10,1,,,41.28397815,141.2091894,
156,E0220800018111,下北文化会館,青森県むつ市金谷1-10-1,,,,41.29539534,141.1978134,
157,E0220800020111,むつ中学校体育館,青森県むつ市栗山町17-2,1,,,41.30705642,141.2066477,
158,E0220800021111,大湊中学校体育館,青森県むつ市桜木町19-1,1,,,41.25531266,141.1344754,
159,E0220800023111,小川町第二白百合保育園,青森県むつ市小川町1-15-13,1,,,41.295380635455,141.2041515238,
160,E0220800024111,第二田名部小学校体育館,青森県むつ市小川町1-18-10,1,,,41.29811013,141.200535,
161,E0220800026111,角違公民館（中央公民館分館）,青森県むつ市城ケ沢字角違25,,,,41.205475389219,141.083314,
162,E0220800149111,城ヶ沢地区集会所,青森県むつ市城ヶ沢字早崎15-3,,,,41.226195,141.131299,
163,E0220800152111,旧田名部カトリック幼稚園,青森県むつ市新町11-28,,,,41.291048,141.209027,
164,E0220800031111,禄寿荘,青森県むつ市新町32-36,1,,,41.289376,141.212822,
165,E0220800033111,福寿荘,青森県むつ市川守町5-9,,,,41.266704,141.151412,
166,E0220800034111,下小倉平地区公民館,青森県むつ市川内町下小倉平98,,,,41.223587,140.985489,
167,E0220800035111,大湊高等学校川内校舎第１・第２体育館,青森県むつ市川内町家ノ上48,1,,,41.19675465,140.9720232,
168,E0220800037111,畑地区公民館,青森県むつ市川内町家ノ辺97,,,,41.29731706,140.9607073,
169,E0220800039111,蛎崎地区公民館,青森県むつ市川内町蛎崎寺ノ前148-36,,,,41.16858356,140.9035972,
170,E0220800040111,初見地区公民館,青森県むつ市川内町休所42-140,,,,41.19959182,140.9786583,
171,E0220800041111,エビナ保育園,青森県むつ市川内町休所42-184,,,,41.199435,140.979307,
172,E0220800042112,川内中学校体育館,青森県むつ市川内町休所5-1,1,,,41.201619009012,140.98438696561,
173,E0220800042111,川内小学校体育館,青森県むつ市川内町休所5-1,1,,,41.201268597948,140.98324552804,
174,E0220800043111,銀杏木地区公民館,青森県むつ市川内町銀杏木31,,,,41.24111172,140.9927471,
175,E0220800045111,新町集会所,青森県むつ市川内町熊ケ平1-5,,,,41.19824045,141.0088321,
176,E0220800046111,宿野部地区公民館,青森県むつ市川内町宿野部106-1,,,,41.1756516,140.9334676,
177,E0220800150111,上小倉平地区公民館,青森県むつ市川内町上小倉平104-1,,,,41.230914,140.987372,
178,E0220800049111,安部城地区公民館,青森県むつ市川内町新田290-44,,,,41.2502942,140.9884987,
179,E0220800050111,石倉地区公民館,青森県むつ市川内町石倉沢75-2,,,,41.21362855,141.0384419,
180,E0220800051111,戸沢地区公民館,青森県むつ市川内町川代15-1,,,,41.191199,141.0623264,
181,E0220800054111,仲崎コミュニティセンター,青森県むつ市川内町川内424,,,,41.19848717,140.9907494,
182,E0220800055111,中浦集会所,青森県むつ市川内町川内435-2,,,,41.197657932298,140.9972605742,
183,E0220800056111,あたご幼稚園,青森県むつ市川内町川内87,,,,41.19772283,140.999424,
184,E0220800058111,田野沢地区公民館,青森県むつ市川内町田野沢126,,,,41.19315432,141.0210244,
185,E0220800059111,湯野川地区公民館,青森県むつ市川内町湯野川25-1,,,,41.31694135,140.9596048,
186,E0220800151111,桧川地区公民館,青森県むつ市川内町桧川川代4-1,,,,41.192766,140.965592,
187,E0220800062111,袰川地区公民館,青森県むつ市川内町袰川103-80,,,,41.18548452,141.0397585,
188,E0220800063112,川内体育館,青森県むつ市川内町榀木153,1,,,41.20121098,141.0017292,
189,E0220800063111,川内公民館,青森県むつ市川内町榀木153,1,,,41.2010758,141.0009181,
190,E0220800064111,大曲コミュニティセンター,青森県むつ市大曲2-1-1,1,,,41.26473922,141.2236473,
191,E0220800065111,大畑小学校体育館,青森県むつ市大畑町伊勢堂1-1,1,,,41.40377932,141.1689677,
192,E0220800066111,総合福祉センター,青森県むつ市大畑町観音堂25-1,1,,,41.40010068,141.1575979,
193,E0220800067111,関根橋地区公民館,青森県むつ市大畑町関根橋14,1,,,41.379160796507,141.1482811086,
194,E0220800068111,本町町内会館,青森県むつ市大畑町庚申堂9-7,1,,,41.40165585,141.1615146,
195,E0220800069111,高橋川コミュニティセンター,青森県むつ市大畑町高橋川30-7,1,,,41.39438338,141.1330628,
196,E0220800071111,木野部地区公民館,青森県むつ市大畑町佐助川29-3,1,,,41.44220335,141.126902,
197,E0220800072111,下北自然の家体育館,青森県むつ市大畑町佐助川399,1,,,41.44797721,141.1150034,
198,E0220800074111,小目名地区公民館,青森県むつ市大畑町小目名村54,1,,,41.39189227,141.1240221,
199,E0220800075111,上野町内会館,青森県むつ市大畑町上野85,1,,,41.4043256,141.1722588,
200,E0220800076111,新町町内会館,青森県むつ市大畑町新町99-1,1,,,41.4045085,141.1607612,
201,E0220800080111,正津川小学校体育館,青森県むつ市大畑町正津川平114-20,1,,,41.39309542,141.1818294,
202,E0220800081111,正津川児童館,青森県むつ市大畑町正津川平114-64,1,,,41.3945623,141.1823416,
203,E0220800082111,正津川地区公民館,青森県むつ市大畑町正津川平87-10,1,,,41.39040479,141.1843947,
204,E0220800083111,赤川地区公民館,青森県むつ市大畑町赤川3-4,1,,,41.45475397,141.1157269,
205,E0220800085111,孫次郎間地区公民館,青森県むつ市大畑町孫次郎間19-24,1,,,41.41417069,141.1628458,
206,E0220800086111,大畑体育館,青森県むつ市大畑町中島108-5,1,,,41.40475927,141.1678244,
207,E0220800086112,大畑公民館,青森県むつ市大畑町中島108-5,1,,,41.40503833,141.168291,
208,E0220800087111,大畑中央保育園,青森県むつ市大畑町中島4-4,1,,,41.40722512,141.1645807,
209,E0220800088111,中島児童館体育館,青森県むつ市大畑町中島72-2,1,,,41.40610281,141.1696462,
210,E0220800089111,中島町内会館,青森県むつ市大畑町中島80-16,1,,,41.40519881,141.1656742,
211,E0220800090111,二枚橋地区公民館,青森県むつ市大畑町釣屋浜16-2,1,,,41.41970031,141.1529353,
212,E0220800092111,二枚橋小学校体育館,青森県むつ市大畑町釣屋浜22-72,1,,,41.4199935,141.1504473,
213,E0220800093111,大畑中学校体育館,青森県むつ市大畑町兎沢17-7,1,,,41.39278887,141.1560135,
214,E0220800094111,湯坂下町内会館,青森県むつ市大畑町湯坂下9-4,1,,,41.40662584,141.1584199,
215,E0220800094112,湯坂下児童館体育館,青森県むつ市大畑町湯坂下9-4,1,,,41.4064427,141.1582019,
216,E0220800095111,東町町内会館,青森県むつ市大畑町筒万坂56-7,1,,,41.40357263,141.1672713,
217,E0220800096111,大安寺,青森県むつ市大畑町本町80,,,,41.39757707,141.1636369,
218,E0220800098111,湊町内会館,青森県むつ市大畑町湊村159-4,1,,,41.40696552,141.1701055,
219,E0220800099111,大畑コミュニティセンター,青森県むつ市大畑町湊村165-8,1,,,41.410237447646,141.16724426865,
220,E0220800102111,大平小学校体育館,青森県むつ市大平町8-6,1,,,41.28502638,141.1697803,
221,E0220800104111,大湊高等学校第１・第２体育館,青森県むつ市大湊字大近川44-84,1,,,41.25102545,141.1278428,
222,E0220800105111,大湊小学校体育館,青森県むつ市大湊上町43-32,1,,,41.26885096,141.153737,
223,E0220800107111,むつ市中央公民館講堂,青森県むつ市大湊浜町13-1,,,,41.275532,141.157006,
224,E0220800110111,旧中野沢小学校体育館,青森県むつ市中野沢字上山道8-25,1,,,41.18199384,141.2887209,
225,E0220800111111,第三田名部小学校体育館,青森県むつ市田名部字赤川ノ内並木14-196,1,,,41.272085722452,141.22139772646,
226,E0220800112111,土手内集会所,青森県むつ市田名部字土手内74-922,,,,41.3022253,141.2293063,
227,E0220800113111,むつ来さまい館,青森県むつ市田名部町10-1,,,,41.29663385,141.216898,
228,E0220800115111,むつ工業高等学校第１・第２体育館,青森県むつ市文京町22-7,1,,,41.28895566,141.1663611,
229,E0220800116111,大平中学校体育館,青森県むつ市並川町2-4,1,,,41.28633879,141.1652502,
230,E0220800117111,むつ下北観光物産館,青森県むつ市柳町1-10-25,,,,41.29783586,141.2163659,
231,E0220800120111,柳町ひまわり保育園,青森県むつ市柳町1-9-13,1,,,41.297481,141.215529,
232,E0220800122111,第一田名部小学校体育館,青森県むつ市柳町2-7-1,1,,,41.3008923,141.2120135,
233,E0220800123111,田名部中学校体育館,青森県むつ市緑町22-8,1,,,41.28536286,141.2001742,
234,E0220800124111,海老川コミュニティセンター,青森県むつ市緑町3-1,1,,,41.29002497,141.1953459,
235,E0220800126111,寄浪地区生活福祉センター,青森県むつ市脇野沢寄浪41,,,,41.129909876551,140.80292353558,
236,E0220800129111,九艘泊地区生活福祉センター,青森県むつ市脇野沢九艘泊167,,,,41.14416191,140.7741911,
237,E0220800131111,旧脇野沢小学校体育館,青森県むつ市脇野沢桂沢71-1,1,,,41.14580938,140.8216596,
238,E0220800133111,小沢地区生活福祉センター,青森県むつ市脇野沢鹿間平61-4,,,,41.16729488,140.8744684,
239,E0220800136111,新井田地区生活改善センター,青森県むつ市脇野沢新井田12,,,,41.13399946,140.8152197,
240,E0220800140111,瀬野地区コミュニティセンター,青森県むつ市脇野沢瀬野川目65,,,,41.1397904,140.8170871,
241,E0220800141111,脇野沢中学校体育館,青森県むつ市脇野沢瀬野川目85-2,1,,,41.14186106,140.8146401,
242,E0220800142111,滝山地区生活福祉センター,青森県むつ市脇野沢滝山150,,,,41.176613247845,140.79971155093,
243,E0220800144111,蛸田地区生活福祉センター,青森県むつ市脇野沢蛸田86,,,,41.13367768,140.7936374,
244,E0220800146111,地域交流センターアリーナ,青森県むつ市脇野沢渡向107-1,,,,41.146982919727,140.81430938465,
245,E0240600001111,鶏沢老人憩の家,青森県横浜町字夷ケ沢平1-1,,,,41.124454,141.275993,
246,E0240600003111,トレーニングセンター・洗心閣,青森県横浜町字三保野148-1,,,,41.0784501258386,141.248358989853,
247,E0240600004111,横浜中学校,青森県横浜町字上イタヤノ木91-17,1,,,41.078513,141.259928,
248,E0240600005113,旧南部小学校,青森県横浜町字吹越82-1,1,,,41.03163,141.245985,
249,E0240600006111,桧木生活改善センター,青森県横浜町字川尻37-4,,,,41.1072949156518,141.254030289313,
250,E0240600008111,有畑町内会館,青森県横浜町字苗代川目34-1,,,,41.1310654688253,141.275691568931,
251,E0240600009111,浜田生活改善センター,青森県横浜町字浜田76-2,,,,41.1399697765227,141.278972950425,
252,E0240600010111,南地区老人憩の家,青森県横浜町字豊栄平310,,,,41.017891,141.247858,
253,E0240600011111,烏帽子平自然の家,青森県横浜町字明神平183,1,,,41.012209,141.288281,
254,E0240600012111,松栄婦人ホーム,青森県横浜町字明神平361,,,,41.034273208349,141.27279218518,
255,E0240600013111,横浜小学校,青森県横浜町字林ノ後32-1,1,,,41.0857356739551,141.254113180062,
256,E0240600016111,菜の花にこにこセンター,青森県横浜町字林ノ脇79-82,,,,41.082138,141.260376,
257,E0240600015111,コミュニティセンター和の里,青森県横浜町大豆田96-10,,,,41.1187481003776,141.255588049789,
258,E0244600001111,蒼前集会所,青森県階上町蒼前西3-9-1108,1,,,40.4761254969485,141.575315066831,
259,E0244600002111,石鉢ふれあい交流館,青森県階上町蒼前東7-9-4,1,,,40.4665747486275,141.579837550876,
260,E0244600003111,石鉢小学校,青森県階上町大字角柄折字石鉢14-2,1,,,40.4597411707303,141.578042310882,
261,E0244600004111,新田集会所,青森県階上町大字金山沢字新田1-9,1,,,40.4414370871795,141.564182026749,
262,E0244600005111,金山沢水郷館,青森県階上町大字金山沢字大畑17-1,1,,,40.4390847176167,141.538926347092,
263,E0244600006111,赤保内小学校,青森県階上町大字赤保内字耳ケ吠6-1,1,,,40.4499518923062,141.614505186764,
264,E0244600007111,階上中学校,青森県階上町大字赤保内字柳沢15-2,1,,,40.4489567884575,141.613160469563,
265,E0244600008111,中央体育館,青森県階上町大字鳥屋部字狐平8,1,,,40.4319255959573,141.577353747123,
266,E0244600009111,森の交流館,青森県階上町大字鳥屋部字行人17-2,1,,,40.4274679371369,141.578472376899,
267,E0244600010111,階上小学校,青森県階上町大字鳥屋部字大鶴音1-2,1,,,40.4357539188981,141.57759751669,
268,E0244600011111,田代集会所,青森県階上町大字田代字蛇平19-11,1,,,40.3980487573181,141.526581756264,
269,E0244600012111,道仏交流センター,青森県階上町大字道仏字横沢15-4,1,,,40.453186990897,141.66166794623,
270,E0244600012112,道仏公民館,青森県階上町大字道仏字横沢15-4,1,,,40.4534645650058,141.661893251786,
271,E0244600014111,道仏小学校,青森県階上町大字道仏字外窪21-1,1,,,40.4482883268993,141.652735538068,
272,E0244600016111,赤保内集会所,青森県階上町大字道仏字耳ケ吠31-3,1,,,40.452438262202,141.614942952537,
273,E0244600017111,耳ヶ吠東集会所,青森県階上町大字道仏字耳ケ吠6-677,1,,,40.4580452657496,141.617898030643,
274,E0244600022111,大蛇三地区集会所,青森県階上町大字道仏字大蛇32-22,1,,,40.4676924470147,141.64879323518,
275,E0244600024111,町民体育館,青森県階上町大字道仏字天当平1-150,1,,,40.4536092414522,141.622781822988,
276,E0244600025111,ハートフルプラザ・はしかみ,青森県階上町大字道仏字天当平1-182,1,,,40.4530296013479,141.622926662269,
277,E0244600030111,道仏中学校,青森県階上町大字道仏字蓬窪4-7,1,,,40.452212351252,141.656489184792,
278,E0244600031111,わっせ交流センター,青森県階上町大字平内字上道1-1,1,,,40.4130271771724,141.546203439776,
279,E0230700001111,外ヶ浜町介護老人保健施設たんぽぽ,青森県外ヶ浜町字下蟹田42-1,,,,41.041775328513,140.64016218221,
280,E0230700002111,蟹田体育館,青森県外ヶ浜町字下蟹田42-2,,,,41.042443592225,140.64007902889,
281,E0230700003111,外ヶ浜町社会福祉協議会蟹田通所介護事務所,青森県外ヶ浜町字下蟹田43-2,,,,41.042815928157,140.63963731938,
282,E0230700004111,蟹田公民館,青森県外ヶ浜町字蟹田60,,,,41.040998126409,140.64361671188,
283,E0230700005111,桜町会館,青森県外ヶ浜町字蟹田丑ケ沢地内,,,,41.033199468041,140.64398030388,
284,E0230700006111,塩越会館,青森県外ヶ浜町字蟹田塩越41,,,,41.065119547469,140.63732842148,
285,E0230700007111,外黒山会館,青森県外ヶ浜町字蟹田外黒山103-3,,,,41.041765231662,140.6095171643,
286,E0230700008111,外ヶ浜町役場,青森県外ヶ浜町字蟹田高銅屋44-2,,,,41.04315838046,140.63222540836,
287,E0230700009111,山本会館,青森県外ヶ浜町字蟹田山本野脇16-4,,,,41.064668768158,140.56715111889,
288,E0230700010111,おぐにふるさと体験館,青森県外ヶ浜町字蟹田小国岩井338,,,,41.051525496152,140.58965163975,
289,E0230700011111,下小国会館,青森県外ヶ浜町字蟹田小国山﨑108-5,,,,41.049180650639,140.60502463338,
290,E0230700012111,上小国集会所,青森県外ヶ浜町字蟹田小国谷田50-1,,,,41.060830283483,140.58033151732,
291,E0230700013111,中小国会館,青森県外ヶ浜町字蟹田小国南田55-9,,,,41.050981090292,140.59386275328,
292,E0230700014111,石浜会館,青森県外ヶ浜町字蟹田石浜地内,,,,41.057339868835,140.6414396229,
293,E0230700015111,特別養護老人ホームはまゆう,青森県外ヶ浜町字蟹田川原添2-3,,,,41.045120305059,140.63739345288,
294,E0230700016111,大平会館,青森県外ヶ浜町字蟹田大平山元74-2,,,,41.065353347663,140.55387362935,
295,E0230700017111,風のまち交流プラザ（トップマスト）,青森県外ヶ浜町字蟹田中師宮本160,,,,41.049154438061,140.64448717181,
296,E0230700018111,中央公民館,青森県外ヶ浜町字蟹田中師宮本80-1,,,,41.04846766136,140.63996346965,
297,E0230700019111,蟹田中学校,青森県外ヶ浜町字蟹田田ノ沢78,1,,,41.036383689008,140.64266976215,
298,E0230700020111,グループホームいきがいの里,青森県外ヶ浜町字蟹田内黒山12-164,,,,41.040377757691,140.61598012425,
299,E0230700021111,南沢集会所,青森県外ヶ浜町字蟹田南沢舘下155-1,,,,41.049026384497,140.58456136093,
300,E0230700022111,蟹田小学校,青森県外ヶ浜町字蟹田鰐ケ淵24-2,1,,,41.04320284588,140.6345061704,
301,E0230700023111,地域活動支援センター,青森県外ヶ浜町字蟹田鰐ケ淵7-4,,,,41.041960964634,140.63811396881,
302,E0230700024111,三厩中学校,青森県外ヶ浜町字三厩下平5-1,1,,,41.228204332645,140.39950891871,
303,E0230700025111,義経寺,青森県外ヶ浜町字三厩家の上76-2,,,,41.199477417384,140.42891711619,
304,E0230700026111,釜野澤親睦会館,青森県外ヶ浜町字三厩釜野澤22-1,,,,41.224219614764,140.40209093294,
305,E0230700027111,元宇鉄地区会館,青森県外ヶ浜町字三厩元宇鉄35,,,,41.231019650647,140.39795078131,
306,E0230700028111,ふるさとセンター,青森県外ヶ浜町字三厩元宇鉄84-1,,,,41.227824722741,140.40122698192,
307,E0230700029111,四枚橋漁成会館（四枚橋地区会館）,青森県外ヶ浜町字三厩四枚橋62-1,,,,41.218105819602,140.40800139803,
308,E0230700030111,上宇鉄共栄会館,青森県外ヶ浜町字三厩上宇鉄12-1,,,,41.234802377333,140.3941083501,
309,E0230700031111,老人憩の家,青森県外ヶ浜町字三厩上宇鉄72-1,,,,41.238230936589,140.3892677775,
310,E0230700032111,三厩体育館,青森県外ヶ浜町字三厩新町2,,,,41.193813228039,140.43787648796,
311,E0230700033111,三厩高齢者生活福祉センター寿楽園,青森県外ヶ浜町字三厩新町7,,,,41.194742621409,140.43523933916,
312,E0230700034111,特別養護老人ホームあじさい,青森県外ヶ浜町字三厩新町8,,,,41.195094035758,140.4348370377,
313,E0230700035111,増川地区会館（松傘閣）,青森県外ヶ浜町字三厩増川126-1,,,,41.191480896196,140.44101344202,
314,E0230700036111,中浜地区会館,青森県外ヶ浜町字三厩中浜91,,,,41.20321770938,140.42754616101,
315,E0230700037111,総合交流推進センター（かぶと）,青森県外ヶ浜町字三厩中浜地内,,,,41.203267547034,140.42845591721,
316,E0230700038111,旧三厩小学校,青森県外ヶ浜町字三厩桃ケ丘1,1,,,41.193625990098,140.43365488973,
317,E0230700039111,グループホームみんまや,青森県外ヶ浜町字三厩桃ケ丘209-1,,,,41.188762428046,140.4371688398,
318,E0230700040111,藤嶋共和会館（藤嶋地区会館）,青森県外ヶ浜町字三厩藤嶋沢1-2,,,,41.21541717183,140.41398958357,
319,E0230700041111,本町地区会館,青森県外ヶ浜町字三厩本町139-1,,,,41.194316593943,140.4327633691,
320,E0230700042111,竜飛備蓄倉庫,青森県外ヶ浜町字三厩龍浜54-18,,,,41.258789397307,140.34401975091,
321,E0230700043111,ホテル竜飛,青森県外ヶ浜町字三厩龍浜54-274,,,,41.257200517673,140.34770778829,
322,E0230700044111,六條間地区コミュニティセンター,青森県外ヶ浜町字三厩六條間66-1,,,,41.212478784701,140.41825442917,
323,E0230700045111,梹榔コミュニティセンター（龍飛・梹榔地区コミュニティセンター）,青森県外ヶ浜町字三厩梹榔地内,,,,41.250120170098,140.36219730947,
324,E0230700046111,鐇泊地区会館,青森県外ヶ浜町字三厩鐇泊地内,,,,41.239354095719,140.3839603791,
325,E0230700047111,龍飛地区コミュニティセンター,青森県外ヶ浜町字字三厩龍浜1-1,,,,41.259216878131,140.34527628728,
326,E0230700048111,特別養護老人ホーム桜良,青森県外ヶ浜町字上蟹田62-23,,,,41.039716449462,140.63945906014,
327,E0230700049111,磯山コミュニティセンター,青森県外ヶ浜町字平舘磯山191,,,,41.085881662261,140.63361080815,
328,E0230700050111,今津コミュニティセンター,青森県外ヶ浜町字平舘今津才の神49,,,,41.12174147927,140.63165051554,
329,E0230700051111,障害者支援施設かもめ苑,青森県外ヶ浜町字平舘根岸小川20-1,,,,41.143058532918,140.63143264973,
330,E0230700052111,平舘交流センター（旧平舘小学校）,青森県外ヶ浜町字平舘根岸小川251,1,,,41.146462826458,140.63504093644,
331,E0230700053111,グループホームよつば,青森県外ヶ浜町字平舘根岸小川258-2,,,,41.148073192526,140.63159850357,
332,E0230700054111,平舘体育館,青森県外ヶ浜町字平舘根岸湯の沢123-17,,,,41.150254062887,140.63457798366,
333,E0230700055111,根岸構造改善センター（根岸会館）,青森県外ヶ浜町字平舘根岸湯の沢292,,,,41.153705446867,140.63705854459,
334,E0230700056111,旧平舘中学校,青森県外ヶ浜町字平舘根岸湯の沢55-1,1,,,41.148796143718,140.63403315119,
335,E0230700057111,舟岡コミュニティセンター,青森県外ヶ浜町字平舘舟岡27,,,,41.100584806646,140.63054979473,
336,E0230700058111,石崎浜自治会館,青森県外ヶ浜町字平舘石崎沢108-1,,,,41.186766320942,140.63484190705,
337,E0230700059111,介護予防センター（平舘会館）,青森県外ヶ浜町字平舘門の沢25,,,,41.162525070933,140.63920044463,
338,E0230700060112,外ヶ浜町社会福祉協議会平舘通所介護事務所,青森県外ヶ浜町字平舘野田鳴川208-1,,,,41.141475415844,140.6306245705,
339,E0230700060111,特別養護老人ホームあんじんの郷,青森県外ヶ浜町字平舘野田鳴川208-1,,,,41.141822844197,140.63145069089,
340,E0230700061111,玉川コミュニティ消防センター,青森県外ヶ浜町字平舘野田鳴川477-1,,,,41.138945538101,140.6342690781,
341,E0230700062111,弥蔵釜コミュニティセンター,青森県外ヶ浜町字平舘弥蔵釜155-1,,,,41.194913268479,140.62186098724,
342,E0244200001111,町立公民館（体育センター含む）,青森県五戸町字下モ沢向8-2,1,,,40.5233774797421,141.303445516375,
343,E0244200002111,図書館,青森県五戸町字舘1-1,1,,,40.5228721762904,141.298547209087,
344,E0244200005111,五戸高等学校,青森県五戸町字根岸6,1,,,40.5307580700018,141.291396439853,
345,E0244200009111,五戸小学校,青森県五戸町字天満後22-1,1,,,40.5262774198299,141.303334640877,
346,E0244200019111,上市川団地集会所,青森県五戸町大字上市川字外ノ沢250,,,,40.55872,141.402506,
347,E0244200020111,上市川小学校,青森県五戸町大字上市川字御兵糧3,1,,,40.5634732946287,141.398103754146,
348,E0244200022111,川内中学校,青森県五戸町大字上市川字赤川々原1,1,,,40.5541903266637,141.379164976947,
349,E0244200025111,農村環境改善センター瑞穂館,青森県五戸町大字上市川字中坪1-1,1,,,40.552385600696,141.378615578773,
350,E0244200031111,切谷内小学校,青森県五戸町大字切谷内字高田川原24-1,1,,,40.550126019492,141.35707360341,
351,E0244200044111,浅水活性化センター,青森県五戸町大字浅水字浅水119,1,,,40.4758294022075,141.302047328089,
352,E0244200053111,石沢駒踊伝承館,青森県五戸町大字倉石石沢字石沢72-1,,,,40.5154970191191,141.282358909382,
353,E0244200057111,倉石スポーツセンター,青森県五戸町大字倉石中市字幸神94-1,1,,,40.5050377538242,141.247621744557,
354,E0244200059111,明幸園,青森県五戸町大字倉石中市字小渡88-2,1,,,40.5044723554079,141.27817912792,
355,E0244200062111,倉石コミュニティセンター,青森県五戸町大字倉石中市字上ミ平20-4,,,,40.5070710911114,141.253025120252,
356,E0244200063111,倉石中学校,青森県五戸町大字倉石中市字上ミ平36,1,,,40.5058497600319,141.251229023526,
357,E0244200066111,倉石小学校,青森県五戸町大字倉石中市字田茂平40,1,,,40.5065588389476,141.254399556677,
358,E0244200075111,倉石温泉,青森県五戸町大字倉石又重字上川原150,,,,40.4820656336834,141.217470902965,
359,E0244200088111,五戸中学校,青森県五戸町大字豊間内字地蔵平1-276,1,,,40.5101477141411,141.326094266796,
360,E0244200089111,五戸ドーム,青森県五戸町大字豊間内字地蔵平1-398,1,,,40.5086957612114,141.328355444989,
361,E0244200090111,ひばり野団地集会所,青森県五戸町大字豊間内字地蔵平1-776,1,,,40.510513,141.314521,
362,E0244200091111,豊間内地区コミュニティセンター,青森県五戸町大字豊間内字豊間内2-1,1,,,40.5025326671991,141.347898784484,
363,E0220500001121,みどりの風こども園ひろた,青森県五所川原市みどり町2-45-1,,,乳幼児,40.787666287986,140.4516098904,
364,E0220500003121,みどりの風オアシス,青森県五所川原市みどり町3-93-1,,,乳幼児,40.786427910126,140.45451956044,
365,E0220500004121,認定こども園なおみ園,青森県五所川原市みどり町4-126-1,,,乳幼児,40.78282334,140.4584285,
366,E0220500005111,コミュニティセンター栄,青森県五所川原市みどり町4-130,1,,,40.782986,140.459262,
367,E0220500008111,磯松コミュニティセンター,青森県五所川原市磯松磯野186-1,1,,,41.07577326,140.3255141,
368,E0220500009111,もや会館,青森県五所川原市磯松山の井115-138,1,,,41.083923,140.324722,
369,E0220500031121,グループホーム　夢の森かなぎ,青森県五所川原市金木町芦野200-122,,,障がい者（肢体・知的）,40.91147468,140.4599558,
370,E0220500031122,ライフサポート　夢の森,青森県五所川原市金木町芦野200-122,,,障がい者（肢体・知的）,40.91120712,140.4598486,
371,E0220500032121,住宅型有料老人ホーム　たんぽぽの家,青森県五所川原市金木町芦野200-263,,,高齢者,40.91159505,140.4559994,
372,E0220500033121,有限会社ケアサービスたんぽぽ,青森県五所川原市金木町芦野200-267,,,高齢者,40.91182726,140.4560423,
373,E0220500034121,グループホームたんぽぽ,青森県五所川原市金木町芦野200-269,,,高齢者,40.91202186,140.456053,
374,E0220500035111,金木東部地区コミュニティセンター,青森県五所川原市金木町芦野318,1,,,40.90516855,140.4663332,
375,E0220500036121,グループホーム大東ケ丘,青森県五所川原市金木町芦野363-141,,,高齢者,40.92548022,140.4953513,
376,E0220500037121,大東ヶ丘サントピアホーム,青森県五所川原市金木町芦野363-58,,,障がい者（すべて）,40.92505562,140.4947488,
377,E0220500039111,金木小学校,青森県五所川原市金木町芦野84-54,1,,,40.90928391,140.4527678,
378,E0220500040111,金木中学校,青森県五所川原市金木町芦野84-9,1,,,40.90523596,140.4622623,
379,E0220500044111,嘉瀬コミュニティセンター,青森県五所川原市金木町嘉瀬端山崎76-1,1,,,40.8825082,140.4618404,
380,E0220500048111,喜良市コミュニティセンター,青森県五所川原市金木町喜良市千苅196-3,1,,,40.892695,140.4840881,
381,E0220500052111,金木公民館,青森県五所川原市金木町菅原367-1,1,,,40.89681661,140.4537884,
382,E0220500244121,みどりの風こども園かなぎ,青森県五所川原市金木町菅原369-1,,,乳幼児,40.8964,140.454167,
383,E0220500053122,金木中央老人福祉センター,青森県五所川原市金木町川倉七夕野426-11,,,高齢者,40.91843546,140.4629137,
384,E0220500053121,金木生活支援ハウス,青森県五所川原市金木町川倉七夕野426-11,,,高齢者,40.91818008,140.4631793,
385,E0220500054121,住宅型有料老人ホーム　パンション湯の川,青森県五所川原市金木町川倉七夕野84-1605,,,高齢者,40.92272339,140.4579079,
386,E0220500055121,さくら園デイサービスセンター,青森県五所川原市金木町川倉七夕野84-367,,,高齢者,40.92250857,140.4580098,
387,E0220500055122,グループホーム　さくら園,青森県五所川原市金木町川倉七夕野84-367,,,高齢者,40.92262611,140.4579615,
388,E0220500056121,デイサービスセンター　あしの園,青森県五所川原市金木町川倉七夕野84-442,,,高齢者,40.92146829,140.45665,
389,E0220500061111,川倉ふれあいセンター,青森県五所川原市金木町川倉米出100-1,1,,,40.927888537219,140.45218326563,
390,E0220500063111,蒔田コミュニティ消防センター,青森県五所川原市金木町沢部396-1,1,,,40.9083149,140.4337131,
391,E0220500065121,えいぷりる,青森県五所川原市金木町朝日山85-4,,,障がい者（知的・精神・発達）,40.90602702,140.4545325,
392,E0220500190111,中央公民館,青森県五所川原市字一ツ谷504-1,1,,,40.80807992,140.4490211,
393,E0220500075121,高齢者グループホーム憩いの家,青森県五所川原市字一ツ谷554-10,,,高齢者,40.80956739,140.455652,
394,E0220500076121,デイサービスセンター　ほほえみ,青森県五所川原市字烏森572-1,,,高齢者,40.80441426,140.451443,
395,E0220500077121,グループホーム　エルムの里,青森県五所川原市字烏森572-2,,,高齢者,40.80432899,140.4518936,
396,E0220500198111,市民体育館,青森県五所川原市字栄町20-1,1,,,40.79905535,140.4433058,
397,E0220500241121,認定こども園第二さつき,青森県五所川原市字下平井町21,,,乳幼児,40.81769977,140.4486475,
398,E0220500202111,コミュニティ防災センター,青森県五所川原市字鎌谷町16,1,,,40.80556011,140.4467462,
399,E0220500242121,こども園かまや,青森県五所川原市字鎌谷町510-16,,,乳幼児,40.8058075,140.4483239,
400,E0220500079121,さかもとデイサービスセンター,青森県五所川原市字鎌谷町519-5,,,高齢者,40.80781692,140.4539614,
401,E0220500080121,あずましや支援ハウス,青森県五所川原市字鎌谷町520-4,,,障がい者（肢体）,40.8069431,140.453678,
402,E0220500082121,五所川原市養護老人ホーム　くるみ園,青森県五所川原市字幾世森165-1,,,高齢者,40.82110142,140.4472697,
403,E0220500084121,五所川原市地域福祉センター,青森県五所川原市字幾世森24-38,,,高齢者・障がい者（すべて）・妊婦,40.82046754,140.4473411,
404,E0220500085111,北部コミュニティセンター,青森県五所川原市字幾世森51-1,1,,,40.81931591,140.4509706,
405,E0220500215111,中央コミュニティセンター,青森県五所川原市字上平井町16,1,,,40.81159601,140.443042,
406,E0220500217111,働く婦人の家,青森県五所川原市字新町33-1,1,,,40.80635884,140.4438175,
407,E0220500086121,増田病院,青森県五所川原市字新町41,,,高齢者,40.80725359,140.4437577,
408,E0220500245121,認定こども園第一さつき,青森県五所川原市字雛田162-34,,,乳幼児,40.81610009,140.4489804,
409,E0220500088121,地域活動支援センター　ラ・プリマベラ,青森県五所川原市字芭蕉48-2,,,障がい者（精神）,40.8179119,140.4359497,
410,E0220500246121,自立訓練（生活訓練）ほほえみハウス,青森県五所川原市字不魚住75-10,,,障がい者（知的・精神）,40.79908804,140.4407688,
411,E0220500089121,デイサービス　けやき,青森県五所川原市字敷島町1-3,,,高齢者,40.81208295,140.4454697,
412,E0220500233111,しきしまコミュニティセンター,青森県五所川原市字敷島町36-28,1,,,40.81521483,140.4465951,
413,E0220500237111,富士見コミュニティセンター,青森県五所川原市字蓮沼14,1,,,40.80038033,140.442479,
414,E0220500238111,南小学校,青森県五所川原市字蓮沼2,1,,,40.8020851,140.4433688,
415,E0220500247121,認定こども園さくら保育園,青森県五所川原市字蓮沼60-2,,,乳幼児,40.79835954,140.4416206,
416,E0220500096121,新宮団地こども園,青森県五所川原市若葉2-1-8,,,乳幼児,40.81699238,140.4431144,
417,E0220500097121,びーた支援センター,青森県五所川原市若葉3-4-3,,,障がい者（知的・精神・発達）,40.82034304,140.4421808,
418,E0220500099111,十三コミュニティセンター,青森県五所川原市十三深津210,1,,,41.030072398713,140.3272000086,
419,E0220500103111,松島会館,青森県五所川原市松島町2-89,1,,,40.80728,140.459458,
420,E0220500104111,中央小学校,青森県五所川原市松島町2-94,1,,,40.80623633,140.456128,
421,E0220500105111,第一中学校,青森県五所川原市松島町3-1,1,,,40.80757159,140.4553223,
422,E0220500106121,ケアホームのりた,青森県五所川原市松島町4-55,,,高齢者,40.8093319,140.4629933,
423,E0220500119122,みどりの風こども園あとむ,青森県五所川原市相内258-1,,,乳幼児,41.056282,140.348246,
424,E0220500120121,市浦生活支援ハウス,青森県五所川原市相内321,,,高齢者,41.05450938,140.3473251,
425,E0220500121111,市浦中学校,青森県五所川原市相内岩井81,1,,,41.06025122,140.3494004,
426,E0220500122111,市浦コミュニティセンター,青森県五所川原市相内岩井81-384,1,,,41.059761,140.351506,
427,E0220500124111,基幹集落センター,青森県五所川原市相内岩井81-429,1,,,41.05426858,140.3559892,
428,E0220500125111,市浦小学校,青森県五所川原市相内岩井85,1,,,41.05405302,140.354343,
429,E0220500126111,桂川集会所,青森県五所川原市相内桂川288,1,,,41.0650085,140.3787836,
430,E0220500128111,太田集会所,青森県五所川原市太田山の井597,1,,,41.05313318,140.3993616,
431,E0220500191111,一野坪コミュニティセンター,青森県五所川原市大字一野坪字早蕨7-4,1,,,40.82376172,140.4631142,
432,E0220500192111,青森県立五所川原農林高等学校,青森県五所川原市大字一野坪字朝日田12-37,1,,,40.81875564,140.4854027,
433,E0220500194111,コミュニティセンター七和,青森県五所川原市大字羽野木沢字隈無13,1,,,40.75604735,140.5216212,
434,E0220500195111,第二中学校,青森県五所川原市大字羽野木沢字隈無179-2,1,,,40.7557611,140.5257374,
435,E0220500129121,七和保育園,青森県五所川原市大字羽野木沢字実吉66-3,,,乳幼児,40.753814,140.5203729,
436,E0220500130121,特定非営利活動法人　ＭＥＧＯ,青森県五所川原市大字姥萢字桜木276-1,,,障がい者（肢体・知的）,40.78514091,140.4395529,
437,E0220500131121,地域密着型特別養護老人ホームさくらの里,青森県五所川原市大字姥萢字桜木424-1,,,高齢者,40.788171577636,140.44489026862,
438,E0220500197111,栄小学校,青森県五所川原市大字姥萢字船橋156-2,1,,,40.789335,140.456778,
439,E0220500132121,認定こども園五所川原こども園,青森県五所川原市大字姥萢字船橋52-214,,,乳幼児,40.79516176,140.4549834,
440,E0220500133121,特別養護老人ホーム　祥光苑,青森県五所川原市大字沖飯詰字帯刀357-1,,,高齢者,40.83586583,140.4525243,
441,E0220500200111,第四中学校,青森県五所川原市大字沖飯詰字男鹿274-1,1,,,40.83327419,140.46914,
442,E0220500243123,特別養護老人ホーム　青山荘,青森県五所川原市大字金山字盛山42-8,,,高齢者,40.80890014,140.4995981,
443,E0220500243122,青山荘デイサービスセンター,青森県五所川原市大字金山字盛山42-8,,,高齢者,40.80856313,140.4992923,
444,E0220500243121,青山荘グループホーム,青森県五所川原市大字金山字盛山42-8,,,高齢者,40.8084738,140.4994426,
445,E0220500134121,障害者支援施設　青松園,青森県五所川原市大字金山字千代鶴142,,,障がい者（知的・精神）,40.81726459,140.5065781,
446,E0220500135121,ケアハウス　あじさい,青森県五所川原市大字金山字竹崎203-3,,,高齢者,40.80872862,140.4740831,
447,E0220500136121,介護老人保健施設　緑風苑,青森県五所川原市大字金山字竹崎254,,,高齢者,40.80761724,140.4747107,
448,E0220500204111,コミュニティセンター松島,青森県五所川原市大字金山字竹崎48-10,1,,,40.80657,140.477868,
449,E0220500137121,サコージュさかもと,青森県五所川原市大字広田字榊森51-8,,,高齢者,40.78464868,140.4672675,
450,E0220500206111,第三中学校,青森県五所川原市大字広田字藤浦105-1,1,,,40.78183254,140.463478,
451,E0220500138122,自立訓練（生活訓練）訓練はばたけ,青森県五所川原市大字広田字柳沼115-5,,,障がい者（知的・精神・発達）,40.78496266,140.4665404,
452,E0220500138121,ニューはばたけ,青森県五所川原市大字広田字柳沼115-5,,,障がい者（知的・精神・発達）,40.78492204,140.4663901,
453,E0220500208111,コミュニティセンター三好,青森県五所川原市大字高瀬字鷹ノ爪190-1,1,,,40.84221496417,140.4169511344,
454,E0220500211111,三輪小学校,青森県五所川原市大字七ツ館字虫流6-5,1,,,40.77943308,140.474052,
455,E0220500139121,シルバービレッジ憩いの杜,青森県五所川原市大字漆川字清水流2-3,,,高齢者,40.813432811935,140.46180115705,
456,E0220500188121,まつしま団地こども園,青森県五所川原市大字漆川字浅井12-1,,,乳幼児,40.810927,140.461938,
457,E0220500140121,ケアホームうるしかわ,青森県五所川原市大字漆川字浅井122-1,,,障がい者（肢体・視覚・聴覚・内部）,40.81166788,140.4637052,
458,E0220500141121,障がい者支援施設　第二うちがた,青森県五所川原市大字漆川字浅井124-1,,,障がい者（肢体・視覚・聴覚・内部）,40.81218954,140.4637542,
459,E0220500142121,ふれあいホームいこい,青森県五所川原市大字漆川字浅井143-4,,,高齢者,40.812994667279,140.46080426553,
460,E0220500143121,グループホーム　第２さくら,青森県五所川原市大字漆川字鍋懸131-1,,,障がい者（知的）,40.8179106,140.4544962,
461,E0220500212111,漆川体育館,青森県五所川原市大字漆川字鍋懸151-30,1,,,40.817844447198,140.46341545984,
462,E0220500213111,小曲集会所,青森県五所川原市大字小曲字豊里176,1,,,40.81356637,140.430381,
463,E0220500216111,五所川原小学校,青森県五所川原市大字新宮字岡田161,1,,,40.82180367,140.4389344,
464,E0220500218111,東峰小学校,青森県五所川原市大字神山字山越1-26,1,,,40.787947,140.517051,
465,E0220500240111,コミュニティセンター長橋,青森県五所川原市大字神山字鶉野34-2,1,,,40.79084768,140.5133337,
466,E0220500144121,アミスタ五所川原,青森県五所川原市大字水野尾字懸樋218-1,,,高齢者・障がい者（すべて）・妊婦,40.790735265038,140.48280421952,
467,E0220500145121,ラポール五所川原,青森県五所川原市大字水野尾字懸樋219-3,,,高齢者・障がい者（すべて）・妊婦,40.790577538583,140.48217259885,
468,E0220500146121,五所川原リハビリ倶楽部,青森県五所川原市大字水野尾字懸樋222-3,,,障がい者（肢体・視覚・聴覚・内部・知的）,40.78948961,140.4821956,
469,E0220500146123,ケアハウスハルニレ,青森県五所川原市大字水野尾字懸樋222-3,,,高齢者,40.79042797,140.4816032,
470,E0220500146122,さかえデイサービスセンター,青森県五所川原市大字水野尾字懸樋222-3,,,高齢者,40.79026534,140.4816859,
471,E0220500147121,グループホームわらび・よりあい処わらび,青森県五所川原市大字水野尾字懸樋222-5,,,高齢者,40.78988632,140.4818472,
472,E0220500221111,コミュニティセンター中川,青森県五所川原市大字川山字森内395,1,,,40.83756985,140.4390275,
473,E0220500148121,中川保育園,青森県五所川原市大字川山字千本29-2,,,乳幼児,40.83463713,140.4464375,
474,E0220500149122,特別養護老人ホーム　あかね荘,青森県五所川原市大字前田野目字長峰112-2,,,高齢者,40.75985842,140.5561619,
475,E0220500149121,あかねデイサービスセンター,青森県五所川原市大字前田野目字長峰112-2,,,高齢者,40.76019161,140.5563657,
476,E0220500222111,前田野目集会所,青森県五所川原市大字前田野目字長峰28,1,,,40.754145,140.551535,
477,E0220500150121,こども園もがわ,青森県五所川原市大字藻川字川袋281-58,,,乳幼児,40.86968152,140.4080635,
478,E0220500151121,三好保育所,青森県五所川原市大字鶴ケ岡字川袋26,,,乳幼児,40.84329656,140.4163827,
479,E0220500239111,三好小学校,青森県五所川原市大字鶴ケ岡字唐橋25-2,1,,,40.84885999,140.4100395,
480,E0220500152124,ワークサポート八晃園,青森県五所川原市大字唐笠柳字村崎242,,,障がい者（知的・精神・発達）,40.79372252,140.4643544,
481,E0220500152123,ジョブサポート八晃園,青森県五所川原市大字唐笠柳字村崎242,,,障がい者（知的・精神・発達）,40.7936413,140.4647084,
482,E0220500152122,サポートセンターステラ,青森県五所川原市大字唐笠柳字村崎242,,,障がい者（知的・精神・発達）,40.79376313,140.464923,
483,E0220500152121,児童デイサービス八晃園,青森県五所川原市大字唐笠柳字村崎242,,,障がい者（知的・精神・発達）,40.79369816,140.4643893,
484,E0220500153121,デイサービスセンターまごころ,青森県五所川原市大字唐笠柳字藤巻478-17,,,高齢者,40.79388292,140.4627854,
485,E0220500154111,サンビレッジ五所川原,青森県五所川原市大字唐笠柳字藤巻507-6,1,,,40.797103852321,140.45779553587,
486,E0220500226111,梅沢コミュニティセンター,青森県五所川原市大字梅田字燕口118-3,1,,,40.765566,140.4775,
487,E0220500155121,障害者支援施設　栄幸園,青森県五所川原市大字梅田字燕口257,,,障がい者（知的・精神）,40.76481508,140.4814478,
488,E0220500156121,うめたこども園,青森県五所川原市大字梅田字福浦144-5,,,乳幼児,40.77504359,140.4727517,
489,E0220500157121,うめたデイサービスセンター,青森県五所川原市大字梅田字福浦405-2,,,高齢者,40.77534416,140.4722287,
490,E0220500227111,青森職業能力開発短期大学校,青森県五所川原市大字飯詰字狐野171-2,1,,,40.81949671,140.4961596,
491,E0220500158121,幼保連携型認定こども園たかたての森,青森県五所川原市大字飯詰字狐野70-1,,,乳幼児,40.82229264,140.4922169,
492,E0220500159121,若葉こども園,青森県五所川原市大字飯詰字石田172,,,乳幼児,40.83578745,140.4924831,
493,E0220500229111,いずみ小学校,青森県五所川原市大字飯詰字石田184,1,,,40.8352564,140.491974,
494,E0220500230111,コミュニティセンター飯詰,青森県五所川原市大字飯詰字福泉166-1,1,,,40.830615,140.487637,
495,E0220500231111,毘沙門・長富コミュニティセンター,青森県五所川原市大字毘沙門字熊石30-2,1,,,40.85221,140.457451,
496,E0220500160121,デイサービス　ライラック,青森県五所川原市大字福山字実吉72-3,,,高齢者,40.7786169,140.4974134,
497,E0220500161121,幼保連携型認定こども園津軽野,青森県五所川原市大字米田字八ッ橋67-2,,,乳幼児,40.8061998,140.4733052,
498,E0220500235111,松島小学校,青森県五所川原市大字米田字八ツ橋8,1,,,40.80475,140.47433,
499,E0220500162121,幼保連携型認定こども園長橋,青森県五所川原市大字豊成字田子ノ浦70-5,,,乳幼児,40.77633256,140.517367,
500,E0220500189111,青森県立五所川原工科高等学校,青森県五所川原市大字湊字船越192,1,,,40.791279,140.446501,
501,E0220500163121,幼保連携型認定こども園さかえ,青森県五所川原市大字湊字船越224-3,,,乳幼児,40.79252426,140.4459682,
502,E0220500164111,南部コミュニティセンター,青森県五所川原市中央4-130,1,,,40.796481222386,140.45120801164,
503,E0220500184121,特別養護老人ホーム　すわんの里,青森県五所川原市脇元磯辺365-1,,,高齢者,41.09548168,140.3194775,
504,E0220200002111,西小学校,青森県弘前市茜町3-2-1,1,,,40.601017276954,140.444895814028,
505,E0220200003111,青柳小学校,青森県弘前市悪戸字村元7-2,1,,,40.5912271720357,140.427098381055,
506,E0220200013111,市民会館,青森県弘前市下白銀町1-6,1,,,40.60489414,140.4622519,
507,E0220200014111,弘前文化センター,青森県弘前市下白銀町19-4,1,,,40.60699565,140.46929,
508,E0220200015111,弘前市立観光館,青森県弘前市下白銀町2-1,1,,,40.60307461,140.465289,
509,E0220200017111,岩木総合支所,青森県弘前市賀田1-1-1,1,,,40.61618414,140.4216451,
510,E0220200018111,中央公民館岩木館,青森県弘前市賀田1-18-3,1,,,40.6167120704931,140.419487735947,
511,E0220200019111,岩木文化センター,青森県弘前市賀田1-18-4,1,,,40.616774,140.420249,
512,E0220200022111,弘前大学教育学部附属小学校屋内運動場,青森県弘前市学園町1-1,,,,40.5798974257999,140.48287418873,
513,E0220200027111,自得小学校,青森県弘前市鬼沢字菖蒲沢109-4,1,,,40.68575472,140.414067,
514,E0221000001121,グループホーム　バンドー弘前公園,青森県弘前市亀甲町70,,左記のうち、事前に市が特定し、環境調整を事前に行った者,要配慮者,40.612158425905,140.4684958945,
515,E0220200030111,桔梗野小学校,青森県弘前市桔梗野2-21,1,,,40.5922491609192,140.462948702904,
516,E0220200032111,時敏小学校,青森県弘前市宮園1-5-1,1,,,40.614076,140.476784,
517,E0221000002121,グループホーム　アップルハウス,青森県弘前市境関亥ノ宮29-1,,左記のうち、事前に市が特定し、環境調整を事前に行った者,要配慮者,40.615394,140.504881,
518,E0220200041111,岩木Ｂ＆Ｇ海洋センター,青森県弘前市兼平字猿沢32-11,1,,,40.605345,140.4137,
519,E0220200045111,千年交流センター,青森県弘前市原ケ平5-1-13,1,,,40.56515338,140.4722042,
520,E0220200047111,南中学校,青森県弘前市原ケ平字山中20-13,1,,,40.56736583,140.4664475,
521,E0220200048111,市民体育館,青森県弘前市五十石町7,1,,,40.60830753,140.4588648,
522,E0220200049111,相馬総合支所,青森県弘前市五所字野沢41-1,1,,,40.58549994,140.3967372,
523,E0220200050111,長慶閣,青森県弘前市五所字野沢44-3,,,,40.5847243866348,140.398398778216,
524,E0220200053111,岩木小学校,青森県弘前市五代字前田451,1,,,40.61322553,140.4187169,
525,E0220200054111,津軽中学校,青森県弘前市五代字早稲田478,1,,,40.61824,140.414289,
526,E0220200055111,大成小学校,青森県弘前市御幸町13-1,1,,,40.59464774,140.4761606,
527,E0220200061111,北辰中学校,青森県弘前市高杉字五反田191,1,,,40.6625838027228,140.435630637987,
528,E0220200063111,高杉小学校,青森県弘前市高杉字神原7-1,1,,,40.65771729,140.4343302,
529,E0220200066111,ＳＡＰＰＡ－Ｄｏ,青森県弘前市高田4-3-4,,,,40.5994901749561,140.507854742191,
530,E0220200071111,相馬小学校,青森県弘前市黒滝字二ノ松本2-4,1,,,40.583799,140.399569,
531,E0220200074111,船沢小学校,青森県弘前市細越字早稲田42,1,,,40.64057358,140.4137123,
532,E0220200075111,朝陽小学校,青森県弘前市在府町36,1,,,40.59809201,140.4609498,
533,E0220200083111,相馬中学校,青森県弘前市紙漉沢字山越48,1,,,40.5793967370912,140.388252124984,
534,E0220200086111,新和中学校,青森県弘前市種市字小島57-2,1,,,40.706487,140.4299796,
535,E0220200087111,新和地区体育文化交流センター,青森県弘前市種市字木幡387,1,,,40.70357168,140.4300662,
536,E0220200088111,第四中学校,青森県弘前市樹木5-2-6,1,,,40.58868869,140.459326,
537,E0220200091111,裾野小学校,青森県弘前市十面沢字轡293,1,,,40.7177630400529,140.356925668663,
538,E0220200093111,裾野地区体育文化交流センター,青森県弘前市十面沢字轡8-9,1,,,40.7186941165818,140.357821526471,
539,E0220200095111,裾野中学校,青森県弘前市十面沢字湯ケ森40,1,,,40.720081088542,140.36070325219,
540,E0220200096111,南部清掃工場,青森県弘前市小金崎字川原田54,1,,,40.5426745523997,140.548703472046,
541,E0220200099111,千年公民館,青森県弘前市小栗山字川合115-1,1,,,40.56551831,140.4845882,
542,E0220200100111,千年小学校,青森県弘前市小栗山字川合119-7,1,,,40.56746318,140.4869677,
543,E0220200101111,清水公民館,青森県弘前市小沢字御笠見46-10,1,,,40.56068676,140.4348025,
544,E0220200254111,弘前医療福祉大学,青森県弘前市小比内3-18-1,,,,40.588799,140.500473,
545,E0220200106111,松原小学校,青森県弘前市松原東2-17,1,,,40.5741129,140.4818656,
546,E0220200107111,柴田学園大学短期大学部,青森県弘前市上瓦ケ町25,,,,40.6006322941475,140.4768510943,
547,E0220200108111,弘前市役所,青森県弘前市上白銀町1-1,1,,,40.60304972,140.4640702,
548,E0220200118111,東小学校,青森県弘前市城東中央5-6-1,1,,,40.60143652,140.4987863,
549,E0220200122111,岩木青少年スポーツセンター,青森県弘前市常盤野字湯段萢1-2,1,,,40.626404,140.264911,
550,E0220200124111,弘前高校,青森県弘前市新寺町1-1,1,,,40.595189,140.467619,
551,E0220200125111,城西小学校,青森県弘前市新町236-1,1,,,40.61035563,140.4587216,
552,E0220200127111,柴田学園大学,青森県弘前市清原1-1-16,,,,40.5803437636857,140.485330414509,
553,E0220200135111,北小学校,青森県弘前市青山3-15-1,1,,,40.623241,140.479561,
554,E0220200138111,新和小学校,青森県弘前市青女子字桜苅292-4,1,,,40.69517671,140.4438304,
555,E0220200139113,石川小・中学校,青森県弘前市石川字庄司川添19-1,1,,,40.550899,140.550211,
556,E0220200141111,東奥義塾高等学校,青森県弘前市石川字長者森61-1,,,,40.5536065033929,140.524696970579,
557,E0236200001121,グループホームやすらぎ,青森県弘前市石川大仏下53,,,避難行動要支援者,40.5516240944661,140.542891420182,
558,E0220200142111,河西体育センター,青森県弘前市石渡1-19-1,1,,,40.63131977,140.4496479,
559,E0220200143111,すぱーく弘前,青森県弘前市石渡1-19-2,,,,40.6316313509687,140.450284771251,
560,E0220200150111,第五中学校,青森県弘前市川先2-4-1,1,,,40.586857,140.493729,
561,E0220200152111,弘前東高等学校,青森県弘前市川先4-4-1,,,,40.5897597102777,140.490198843714,
562,E0220200156111,泉野多目的コミュニティ施設,青森県弘前市泉野3-6-2,1,,,40.5748354846393,140.493445990547,
563,E0220200160111,相馬ふれあい館,青森県弘前市相馬字八反田25,1,,,40.56343229,140.3685357,
564,E0220200161111,弘前中央高校,青森県弘前市蔵主町7-1,1,,,40.6088194193263,140.469366124174,
565,E0220200162111,和徳小学校,青森県弘前市代官町107-3,1,,,40.60397714,140.4810883,
566,E0220200163111,清水交流センター,青森県弘前市大開2-1-2,1,,,40.57569687,140.4473598,
567,E0220200164111,小沢小学校,青森県弘前市大開2-5-1,1,,,40.57400245,140.4443698,
568,E0220200165111,弘前南高校,青森県弘前市大開4-1-1,1,,,40.580467,140.445399,
569,E0220200166111,城東小学校,青森県弘前市大久保字西田105-40,1,,,40.62952685,140.4922319,
570,E0221000003121,弘前リカバリーセンター（弘前城東医院　併設）,青森県弘前市大字高田1-10-7,,左記のうち、事前に市が特定し、環境調整を事前に行った者,要配慮者,40.598191,140.49957,
571,E0221000004121,特別養護老人ホーム　弘前大清水ホーム,青森県弘前市大字清原4-9-2,,左記のうち、事前に市が特定し、環境調整を事前に行った者,要配慮者,40.577942,140.490399,
572,E0221000005121,グループホーム　やすらぎ,青森県弘前市大字石川字大仏下53,,左記のうち、事前に市が特定し、環境調整を事前に行った者,要配慮者,40.551699,140.542916,
573,E0221000006121,有料老人ホーム　ほのぼの,青森県弘前市大字石川字大仏下55-1,,左記のうち、事前に市が特定し、環境調整を事前に行った者,要配慮者,40.55144,140.542743,
574,E0221000007121,特別養護老人ホーム　白寿園,青森県弘前市大字大沢字稲元3-2,,左記のうち、事前に市が特定し、環境調整を事前に行った者,要配慮者,40.558371,140.516425,
575,E0221000008121,特別養護老人ホーム　福寿園,青森県弘前市大字福村字新舘添50-8,,左記のうち、事前に市が特定し、環境調整を事前に行った者,要配慮者,40.60641834893,140.51636842264,
576,E0221000009121,グループホームサンライフ堀越,青森県弘前市大字堀越字柳元293,,左記のうち、事前に市が特定し、環境調整を事前に行った者,要配慮者,40.565794383234,140.5252816849,
577,E0221000010121,グループホーム太陽の里,青森県弘前市大字堀越字柳田3-12,,左記のうち、事前に市が特定し、環境調整を事前に行った者,要配慮者,40.569913,140.523937,
578,E0236200002121,特別養護老人ホーム白寿園,青森県弘前市大沢字稲元3-2,,,避難行動要支援者,40.5583190736504,140.516401595165,
579,E0220200177111,三省小学校,青森県弘前市中崎字野脇142-2,1,,,40.65537518,140.4589019,
580,E0220200180111,文京小学校,青森県弘前市中野1-1-1,1,,,40.5838365275428,140.474715929826,
581,E0220200182111,弘前実業高校,青森県弘前市中野3-6-10,1,,,40.57821973,140.4746564,
582,E0220200183111,東目屋ふれあいセンター,青森県弘前市中野字中豊田20,1,,,40.58933853,140.3227912,
583,E0220200184111,町田地区ふれあいセンター,青森県弘前市町田1-4-1,1,,,40.63596315,140.4595042,
584,E0220200185111,弘前地区環境整備センター,青森県弘前市町田字筒井6-2,1,,,40.6429541083772,140.464397314111,
585,E0220200197111,北辰学区高杉ふれあいセンター,青森県弘前市独狐字山辺72-1,1,,,40.65620486,140.4368118,
586,E0220200207111,弘前Ｂ＆Ｇ海洋センター,青森県弘前市八幡町1-9-1,1,,,40.61598739,140.4781305,
587,E0220200217111,致遠小学校,青森県弘前市浜の町北1-7-1,1,,,40.62536738,140.4605381,
588,E0220200219111,船沢中学校,青森県弘前市富栄字浅井名1,1,,,40.642262733314,140.41482360489,
589,E0220200222111,第三大成小学校,青森県弘前市富田町47,1,,,40.58685424,140.4820673,
590,E0220200223111,福村小学校,青森県弘前市福村1-1-1,1,,,40.60768,140.511738,
591,E0220200224111,弘前大学第一体育館および第二体育館,青森県弘前市文京町1,,,,40.5884965309947,140.471053855906,
592,E0220200226111,第二中学校,青森県弘前市平岡町72,1,,,40.60919292,140.4539282,
593,E0220200227111,第三中学校,青森県弘前市豊原1-3-3,1,,,40.58341466,140.4761107,
594,E0220200228111,豊田小学校,青森県弘前市豊田1-4-1,1,,,40.5939765963076,140.498049446216,
595,E0220200229111,サンライフ弘前,青森県弘前市豊田1-8-1,,,,40.5944028113118,140.499156136438,
596,E0220200230111,青森県武道館,青森県弘前市豊田2-3,1,,,40.5936938749335,140.503573070791,
597,E0220200231111,克雪トレーニングセンター,青森県弘前市豊田2-3-1,1,,,40.59276419,140.5042308,
598,E0236200003121,グループホームサンライフ堀越,青森県弘前市堀越柳元293,,,避難行動要支援者,40.5660607362204,140.524823647093,
599,E0236200004121,グループホーム太陽の里,青森県弘前市堀越柳田3-12,,,避難行動要支援者,40.5698961798733,140.523925298589,
600,E0220200234111,東中学校,青森県弘前市末広3-2-1,1,,,40.60299998,140.5034862,
601,E0220200235111,総合学習センター,青森県弘前市末広4-10-1,1,,,40.6041971,140.5037698,
602,E0220200239111,堀越小学校,青森県弘前市門外1-3-3,1,,,40.5808295,140.4989656,
603,E0220200240111,堀越公民館,青森県弘前市門外2-3-11,1,,,40.57895325,140.5043294,
604,E0220200241111,ラグリー,青森県弘前市野田1-4-1,,,,40.6079606152589,140.480238965411,
605,E0220200245111,大和沢小学校,青森県弘前市狼森字天王12-1,1,,,40.55678494,140.4707974,
606,E0220200246111,フォルトーナ,青森県弘前市和徳町140,,,,40.6069555720329,140.48149001657,
607,E0220200248111,第一中学校,青森県弘前市和徳町363-13,1,,,40.60861974,140.4771982,
608,E0220400050111,旧黒石商業高等学校柔剣道場,青森県黒石市あけぼの町97-4,1,,,40.65575,140.606949,
609,E0220400050112,旧黒石商業高等学校第１体育館,青森県黒石市あけぼの町97-4,1,,,40.655753,140.607828,
610,E0220400001111,スポカルイン黒石,青森県黒石市ぐみの木3-65,1,,,40.6505971585094,140.594163146187,
611,E0221000011121,グループホームサンライフ浦町,青森県黒石市浦町1-82,,左記のうち、事前に市が特定し、環境調整を事前に行った者,要配慮者,40.643200587561,140.59788436014,
612,E0220400005111,厚目内多目的集会施設,青森県黒石市沖浦字青荷澤22,1,,,40.542211209857,140.72770537307,
613,E0220400008112,牡丹平公民館,青森県黒石市牡丹平字諏訪野平9,1,,,40.631329442969,140.62910277858,
614,E0220400009111,山形公民館,青森県黒石市温湯字派15-1,1,,,40.609135,140.664584,
615,E0220400010111,中郷中学校体育館,青森県黒石市株梗木字中渡1-1,1,,,40.6559158693026,140.591011362357,
616,E0220400010112,黒石小学校体育館,青森県黒石市株梗木字中渡1-1,1,,,40.6555143998941,140.591531557667,
617,E0220400011111,社会福祉センター体育館,青森県黒石市境松1-1-1,1,,,40.6473276592481,140.581713063887,
618,E0220400013111,黒石中学校体育館,青森県黒石市柵ノ木4-1,1,,,40.6395066367748,140.612066750091,
619,E0220400014111,六郷小学校体育館,青森県黒石市三島字宮元380-1,1,,,40.6712902388011,140.619679398801,
620,E0220400015111,東公民館,青森県黒石市春日町20-9,1,,,40.644222342815,140.60374692761,
621,E0220400016111,黒石東小学校体育館,青森県黒石市春日町70,1,,,40.6448833956267,140.605693439147,
622,E0220400018112,中郷公民館,青森県黒石市小屋敷字馬場尻道添12-2,1,,,40.6760316506,140.595344725,
623,E0220400020111,東英小学校体育館,青森県黒石市上山形字築館9-1,,,,40.6112023621333,140.663066636235,
624,E0220400022111,派立コミュニティセンター,青森県黒石市上十川字村元一番71-1,1,,,40.6626263891605,140.615356007079,
625,E0220400023111,上十川公民館,青森県黒石市上十川字留岡一番17-2,1,,,40.65718083867,140.61613364323,
626,E0220400024111,西部地区センター,青森県黒石市西ケ丘189-1,1,,,40.649586,140.585246,
627,E0220400025111,黒石高等学校体育館,青森県黒石市西ケ丘65,1,,,40.6474516631185,140.5866030779,
628,E0220400026111,一心友会館,青森県黒石市石名坂字櫻清水49-3,1,,,40.627209,140.631259,
629,E0220400027111,六郷公民館,青森県黒石市赤坂字野崎1,1,,,40.670332,140.62385,
630,E0220400030112,浅瀬石公民館,青森県黒石市浅瀬石字村上160,1,,,40.628662,140.610886,
631,E0220400047111,津軽伝承工芸館,青森県黒石市袋字富山65-1,1,,,40.60574,140.676117,
632,E0220400048111,津軽こけし館,青森県黒石市袋字富山72-1,1,,,40.606552,140.675827,
633,E0221000012121,黒石特別養護老人ホーム,青森県黒石市大字赤坂字池田136,,左記のうち、事前に市が特定し、環境調整を事前に行った者,要配慮者,40.66652911823,140.60948900801,
634,E0220400034111,沖揚平活性化施設,青森県黒石市大川原字蛭貝沢203,1,,,40.641675990072,140.80009743935,
635,E0220400036111,大川原活性化施設,青森県黒石市大川原字萢森下6-1,1,,,40.6338726429,140.715302972,
636,E0220400037111,黒石自動車教習所,青森県黒石市竹田町5,,,,40.656479,140.612098,
637,E0221000013121,グループホーム　バンドー黒石,青森県黒石市追子野木1-190-2,,左記のうち、事前に市が特定し、環境調整を事前に行った者,要配慮者,40.633922,140.596086,
638,E0220400039111,追子野木会館,青森県黒石市追子野木1-92,1,,,40.6389990001,140.590045241,
639,E0220400040112,追子野木公民館,青森県黒石市追子野木3-145-1,1,,,40.6371,140.588242,
640,E0220400041111,黒石市みんなのホール,青森県黒石市内町24-1,1,,,40.642681,140.592712,
641,E0220400041112,スポーツ交流センター,青森県黒石市内町24-1,1,,,40.6424688739,140.59268083216,
642,E0220400043111,中部公民館,青森県黒石市北美町1-65-1,1,,,40.654243416121,140.60177266314,
643,E0220400049111,老人福祉センター,青森県黒石市北美町一丁目65-1,1,,,40.653984,140.60231,
644,E0221000014121,介護老人保健施設　あしたばの里・黒石,青森県黒石市末広6-1,,左記のうち、事前に市が特定し、環境調整を事前に行った者,要配慮者,40.661804,140.595793,
645,E0230300001111,体験交流センター,青森県今別町今別山国有林,,,,41.171532614363,140.46525244486,
646,E0230300003111,奥平部集会所,青森県今別町大字奥平部字奥村元95-13,,,,41.222131,140.577508,
647,E0230300004111,奥平部避難所,青森県今別町大字奥平部字赤坂20,,,,41.220583520777,140.57864020423,
648,E0230300007111,今別町中央公民館,青森県今別町大字今別字今別166,,,,41.182237292589,140.48146988384,
649,E0230300008111,参集殿,青森県今別町大字今別字今別2-30,,,,41.182519869678,140.48668630722,
650,E0230300009121,社会福祉法人　双樹苑,青森県今別町大字今別字西田248-205,,,高齢者・障害者（区分なし）,41.178034,140.479219,
651,E0230300010111,青森北高校今別庁舎,青森県今別町大字今別字西田258-90,,,,41.179627605239,140.47087881921,
652,E0230300011111,西田コミュニティハウス,青森県今別町大字今別字西田385-2,,,,41.180158,140.47371,
653,E0230300012111,今別こども園,青森県今別町大字今別字中沢165-1,,,,41.175565996939,140.49028684152,
654,E0230300013111,今別町開発センター,青森県今別町大字今別字中沢165-12,,,,41.175813563793,140.49089515005,
655,E0230300014111,今別小学校,青森県今別町大字今別字中沢205,,,,41.18020671256,140.48379052584,
656,E0230300016111,八幡町集会所,青森県今別町大字今別字中沢8-6,,,,41.180332464833,140.48868613273,
657,E0230300017111,浜名公民館,青森県今別町大字今別字浜名沢14-21,,,,41.181874369088,140.46328609894,
658,E0230300019111,多目的集会所,青森県今別町大字砂ケ森字砂村元91,,,,41.224704976987,140.55922718311,
659,E0230300020111,山﨑文化会館,青森県今別町大字山崎字山元58,,,,41.193815543112,140.50637238852,
660,E0230300021111,村元集会所,青森県今別町大字山崎字山崎107-11,,,,41.183859175382,140.49189915795,
661,E0230300022111,今別中学校,青森県今別町大字山崎字山崎108-1,,,,41.184728260665,140.49140163067,
662,E0230300024111,大川平文化会館,青森県今別町大字大川平字熊沢40-5,,,,41.161956967648,140.50630066857,
663,E0230300025111,旧大川平小学校,青森県今別町大字大川平字熊沢67,,,,41.159781628797,140.50607331398,
664,E0230300026111,いまべつ総合体育館,青森県今別町大字大川平字清川121-3,,,,41.146761233347,140.51297197353,
665,E0230300027111,荒馬の里活性化センター,青森県今別町大字大川平字清川384-4,,,,41.173835116661,140.50577157368,
666,E0230300028111,道の駅いまべつ半島プラザアスクル,青森県今別町大字大川平字清川87-16,,,,41.145565024736,140.51425870338,
667,E0230300030111,旧二股小学校,青森県今別町大字大川平字二股2,,,,41.137944982665,140.51384693509,
668,E0230300031111,二股福祉館,青森県今別町大字大川平字二股8-3,,,,41.136876888213,140.51441956855,
669,E0230300033111,大泊文化会館,青森県今別町大字大泊字大村元32-1,,,,41.213637473371,140.52287099565,
670,E0230300036111,鍋田会館,青森県今別町大字鍋田字関口1,,,,41.176443198308,140.50629345979,
671,E0230300037111,関口コミュニティハウス,青森県今別町大字鍋田字関口140-1,,,,41.180263088486,140.5224981453,
672,E0230300039111,海峡の家ほろづき,青森県今別町大字袰月字袰村下70-2,,,,41.22155807447,140.54711196716,
673,E0230300040111,袰月会館,青森県今別町大字袰月字袰村元85,,,,41.218987768259,140.54077122506,
674,E0242600001111,磯谷地区漁民研修センター,青森県佐井村大字佐井字磯谷,,,,41.398031384129,140.83105860456,
675,E0242600002111,旧磯谷小中学校校庭,青森県佐井村大字佐井字磯谷10-2,1,,,41.40162072087,140.8351167868,
676,E0242600003111,磯谷防災公園,青森県佐井村大字佐井字磯谷111-4,1,,,41.398478018983,140.83340555401,
677,E0242600004121,ゆうなぎの里,青森県佐井村大字佐井字原田55-2,1,,要配慮者,41.455120409859,140.8808118332,
678,E0242600004111,ゆうなぎの里駐車場,青森県佐井村大字佐井字原田55-2,1,,,41.454995774406,140.881168567,
679,E0242600004112,ゆうなぎの里,青森県佐井村大字佐井字原田55-2,1,,,41.455120409859,140.8808118332,
680,E0242600005111,常信寺,青森県佐井村大字佐井字古佐井100-1,1,,,41.433514480787,140.86841745198,
681,E0242600006111,長福寺,青森県佐井村大字佐井字古佐井112-1,1,,,41.434968287208,140.8671004189,
682,E0242600007111,発信寺,青森県佐井村大字佐井字古佐井25-1,1,,,41.432481477052,140.86693179287,
683,E0242600008111,法性寺,青森県佐井村大字佐井字古佐井30,1,,,41.432199943613,140.86747896351,
684,E0242600009111,児童交流センター,青森県佐井村大字佐井字古佐井川目14-77,,,,41.431654592724,140.86737254445,
685,E0242600010111,保育所,青森県佐井村大字佐井字古佐井川目4,,,,41.431707238229,140.86880162459,
686,E0242600011112,佐井小学校,青森県佐井村大字佐井字糠森103-3,1,,,41.431795863857,140.85845859022,
687,E0242600011111,佐井小学校校庭,青森県佐井村大字佐井字糠森103-3,1,,,41.431417800392,140.85857660742,
688,E0242600012111,矢越地区生活改善センター,青森県佐井村大字佐井字糠森130-2,,,,41.424189511929,140.85137045691,
689,E0242600013111,振興センター,青森県佐井村大字佐井字糠森20,,,,41.42969829678,140.85913397412,
690,E0242600014111,津軽海峡文化館アルサス,青森県佐井村大字佐井字大佐井112-1,1,,,41.433051481376,140.86154501759,
691,E0242600015111,商工会,青森県佐井村大字佐井字大佐井114-1,,,,41.433354670868,140.86206279037,
692,E0242600016111,川目地区生活改善センター,青森県佐井村大字佐井字大佐井川目125-2,,,,41.404510991321,140.85680296874,
693,E0242600017111,高齢者生活福祉センター,青森県佐井村大字佐井字大佐井川目39-12,,,,41.429599692462,140.8623467642,
694,E0242600017121,高齢者生活福祉センター,青森県佐井村大字佐井字大佐井川目39-12,,,要配慮者,41.429599692462,140.8623467642,
695,E0242600018111,佐井中学校校庭,青森県佐井村大字佐井字中道75,1,,,41.442849034252,140.87172402155,
696,E0242600018112,佐井中学校,青森県佐井村大字佐井字中道75,1,,,41.441759264954,140.87093545209,
697,E0242600019111,原田地区生活改善センター,青森県佐井村大字佐井字中道83-40,,,,41.450509086136,140.87515135416,
698,E0242600020111,八幡宮,青森県佐井村大字佐井字八幡堂37,1,,,41.431514260567,140.86442790572,
699,E0242600021111,願掛公園駐車場,青森県佐井村大字佐井字矢越,1,,,41.416002,140.83781,
700,E0242600022111,牛滝地区交流促進センター,青森県佐井村大字長後字牛滝川目100-1,,,,41.290124487503,140.80447482345,
701,E0242600023111,牛滝小中学校校庭,青森県佐井村大字長後字牛滝川目99,1,,,41.289595658199,140.80501864905,
702,E0242600023112,牛滝小中学校,青森県佐井村大字長後字牛滝川目99,1,,,41.289692395833,140.8046431398,
703,E0242600024111,長後地区生活改善センター,青森県佐井村大字長後字長後川目22,1,,,41.367238851378,140.82928229742,
704,E0242600024112,旧長後小中学校校庭,青森県佐井村大字長後字長後川目22,1,,,41.367085865587,140.82948078088,
705,E0242600025111,旧福浦小中学校校庭,青森県佐井村大字長後字福浦川目69,1,,,41.327592754754,140.81440037588,
706,E0242600025112,旧福浦小中学校,青森県佐井村大字長後字福浦川目69,1,,,41.327874741397,140.81416434148,
707,E0242600026111,歌舞伎の館,青森県佐井村大字長後字福浦川目70-1,,,,41.327923081842,140.81312364439,
708,E0244100001111,杉沢小中学校,青森県三戸町大字貝守字杉沢向平50,1,,,40.3797978162267,141.101531950037,
709,E0244100002111,杉沢ふるさと会館,青森県三戸町大字貝守字杉沢向平57-2,,,,40.3812512802118,141.099580418078,
710,E0244100003111,ウッド・ロフトかいもり,青森県三戸町大字貝守字村ノ上11-1,,,,40.3782907784183,141.157041021135,
711,E0244100004111,基幹集落センター,青森県三戸町大字貝守字北向下田32,,,,40.3795492494767,141.169288002757,
712,E0244100006111,袴田生活改善センター,青森県三戸町大字袴田字下屋敷35-2,,,,40.3833596307169,141.21055473978,
713,E0244100007111,総合福祉センターふくじゅそう,青森県三戸町大字在府小路町17,,,,40.3786875741728,141.259501221085,
714,E0244100008111,保健センター,青森県三戸町大字在府小路町43,,,,40.378086855582,141.258449795156,
715,E0244100009111,蛇沼やまびこ会館,青森県三戸町大字蛇沼字馬場平88,1,,,40.3963218825424,141.190853480356,
716,E0244100010121,有料老人ホームいちばん星,青森県三戸町大字川守田字沖中73-4,,,要配慮者及びその家族,40.3934963037755,141.267664971741,
717,E0244100011111,勤労者体育センター（武道館）,青森県三戸町大字川守田字関根4-1,,,,40.3808652432673,141.254514891233,
718,E0244100012111,三戸共同福祉施設（ジョイ・ワーク三戸）,青森県三戸町大字川守田字関根4-11,1,,,40.3809186426546,141.255709937878,
719,E0244100013111,中央公民館,青森県三戸町大字川守田字関根川原55,1,,,40.3801326648367,141.254980280453,
720,E0244100013112,町民体育館,青森県三戸町大字川守田字関根川原55,1,,,40.3799365166236,141.254486753995,
721,E0244100015111,スポーツ文化福祉複合施設（アップルドーム）,青森県三戸町大字川守田字元木平8-1,1,,,40.3901510827351,141.265871547601,
722,E0244100017121,有料老人ホームこのはずく,青森県三戸町大字川守田字大明地17-1,,,要配慮者及びその家族,40.384413749731,141.260636529431,
723,E0244100018122,ショートステイ桜,青森県三戸町大字川守田字大明地18-4,,,要配慮者,40.3838736968508,141.260481845773,
724,E0244100018121,デイサービスセンター桜,青森県三戸町大字川守田字大明地18-4,,,要配慮者,40.3838124039991,141.260562312059,
725,E0244100019111,三戸高等学校,青森県三戸町大字川守田字白坂ノ上3-1,,,,40.3840525250786,141.255552073789,
726,E0244100021121,グループホームひまわり,青森県三戸町大字川守田字冷水68,,,要配慮者及びその家族,40.400815906395,141.264059920917,
727,E0244100022111,泉山あすなろ会館,青森県三戸町大字泉山字泉山44,1,,,40.382377846733,141.280644873443,
728,E0244100023111,農村環境改善センター,青森県三戸町大字斗内字清水田14,,,,40.358494799463,141.207082582413,
729,E0244100024111,斗川小学校,青森県三戸町大字斗内字清水田50,,,,40.3576541323313,141.206364114008,
730,E0244100025111,大舌交流センター,青森県三戸町大字斗内字大舌9-2,,,,40.3175319493487,141.194924050063,
731,E0244100026122,特別養護老人ホーム鶴亀荘,青森県三戸町大字斗内字和田60-1,,,要配慮者及びその家族,40.3623194563084,141.220658944308,
732,E0244100026121,グループホーム鶴亀,青森県三戸町大字斗内字和田60-1,,,要配慮者及びその家族,40.362409381148,141.22058920688,
733,E0244100028121,老人保健施設ほほえみ三戸,青森県三戸町大字同心町字諏訪内10,,,要配慮者及びその家族,40.3758450276204,141.253390478562,
734,E0244100031121,グループホームしろやま,青森県三戸町大字梅内字桐萩162-8,,,要配慮者及びその家族,40.3794613546887,141.264590016505,
735,E0244100032111,三戸小中学校,青森県三戸町大字梅内字権現林1,,,,40.3770034487549,141.268305725085,
736,E0244100033111,老人福祉センター,青森県三戸町大字梅内字権現林158,,,,40.3750868037687,141.268616861336,
737,E0244100034111,梅内ふれあい会館,青森県三戸町大字梅内字村中114-2,1,,,40.3758919086765,141.280437234809,
738,E0244100035111,豊川ほうえい会館,青森県三戸町大字豊川字上村中13-1,1,,,40.3651043011657,141.229221548046,
739,E0244100036111,目時さわやか会館,青森県三戸町大字目時字中道80-1,1,,,40.3484371476203,141.278657020018,
740,E0220700002122,栄町コラボケアセンター,青森県三沢市栄町3-125-1,,,高齢者,40.670701986069,141.361168853548,
741,E0220700002121,栄町ぬくもりの家,青森県三沢市栄町3-125-1,,,高齢者,40.6707630171073,141.361265413072,
742,E0220700003121,グループホーム　木崎野の家,青森県三沢市栄町3-140-621,,,知的障害者,40.6711727473698,141.362758200955,
743,E0220700004121,グループホーム　あぐりの家,青森県三沢市栄町3-140-622,,,知的障害者,40.6710588234207,141.362785023041,
744,E0220700007121,岡三沢コラボケアセンター,青森県三沢市岡三沢1-1-97,,,高齢者,40.69042657897,141.375913363861,
745,E0220700007122,岡三沢ぬくもりの家,青森県三沢市岡三沢1-1-97,,,高齢者,40.6905160646563,141.375886541774,
746,E0220700010111,三沢市立岡三沢小学校,青森県三沢市岡三沢3-1-1,1,,,40.6877903596818,141.373702792969,
747,E0220700013121,グループホーム赤とんぼ花園,青森県三沢市花園町1-5-16,,,高齢者,40.6826510326499,141.359288990206,
748,E0220700014111,三沢市立古間木小学校,青森県三沢市古間木1-152-139,1,,,40.6717561692388,141.347058330128,
749,E0220700015121,グループホームクローバー,青森県三沢市古間木2-181-13,,,高齢者,40.6720330414183,141.340154986548,
750,E0220700016111,三沢市働く婦人の家,青森県三沢市幸町1-7-15,,,,40.685059,141.368352,
751,E0220700017111,三沢市勤労青少年ホーム,青森県三沢市幸町1-7-5,,,,40.684906,141.368079,
752,E0220700021111,三沢市立第五中学校,青森県三沢市字古間木山141-111,1,,,40.6708711190625,141.358596485395,
753,E0220700023111,三沢市立三川目小学校※津波の場合を除く。,青森県三沢市鹿中2-145-459,1,,,40.6818857025601,141.427616428095,
754,E0220700024121,春日台介護センター,青森県三沢市春日台2-152-413,,,高齢者,40.669701528485,141.346430876629,
755,E0220700025111,青森県立三沢商業高等学校,青森県三沢市春日台2-154,1,,,40.6683114534565,141.344334513823,
756,E0220700027111,青森県立三沢高等学校,青森県三沢市松園町1-1,1,,,40.6782789946719,141.371525445568,
757,E0220700029111,三沢市立第一中学校,青森県三沢市松園町2-1-34,1,,,40.6795805952418,141.366472292773,
758,E0220700030121,松園ひばり苑,青森県三沢市松園町2-21-7,,,高齢者,40.6754829359562,141.366595180076,
759,E0220700031123,松園デイサービス・スカイ,青森県三沢市松園町2-7-7,,,高齢者,40.6774465404591,141.367717290922,
760,E0220700031121,松園グループホーム・スカイ,青森県三沢市松園町2-7-7,,,高齢者,40.6773204222287,141.367781663935,
761,E0220700031122,松園ケアラウンジ・スカイ,青森県三沢市松園町2-7-7,,,高齢者,40.6773773788786,141.367797757191,
762,E0220700033121,グループホームにこにこプラザみさわ,青森県三沢市松園町3-2-1,,,高齢者,40.6765006880211,141.365709216124,
763,E0220700034122,松原ぬくもりの家,青森県三沢市松原町1-31-3704,,,高齢者,40.6735298864469,141.374141199224,
764,E0220700034121,松原コラボケアセンター,青森県三沢市松原町1-31-3704,,,高齢者,40.6736356690576,141.374170703509,
765,E0220700042121,クオーレ深谷,青森県三沢市深谷1-178-13,,,障害者,40.6761965639842,141.39646533986,
766,E0220700044121,特別養護老人ホーム　うるわしの杜,青森県三沢市千代田町4-140-851,,,高齢者,40.6665815114542,141.360208996265,
767,E0220700049122,三沢老人ホーム,青森県三沢市大字三沢字園沢156-8,,,高齢者,40.6776614850587,141.411402928795,
768,E0220700049121,三沢デイサービスセンター,青森県三沢市大字三沢字園沢156-8,,,高齢者,40.6777024890329,141.411547473941,
769,E0220700050111,三沢市立三沢小学校,青森県三沢市大字三沢字園沢93-2,1,,,40.6837984741401,141.400414145831,
770,E0220700051111,三沢市立第二中学校,青森県三沢市大字三沢字園沢97-2,1,,,40.6849121556499,141.406698467346,
771,E0220700054121,シニアパンション三沢・下久保,青森県三沢市大字三沢字下久保41-39,,,高齢者,40.6868207166156,141.384253010426,
772,E0220700055121,就労継続支援Ｂ型事業所ワークランドつばさ,青森県三沢市大字三沢字戸崎101-1552,,,知的障害者,40.7465090337559,141.382834911395,
773,E0220700059111,三沢市立おおぞら小学校三沢市立第三中学校※津波の場合を除く。,青森県三沢市大字三沢字庭構1084-33,1,,,40.7812170399426,141.400041664483,
774,E0220700061121,グループホーム赤とんぼ,青森県三沢市大字三沢字南山85-10,,,高齢者,40.6871668007639,141.390755577414,
775,E0220700062121,障害者就労トライアルセンターボイス,青森県三沢市大字三沢字堀口164-1,,,障害者,40.6697743808535,141.393404546673,
776,E0220700063121,シルバーピュア三沢,青森県三沢市大字三沢字堀口164-13,,,高齢者,40.6706086719339,141.387947829896,
777,E0220700064121,堀口ひばり苑,青森県三沢市大字三沢字堀口164-291,,,高齢者,40.6693024581039,141.392503298066,
778,E0220700065111,三沢市立堀口中学校,青森県三沢市大字三沢字堀口94-143,1,,,40.6829777515909,141.383118570409,
779,E0220700067121,介護老人保健施設　やすらぎ苑,青森県三沢市大字三沢字淋代平116-3097,,,高齢者,40.7455483609368,141.374523749914,
780,E0220700069111,三沢市立上久保小学校,青森県三沢市大町1-3-9,1,,,40.6784487624791,141.358222825026,
781,E0220700070121,大町児童デイサービスセンター　ひかり,青森県三沢市大町2-2-1,,,障害児,40.6786709707311,141.360808076215,
782,E0220700073121,シニアライフ大津,青森県三沢市大津2-12-374,,,高齢者,40.6821555435436,141.419746271263,
783,E0220700078111,三沢市武道館,青森県三沢市中央町1-4-20,,,,40.6833249906939,141.366790107756,
784,E0220700081111,三沢市立木崎野小学校,青森県三沢市東町4-2,1,,,40.6775622333737,141.377293112033,
785,E0220700082111,三沢市国際交流スポーツセンター,青森県三沢市南山1-138-2,,,,40.6810671191429,141.399304740379,
786,E0220700086121,ハナハナ,青森県三沢市南町4-31-3736,,,障害者,40.6670502094125,141.371821751343,
787,E0220700089121,シニアパンション三沢・平畑,青森県三沢市平畑1-1-29,,,高齢者,40.6864160432537,141.366183285073,
788,E0240200059111,七戸町総合アリーナ,青森県七戸町荒熊内67-170,1,,,40.717225,141.146381,
789,E0240200001111,李沢地区集会所,青森県七戸町字姥沢2-2,1,,,40.765633,141.239905,
790,E0240200003111,榎林地区農産物加工等施設,青森県七戸町字榎林家ノ前40-1,1,,,40.737288185936,141.21920210186,
791,E0240200004111,白石地区コミュニティセンター,青森県七戸町字堰代6-2,1,,,40.778091,141.122058,
792,E0240200005111,七戸町天間林宿泊交流施設かだれ天間林,青森県七戸町字花松林ノ根35-1,1,,,40.722367229606,141.20175237302,
793,E0240200005112,四ヶ村集会所,青森県七戸町字花松林ノ根35-1,1,,,40.722723,141.201731,
794,E0240200006123,特別養護老人ホーム美土里荘,青森県七戸町字寒水70-17,,町が確認し、一般避難所での生活が困難と認められる者,要配慮者（介護が必要な方）,40.716922,141.174854,
795,E0240200006113,特別養護老人ホーム美土里荘,青森県七戸町字寒水70-17,,,,40.716922,141.174854,
796,E0240200006121,美土里荘グループホーム櫟,青森県七戸町字寒水70-17,,町が確認し、一般避難所での生活が困難と認められる者,要配慮者（介護が必要な方）,40.716882,141.174854,
797,E0240200006122,美土里荘デイサービスセンター梓,青森県七戸町字寒水70-17,,町が確認し、一般避難所での生活が困難と認められる者,要配慮者（介護が必要な方）,40.716939,141.174849,
798,E0240200006112,美土里荘デイサービスセンター梓,青森県七戸町字寒水70-17,,,,40.716939,141.174849,
799,E0240200006111,美土里荘グループホーム櫟,青森県七戸町字寒水70-17,,,,40.716882,141.174854,
800,E0240200007111,七戸町立城南小学校,青森県七戸町字舘野32-58,1,,,40.687121,141.157962,
801,E0240200008112,県立七戸高等学校（第一体育館）,青森県七戸町字舘野47-31,1,,,40.688769,141.154477,
802,E0240200008111,県立七戸高等学校（第二体育館）,青森県七戸町字舘野47-31,1,,,40.689159,141.15423,
803,E0240200009111,農村交流施設絵馬の里交流館,青森県七戸町字見町48-1,1,,,40.671485,141.136355,
804,E0240200010111,坪地区農産物加工等施設,青森県七戸町字後平112,1,,,40.774493,141.143526,
805,E0240200011111,障がい者支援施設一誠園,青森県七戸町字後平597-1,,,,40.794505202427,141.14924618385,
806,E0240200011121,障がい者支援施設一誠園,青森県七戸町字後平597-1,,町が確認し、一般避難所での生活が困難と認められる者,障がい者,40.794497080079,141.14925691269,
807,E0240200012111,七戸町観光交流センター,青森県七戸町字荒熊内207,1,,,40.719708,141.15305,
808,E0240200013112,道の駅しちのへ　七彩館,青森県七戸町字荒熊内67-94,1,,,40.716811,141.154827,
809,E0240200013111,道の駅しちのへ　物産館,青森県七戸町字荒熊内67-94,1,,,40.716656,141.15524,
810,E0240200014111,道の駅しちのへ　情報館,青森県七戸町字荒熊内67-997,1,,,40.717100287108,141.15520090235,
811,E0240200015112,中山間活性化センター,青森県七戸町字山舘25-1,1,,,40.695960296879,141.10022493254,
812,E0240200015111,農産物加工開発研修センター,青森県七戸町字山舘25-1,1,,,40.695708295802,141.10031055952,
813,E0240200016111,七戸農村環境改善センター柏葉館,青森県七戸町字七戸22-8,1,,,40.696337,141.150734,
814,E0240200018111,県立七戸養護学校（体育館）,青森県七戸町字蛇坂57-31,1,,,40.711089,141.151997,
815,E0240200019111,七戸町立武道館,青森県七戸町字蛇坂57-59,1,,,40.712141,141.154367,
816,E0240200020111,中野地区コミュニティセンター,青森県七戸町字手代森52-2,1,,,40.734742,141.153177,
817,E0240200021121,特別養護老人ホーム天寿園,青森県七戸町字舟場向川久保308,,町が確認し、一般避難所での生活が困難と認められる者,要配慮者（介護が必要な方）,40.757884,141.179171,
818,E0240200021111,特別養護老人ホーム天寿園,青森県七戸町字舟場向川久保308,,,,40.757884,141.179171,
819,E0240200022111,農村交流センター駒踊り伝承館,青森県七戸町字沼ノ沢39-7,1,,,40.652396,141.137776,
820,E0240200023111,七戸町立七戸小学校,青森県七戸町字上町野130,1,,,40.706005,141.153741,
821,E0240200025111,天間林農村環境改善センター,青森県七戸町字森ノ下48-2,1,,,40.745245967633,141.17448433862,
822,E0240200027112,七戸町立天間林中学校体育館,青森県七戸町字森ノ上16-4,1,,,40.745808,141.169651,
823,E0240200027111,天間林老人福祉センター,青森県七戸町字森ノ上16-4,1,,,40.745424,141.169418,
824,E0240200027121,天間林老人福祉センター,青森県七戸町字森ノ上16-4,1,町が確認し、一般避難所での生活が困難と認められる者,高齢者,40.745407,141.169603,
825,E0240200028111,七戸町立天間林小学校,青森県七戸町字森ノ上180-1,1,,,40.747172,141.16166,
826,E0240200029111,天間西児童センター,青森県七戸町字森ノ上180-7,,,,40.748216495137,141.16118185715,
827,E0240200029121,天間西児童センター,青森県七戸町字森ノ上180-7,,町が確認し、一般避難所での生活が困難と認められる者,妊婦・乳幼児,40.748216495137,141.16118185715,
828,E0240200030111,中央公民館,青森県七戸町字森ノ上210,1,,,40.745428121282,141.156724610084,
829,E0240200031121,天間林児童センター,青森県七戸町字森ノ上284-14,,町が確認し、一般避難所での生活が困難と認められる者,妊婦・乳幼児,40.748287492021,141.16134148171,
830,E0240200031111,天間林児童センター,青森県七戸町字森ノ上284-14,,,,40.748287492021,141.16134148171,
831,E0240200032111,天間林保健センター,青森県七戸町字森ノ上359-5,1,,,40.745161,141.159188,
832,E0240200032121,天間林保健センター,青森県七戸町字森ノ上359-5,1,町が確認し、一般避難所での生活が困難と認められる者,妊婦・乳幼児,40.745161,141.159188,
833,E0240200033121,障害者支援施設あぜりあ苑,青森県七戸町字清水頭71-80,,町が確認し、一般避難所での生活が困難と認められる者,障がい者,40.666042,141.122161,
834,E0240200033111,障害者支援施設あぜりあ苑,青森県七戸町字清水頭71-80,,,,40.666042,141.122161,
835,E0240200034111,七戸町文化交流センター,青森県七戸町字前田32,1,,,40.685892,141.125677,
836,E0240200036111,七戸町立七戸第二体育館,青森県七戸町字前田32-6,1,,,40.685587,141.126417,
837,E0240200038121,城南福祉プラザ,青森県七戸町字太田野19-4,,町が確認し、一般避難所での生活が困難と認められる者,要配慮者（介護が必要な方）,40.691348,141.162848,
838,E0240200038111,城南福祉プラザ,青森県七戸町字太田野19-4,,,,40.691348,141.162848,
839,E0240200039111,県営農大学校（体育館）,青森県七戸町字大沢48-8,1,,,40.721358,141.160724,
840,E0240200041111,ふれあいセンター,青森県七戸町字中野16-1,1,,,40.73886,141.165701,
841,E0240200041112,屋内スポーツセンター,青森県七戸町字中野16-1,1,,,40.739046,141.165129,
842,E0240200042111,森ノ上地区コミュニティセンター,青森県七戸町字中野96-1,1,,,40.742708,141.164131,
843,E0240200047111,七戸町立七戸中学校,青森県七戸町字鶴児平191,1,,,40.704167,141.13077,
844,E0240200048121,城北児童センター,青森県七戸町字天王67-2,,町が確認し、一般避難所での生活が困難と認められる者,妊婦・乳幼児,40.70585414716,141.15267972637,
845,E0240200048111,城北児童センター,青森県七戸町字天王67-2,,,,40.70585414716,141.15267972637,
846,E0240200050111,道ノ上地区コミュニティセンター,青森県七戸町字道ノ上133-2,1,,,40.751005192002,141.14980003439,
847,E0240200052111,パリアティブケアセンターこだま,青森県七戸町字道ノ上54-72,,,,40.745342,141.154991,
848,E0240200052121,パリアティブケアセンターこだま,青森県七戸町字道ノ上54-72,,町が確認し、一般避難所での生活が困難と認められる者,要配慮者（介護が必要な方）,40.745342,141.154991,
849,E0240200054111,二ツ森地区コミュニティセンター,青森県七戸町字二ツ森家ノ後3-2,1,,,40.745306,141.233919,
850,E0240200056121,七戸町総合福祉センターゆうずらんど,青森県七戸町字立野頭139-1,1,町が確認し、一般避難所での生活が困難と認められる者,高齢者,40.705997,141.16882,
851,E0240200056111,七戸町総合福祉センターゆうずらんど,青森県七戸町字立野頭139-1,1,,,40.705997,141.16882,
852,E0240200057111,哘地区集会所,青森県七戸町字哘平47-20,1,,,40.749061,141.119171,
853,E0220600061112,市民交流プラザ「トワーレ」,青森県十和田市稲生町18-33,,,,40.613316,141.214737,
854,E0220600002111,ちとせ小学校,青森県十和田市元町西6-2-1,,,,40.62598757,141.1990612,
855,E0220600004111,三本木高等学校,青森県十和田市西五番町7-1,,,,40.60358393,141.2201302,
856,E0220600007111,市総合体育センター,青森県十和田市西三番町6-6,,,,40.61117685,141.2108012,
857,E0220600008111,北園小学校,青森県十和田市西十一番町50-18,,,,40.61482732,141.2003168,
858,E0220600009111,南小学校,青森県十和田市西十五番町3-1,,,,40.6029697,141.213331,
859,E0220600010111,三本木中学校,青森県十和田市西十三番町5-24,,,,40.60920097,141.2036475,
860,E0220600015111,南コミュニティセンター,青森県十和田市西六番町5-10,,,,40.59891252,141.2186817,
861,E0220600016111,東小学校,青森県十和田市大字一本木沢1-1-1,,,,40.62874381,141.2281934,
862,E0220600017111,法奥小学校,青森県十和田市大字奥瀬字下川目102-2,,,,40.58639017,141.0973276,
863,E0220600018111,十和田湖小学校十和田湖中学校,青森県十和田市大字奥瀬字十和田湖畔宇樽部420,,,,40.440714650792,140.93326148562,
864,E0220600019111,十和田湖観光交流センター　ぷらっと,青森県十和田市大字奥瀬字十和田湖畔休屋486,,,,40.42601,140.893153,
865,E0220600021111,旧地域包括支援センター,青森県十和田市大字奥瀬字中平61-6,,,,40.58617215,141.1073672,
866,E0220600022111,西コミュニティセンター,青森県十和田市大字奥瀬字中平70-3,,,,40.586258360075,141.10942552417,
867,E0220600023111,十和田工業高等学校,青森県十和田市大字三本木字下平215-1,,,,40.62854492,141.2299704,
868,E0220600024111,西小学校,青森県十和田市大字三本木字西金崎6-2,,,,40.60959184,141.1780125,
869,E0220600025111,甲東中学校,青森県十和田市大字深持字南平330,,,,40.61542025,141.1711758,
870,E0220600026111,深持小学校,青森県十和田市大字深持字林12-3,,,,40.61851331,141.1463598,
871,E0220600027111,夏間木地区会館,青森県十和田市大字切田字夏間木46-2,,,,40.55509483,141.1407618,
872,E0220600028111,切田中学校,青森県十和田市大字切田字平林387,,,,40.58022979,141.1859198,
873,E0220600029111,三本木農業恵拓高等学校,青森県十和田市大字相坂字高清水78-92,,,,40.63963855,141.2662758,
874,E0220600031111,藤坂小学校,青森県十和田市大字相坂字小林355-1,,,,40.59430016,141.2383457,
875,E0220600032111,沢田悠学館,青森県十和田市大字沢田字下洗21-1,,,,40.58433842,141.1567561,
876,E0220600033112,第一中学校,青森県十和田市大字沢田字下洗53-3,,,,40.585865,141.155849,
877,E0220600034111,沢田小学校,青森県十和田市大字沢田字田屋29,,,,40.58463292,141.1523969,
878,E0220600035111,道の駅　とわだ,青森県十和田市大字伝法寺字平窪37-2,,,,40.574741417041,141.264645754,
879,E0220600037111,大深内小学校大深内中学校,青森県十和田市大字洞内字千刈田24-6,,,,40.66972752,141.2151218,
880,E0220600040111,四和小学校四和中学校,青森県十和田市大字米田字高谷140,,,,40.54799343,141.2348529,
881,E0220600041111,月日山林業会館,青森県十和田市大字米田字森ノ越19-1,,,,40.5151468,141.139023,
882,E0220600058112,奥入瀬渓流温泉　灯と楓,青森県十和田市大字法量字焼山64-108,,,,40.579026,140.995137,
883,E0220600045111,三本木小学校,青森県十和田市東三番町36-1,,,,40.61411227,141.2220883,
884,E0220600049111,十和田中学校,青森県十和田市東十六番町27-1,,,,40.60338589,141.2327033,
885,E0220600053111,東中学校,青森県十和田市東二十二番町29-1,,,,40.62685411,141.2381218,
886,E0245000001111,都市農村交流センター美郷館,青森県新郷村大字戸来字風呂前10,1,,,40.466537371465,141.173804814786,
887,E0245000002111,旧西越小学校体育館,青森県新郷村大字西越字佐野平57,1,,,40.4388879336561,141.203359344685,
888,E0232300112111,大戸瀬中学校体育館,青森県深浦大字北金ヶ沢字榊原上野208-23,,,,40.752641,140.078397,
889,E0232300087111,横磯集落センター,青森県深浦町大字横磯字下岡崎85-1,1,,,40.628531,139.886276,
890,E0232300088111,北金ヶ沢総合防災センター,青森県深浦町大字関字栃沢260-1,1,,,40.74512999,140.0937205,
891,E0232300089111,関福祉センター,青森県深浦町大字関字栃沢34,1,,,40.743274,140.101965,
892,E0232300090111,大戸瀬支所,青森県深浦町大字関字栃沢78-2,1,,,40.744671571244,140.09765989048,
893,E0232300091111,修道小学校体育館,青森県深浦町大字関字栃沢85-1,1,,,40.745496,140.096492,
894,E0232300092111,岩坂福祉センター,青森県深浦町大字岩坂字長谷野20-2,1,,,40.718854,140.112713,
895,E0232300093111,漁業振興センター,青森県深浦町大字岩崎字玉坂370-2,1,,,40.586819,139.912848,
896,E0232300094111,高齢者センター,青森県深浦町大字岩崎字松原104-1,1,,,40.585494,139.921763,
897,E0232300095111,岩崎上地区コミュニティセンター,青森県深浦町大字岩崎字松原57,1,,,40.582944,139.926159,
898,E0232300048121,社会福祉法人はくしん会,青森県深浦町大字岩崎字松原57-2,,,町が必要と判断した避難行動要支援者等,40.583259,139.924745,
899,E0232300096111,広戸福祉センター,青森県深浦町大字広戸字家野上101-121,1,,,40.667116,139.947716,
900,E0232300097111,東野福祉センター,青森県深浦町大字広戸字家野上176,1,,,40.656853,139.950811,
901,E0232300098112,町民体育館,青森県深浦町大字広戸字家野上95-201,1,,,40.663395,139.942963,
902,E0232300098111,武道館,青森県深浦町大字広戸字家野上95-201,1,,,40.663716,139.94277,
903,E0232300099111,やまびこハウス,青森県深浦町大字黒崎字小浜243-1,1,,,40.51598,139.948834,
904,E0232300100111,松神地区コミュニティセンター,青森県深浦町大字松神字中浜松92-2,1,,,40.540011,139.947325,
905,E0232300075111,森山集会所,青森県深浦町大字森山字松浦68-1,,,,40.560359,139.934176,
906,E0232300076111,岡町福祉センター「御仮屋舘」,青森県深浦町大字深浦字岡町172-1,1,,,40.647322,139.932174,
907,E0232300049121,社会福祉法人治省会,青森県深浦町大字深浦字吾妻沢146-65,,,町が必要と判断した避難行動要支援者等,40.656601,139.941037,
908,E0232300078111,深浦町福祉センター「元城舘」,青森県深浦町大字深浦字藻戸深浦165-1,,,,40.636991,139.924039,
909,E0232300079111,深浦公民館,青森県深浦町大字深浦字中沢14-1,1,,,40.639032,139.930055,
910,E0232300080111,深浦町介護予防世代間交流施設「さくら館」,青森県深浦町大字深浦字中沢2-5,,,,40.640839,139.929535,
911,E0232300081111,深浦小学校体育館,青森県深浦町大字深浦字寅平62-6,1,,,40.639742,139.92779,
912,E0232300082111,深浦町ふれあいプラザ「恵比須」,青森県深浦町大字深浦字苗代沢77-28,1,,,40.648922,139.927671,
913,E0232300083111,深浦町福祉センター「猿神鼻」,青森県深浦町大字深浦字苗代沢85-3,1,,,40.646049,139.928325,
914,E0232300084111,深浦町生きがいプラザ「春光舘」,青森県深浦町大字深浦字浜町346-6,,,,40.64376,139.922873,
915,E0232300086111,深浦中学校体育館,青森県深浦町大字深浦字蓙野60,1,,,40.651237,139.935481,
916,E0232300101111,正久地区多目的センター,青森県深浦町大字正道尻字小礒109-5,1,,,40.574213835717,139.93146006879,
917,E0232300102111,岩崎中学校体育館,青森県深浦町大字正道尻字小礒13-2,1,,,40.578373,139.931659,
918,E0232300102112,いわさき小学校,青森県深浦町大字正道尻字小礒13-2,1,,,40.577084715316,139.9319880195,
919,E0232300103111,大間越地区コミュニティセンター,青森県深浦町大字大間越字上小屋野70,1,,,40.486638,139.948254,
920,E0232300104111,沢辺地区コミュニティセンター,青森県深浦町大字沢辺字吉花133,1,,,40.585495,139.890257,
921,E0232300105111,長慶平福祉センター,青森県深浦町大字長慶平字西芦萢20-1,1,,,40.625469,139.999337,
922,E0232300106111,松原集落センター,青森県深浦町大字追良瀬字初瀬山草分62,1,,,40.658639,140.012186,
923,E0232300107111,追良瀬福祉センター,青森県深浦町大字追良瀬字相野山48-1,1,,,40.682027,139.976046,
924,E0232300108111,田野沢福祉センター,青森県深浦町大字田野沢字清滝44,1,,,40.761478,140.04362,
925,E0232300109111,風合瀬農業環境改善センター,青森県深浦町大字風合瀬字上砂子川21-1,1,,,40.730991,140.01391,
926,E0232300110111,晴山福祉センター,青森県深浦町大字風合瀬字大磯188-1,1,,,40.74515,140.023161,
927,E0232300111111,農村環境改善センター,青森県深浦町大字北金ヶ沢字塩見形406-1,1,,,40.750722786369,140.09136206878,
928,E0232300114111,柳田農業環境改善センター,青森県深浦町大字柳田字宮崎158-2,1,,,40.744036,140.132467,
929,E0232300115111,舮作福祉センター,青森県深浦町大字舮作字上清滝7,1,,,40.609621,139.870283,
930,E0232300116111,驫木多目的集落センター,青森県深浦町大字驫木字亀ヶ崎164-2,1,,,40.698129,139.978174,
931,E0232300050121,社会福祉法人西寿会,青森県深浦町大字驫木字津山118-44,,,町が必要と判断した避難行動要支援者等,40.702474,139.981785,
932,E0234300006111,西目屋村中央公民館,青森県西目屋村大字田代字稲元143,1,,,40.577077,140.295488,
933,E0221000015121,グループホームユートピア白神,青森県西目屋村大字田代字稲本3-1,,左記のうち、事前に市が特定し、環境調整を事前に行った者,要配慮者,40.5764855963,140.29743277437,
934,E0220100002111,片岡福祉館,青森県青森市旭町3-7-20,1,,,40.811292,140.738717,
935,E0220100003122,児童養護施設藤聖母園,青森県青森市奥野3-7-1,,,障害者,40.8137011691881,140.764511054131,
936,E0220100004121,青森藤こども園,青森県青森市奥野3-7-2,,,小児,40.81396913,140.7645379,
937,E0220100005111,造道中学校,青森県青森市岡造道2-14-1,1,,,40.8254749,140.7887986,
938,E0220100006111,沖館市民センター,青森県青森市沖館1-1-11,1,,,40.83246203,140.7244453,
939,E0220100009111,沖館中学校,青森県青森市沖館5-19-1,1,,,40.8359212,140.7169472,
940,E0220100010111,沖館小学校,青森県青森市沖館5-3-1,1,,,40.83209375,140.7215532,
941,E0220100012111,古川中学校,青森県青森市久須志2-9-1,1,,,40.82017703,140.7286532,
942,E0220100013111,久須志福祉館,青森県青森市久須志2-9-5,1,,,40.8185414,140.7287305,
943,E0220100014111,橋本小学校,青森県青森市橋本1-9-17,1,,,40.82458152,140.7530554,
944,E0220100016111,青森少年鑑別所,青森県青森市金沢1-5-38,1,,,40.813946866765,140.73485164039,
945,E0220100017111,甲田小学校,青森県青森市金沢1-6-1,1,,,40.81419036,140.7340239,
946,E0220100018111,甲田中学校,青森県青森市金沢3-11-1,1,,,40.80896542,140.7331073,
947,E0220100019111,金沢小学校,青森県青森市金沢4-5-1,1,,,40.80946835,140.7286718,
948,E0220100023111,戸山西小学校,青森県青森市蛍沢3-1-1,1,,,40.80185376,140.8002407,
949,E0220100025111,戸山市民センター,青森県青森市蛍沢4-1-4,1,,,40.79905986,140.8046548,
950,E0220100028111,青森東高等学校,青森県青森市原別3-1-1,1,,,40.83471119,140.8050767,
951,E0220100029111,東部市民センター,青森県青森市原別3-8-1,1,,,40.83722491,140.8071455,
952,E0220100030112,古川市民センター,青森県青森市古川3-7-14,1,,,40.82204262,140.7341278,
953,E0220100030111,古川小学校,青森県青森市古川3-7-14,1,,,40.82217253,140.7337684,
954,E0220100031111,青森商業高等学校,青森県青森市戸山字安原7-1,1,,,40.811449021991,140.79820042446,
955,E0220100033111,幸畑福祉館,青森県青森市幸畑2-2-2,1,,,40.781755,140.782303,
956,E0220100034111,青森大学,青森県青森市幸畑2-3-1,1,,,40.78333104,140.781236,
957,E0220100039121,介護老人保健施設みちのく青海荘,青森県青森市港町3-6-3,,,高齢者,40.83098014,140.7689016,
958,E0220100040111,青森刑務所,青森県青森市荒川藤戸88,,,,40.793986301212,140.73843885055,
959,E0220100041111,浪打中学校,青森県青森市合浦1-11-10,1,,,40.82791489,140.7721943,
960,E0220100042111,オカでんアリーナ（青森市スポーツ会館）,青森県青森市合浦1-13-1,1,,,40.82841748,140.7740608,
961,E0220100049111,青森高等学校,青森県青森市桜川8-1-2,1,,,40.80908366,140.7674719,
962,E0220100051111,筒井中学校,青森県青森市桜川8-15-1,1,,,40.80781614,140.7704758,
963,E0220100057111,篠田福祉館,青森県青森市篠田2-20-25,1,,,40.82709981,140.7244964,
964,E0220100058111,篠田小学校,青森県青森市篠田3-16-2,1,,,40.82816446,140.7194479,
965,E0220100060111,高等看護学院,青森県青森市勝田1-16-16,1,,,40.8151319,140.7559112,
966,E0220100063121,地域密着型特別養護老人ホーム　勝田三思園,青森県青森市勝田2-20-12,,,高齢者,40.8188958819585,140.75898116899,
967,E0220100064111,浦町中学校,青森県青森市勝田2-25-12,1,,,40.81593615,140.7599394,
968,E0220100066121,グループホームふれあい,青森県青森市小柳1-17-17,,,高齢者,40.8214374784564,140.790803581092,
969,E0220100067121,デイサービスセンターふれあい,青森県青森市小柳1-17-18,,,高齢者,40.821254799528,140.791189819186,
970,E0220100067122,居宅介護支援事業所ふれあい,青森県青森市小柳1-17-18,,,高齢者,40.8211086560233,140.790728479239,
971,E0220100068111,中央市民センター小柳分館,青森県青森市小柳3-3-5,1,,,40.81928133,140.7923012,
972,E0220100070111,小柳小学校,青森県青森市小柳4-6-1,1,,,40.81902968,140.7946559,
973,E0220100071111,ほろがけ福祉館,青森県青森市小柳6-2-7,1,,,40.81851,140.787039,
974,E0220100072111,中央市民センター,青森県青森市松原1-6-15,1,,,40.82072288,140.7608103,
975,E0220100074111,北斗高等学校,青森県青森市松原2-1-24,1,,,40.81897735,140.7604864,
976,E0220100075111,堤小学校,青森県青森市松原2-4-4,1,,,40.81901756,140.7615901,
977,E0220100082111,青森南高等学校,青森県青森市西大野2-12-40,1,,,40.80296338,140.7229906,
978,E0220100086121,特別養護老人ホーム大野和幸園,青森県青森市西大野5-16-10,,,高齢者,40.79908092,140.7238262,
979,E0220100348121,障害者支援施設こぶし園,青森県青森市西大野5-24-11,,,障害者,40.798346,140.725398,
980,E0220100087111,莨町小学校,青森県青森市青柳2-7-25,1,,,40.82738395,140.7583825,
981,E0220100088111,浜田福祉館,青森県青森市青葉3-8-1,1,,,40.80268131,140.7559376,
982,E0220100093111,戸山中学校,青森県青森市赤坂1-1-1,1,,,40.80174378,140.8058432,
983,E0220100097111,千刈小学校,青森県青森市千刈1-10-20,1,,,40.8237907,140.7274305,
984,E0220100100111,造道小学校,青森県青森市造道3-4-16,1,,,40.8290302,140.7860725,
985,E0220100102111,中央市民センター安田分館,青森県青森市大字安田字近野370-4,1,,,40.80188015,140.7127015,
986,E0220100103111,油川中学校,青森県青森市大字羽白字沢田471,1,,,40.85442403,140.6877586,
987,E0220100104111,油川市民センター,青森県青森市大字羽白字池上197-1,1,,,40.85223679,140.6831072,
988,E0220100105111,青森北高等学校,青森県青森市大字羽白字富田80-7,1,,,40.85011459,140.6888687,
989,E0220100106121,介護老人保健施設　青照苑,青森県青森市大字羽白字野木和45,,,高齢者,40.84781069,140.6785508,
990,E0220100342111,カクヒログループスーパーアリーナ（青森市総合体育館）,青森県青森市大字浦町字橋本335-17,1,,,40.81396,140.745909,
991,E0220100109121,特別養護老人ホーム雲谷ホーム,青森県青森市大字雲谷字山吹92-170,,,高齢者,40.73947927,140.7832263,
992,E0220100110111,北部地区農村環境改善センター,青森県青森市大字奥内字宮田41-3,1,,,40.88614097,140.6758948,
993,E0220100111121,特別養護老人ホーム外ヶ浜荘,青森県青森市大字奥内字宮田564-2,,,高齢者,40.8892974,140.6709431,
994,E0220100112121,特別養護老人ホーム朝光苑,青森県青森市大字横内字亀井245-1,,,高齢者,40.77116931,140.7668044,
995,E0220100113111,横内市民センター,青森県青森市大字横内字亀井28-2,1,,,40.77778538,140.7659793,
996,E0220100114121,障害児入所施設八甲学園,青森県青森市大字横内字桜峰63-1,,,障害者,40.76776688,140.7647841,
997,E0220100115121,特別養護老人ホーム三思園,青森県青森市大字横内字若草1-1,,,高齢者,40.7846546,140.7609577,
998,E0220100116111,青森中央学院大学,青森県青森市大字横内字神田12-1,1,,,40.78363025,140.7618605,
999,E0220100117111,中央市民センター岡町分館,青森県青森市大字岡町字松本7-4,1,,,40.83999465,140.6837148,
1000,E0220100119121,特別養護老人ホームかいふう,青森県青森市大字久栗坂字山辺89-10,,,高齢者,40.877881968196,140.85174736799,
1001,E0220100121111,東陽小学校,青森県青森市大字宮田字玉水181-1,1,,,40.84070841,140.8291992,
1002,E0220100122111,マエダアリーナ（新青森県総合運動公園総合体育館）,青森県青森市大字宮田字高瀬22-2,1,,,40.84281466,140.8403732,
1003,E0220100124111,牛館ふれあいセンター,青森県青森市大字牛館字松枝84-3,1,,,40.7841015,140.750072,
1004,E0220100125111,荒川小・中学校金浜分教室,青森県青森市大字金浜字伊吹22-1,1,,,40.7633704,140.7321548,
1005,E0220100126111,荒川中学校,青森県青森市大字金浜字稲田107,1,,,40.78050008,140.740336,
1006,E0220100128121,特別養護老人ホーム藤の園,青森県青森市大字駒込字蛍沢387-1,,,高齢者,40.79271413,140.8131455,
1007,E0220100129121,養護老人ホーム藤ホーム,青森県青森市大字駒込字蛍沢387-3,,,高齢者,40.79190593,140.8133118,
1008,E0220100130121,青森月見寮,青森県青森市大字駒込字月見野918-3,,,障害者,40.78934203,140.8126183,
1009,E0220100131111,中央市民センター駒込分館,青森県青森市大字駒込字見吉159-1,1,,,40.79878619,140.7913537,
1010,E0220100132111,原別小学校,青森県青森市大字原別字袖崎8,1,,,40.83479382,140.8114358,
1011,E0220100134111,中央市民センター戸門分館,青森県青森市大字戸門字山部106-3,1,,,40.80866141,140.6422705,
1012,E0220100136111,中央市民センター後潟分館,青森県青森市大字後潟字平野17-7,1,,,40.94225088,140.6609984,
1013,E0220100137111,幸畑小学校,青森県青森市大字幸畑字松元50-2,1,,,40.78791769,140.7835415,
1014,E0220100138111,荒川市民センター,青森県青森市大字荒川字柴田129-1,1,,,40.78512575,140.7395861,
1015,E0220100139111,荒川小学校,青森県青森市大字荒川字柴田92-5,1,,,40.78791228,140.7408011,
1016,E0220100140111,青森県総合社会教育センター,青森県青森市大字荒川字藤戸119-7,1,,,40.79589257,140.7389155,
1017,E0220100141121,介護医療院カトレア,青森県青森市大字高田字川瀬110-1,,,高齢者,40.76173792,140.7211231,
1018,E0220100142121,特別養護老人ホーム寿幸園,青森県青森市大字高田字川瀬186,,,高齢者,40.76800317,140.723564,
1019,E0220100143111,高田小学校,青森県青森市大字高田字川瀬200-5,1,,,40.77049887,140.724867,
1020,E0220100144111,太陽台市民館,青森県青森市大字高田字朝日山809-334,1,,,40.75872009,140.7098278,
1021,E0220100145111,高田教育福祉センター,青森県青森市大字高田字日野229-1,1,,,40.76783939,140.7211781,
1022,E0220100146111,青森公立大学,青森県青森市大字合子沢字山崎153-4,1,,,40.75252131,140.7721979,
1023,E0220100148111,中央市民センター左堰分館,青森県青森市大字左堰字野田35,1,,,40.91563572,140.6680843,
1024,E0220100151111,滝内福祉館,青森県青森市大字三内字稲元122-1,1,,,40.821332,140.707903,
1025,E0220100152111,三内中学校,青森県青森市大字三内字丸山108-4,1,,,40.8156694,140.7041671,
1026,E0220100154111,三内西小学校,青森県青森市大字三内字丸山86-1,1,,,40.81668843,140.7057335,
1027,E0220100156111,横内中学校,青森県青森市大字四ツ石字里見64-6,1,,,40.77799992,140.7724002,
1028,E0220100157121,障害者支援施設徳誠園,青森県青森市大字四戸橋字磯部243-582,,,障害者,40.9439296,140.6355925,
1029,E0220100162121,あいす,青森県青森市大字新城字平岡102,,,障害者,40.825541075038,140.66976152367,
1030,E0220100163121,くりぃむ,青森県青森市大字新城字平岡102-2,,,障害者,40.825427415241,140.6700082869,
1031,E0220100165111,新城中央小学校,青森県青森市大字新城字平岡141-1,1,,,40.82563518,140.6746926,
1032,E0220100166111,新城中学校,青森県青森市大字新城字平岡160,1,,,40.82148342,140.6807147,
1033,E0220100167111,西部市民センター,青森県青森市大字新城字平岡163-22,1,,,40.82612975,140.6781468,
1034,E0220100168111,新城小学校,青森県青森市大字新城字平岡266-14,1,,,40.8291057,140.6874547,
1035,E0220100169111,青森西高等学校,青森県青森市大字新城字平岡266-20,1,,,40.82880934,140.6842856,
1036,E0220100170121,特別養護老人ホーム鶴ヶ丘苑,青森県青森市大字新城字平岡746,,,高齢者,40.80238464,140.6651579,
1037,E0220100171111,中央市民センター瀬戸子分館,青森県青森市大字瀬戸子字磯田25,1,,,40.88280271,140.6780569,
1038,E0220100172111,北中学校,青森県青森市大字清水字浜元135-1,1,,,40.90439424,140.6690226,
1039,E0220100173111,北小学校,青森県青森市大字清水字浜元181,1,,,40.90058095,140.6744455,
1040,E0220100174111,中央市民センター内真部分館,青森県青森市大字清水字浜元45-1,1,,,40.90630174,140.6720554,
1041,E0220100175111,中央市民センター西田沢分館,青森県青森市大字西田沢字浜田105,1,,,40.86237947,140.6867095,
1042,E0220100176121,障害者支援施設津麦園,青森県青森市大字西田沢字浜田379,,,障害者,40.86062174,140.6819304,
1043,E0220100177111,中央市民センター石江分館,青森県青森市大字石江字江渡25-1,1,,,40.82584178,140.6952368,
1044,E0220100178121,国立療養所松丘保養園,青森県青森市大字石江字平山19,,,障害者,40.82113214,140.6833787,
1045,E0220100179121,障害者支援施設　幸養苑,青森県青森市大字泉野字野脇46-61,,,障害者,40.83867721,140.8210002,
1046,E0220100182111,ユーサ浅虫,青森県青森市大字浅虫字蛍谷341-19,1,,,40.8915892,140.8613832,
1047,E0220100185121,軽費老人ホーム和幸園,青森県青森市大字浅虫字内野48-1,,,高齢者,40.88714312,140.8665491,
1048,E0220100186111,孫内農村センター,青森県青森市大字孫内字北原140-1,1,,,40.75854473,140.6342306,
1049,E0220100187121,障害者支援施設金浜療護園,青森県青森市大字大別内字葛野180,,,障害者,40.75790763,140.7335038,
1050,E0220100188111,大野市民センター,青森県青森市大字大野字若宮71,1,,,40.8044687,140.7343082,
1051,E0220100191111,青森県総合学校教育センター,青森県青森市大字大矢沢字野田80-2,1,,,40.78927516,140.773347,
1052,E0220100192111,中央市民センター鶴ヶ坂分館,青森県青森市大字鶴ケ坂字田川148-2,1,,,40.78808716,140.6301763,
1053,E0220100193121,特別養護老人ホームつるがさか,青森県青森市大字鶴ケ坂字田川187-94,,,高齢者,40.78737955,140.6284577,
1054,E0220100194111,浜館小学校,青森県青森市大字田屋敷字下り松17,1,,,40.80555523,140.7897669,
1055,E0220100196121,特別養護老人ホーム正寿園,青森県青森市大字田茂木野字阿部野63-2,,,高齢者,40.76707728,140.8000793,
1056,E0220100198111,中央市民センター中筒井分館,青森県青森市大字筒井字桜川87-4,1,,,40.80253854,140.7763128,
1057,E0220100199111,筒井南小学校,青森県青森市大字筒井字八ッ橋46-1,1,,,40.79727846,140.7700513,
1058,E0220100203111,青森工業高等学校,青森県青森市大字馬屋尻字清水流204-1,1,,,40.84416113,140.8214344,
1059,E0220100204111,東中学校,青森県青森市大字八幡林字熊谷28,1,,,40.83455608,140.8176025,
1060,E0220100208111,県立保健大学,青森県青森市大字浜館字間瀬58-1,1,,,40.81413421,140.7920966,
1061,E0220100209121,養護老人ホーム安生園,青森県青森市大字浜館字間瀬85-1,,,高齢者,40.81228763,140.7914316,
1062,E0220100210111,浜田小学校,青森県青森市大字浜田字豊田36-2,1,,,40.80570894,140.7568909,
1063,E0220100211111,盛運輸アリーナ（青森県営スケート場）,青森県青森市大字浜田字豊田地内,,,,40.79732512,140.7512086,
1064,E0220100212111,青森高等技術専門校,青森県青森市大字野尻字今田43-1,1,,,40.78263245,140.7660682,
1065,E0220100213111,青森県身体障がい者福祉センターねむのき会館,青森県青森市大字野尻字今田52-4,1,,,40.78412042,140.7653927,
1066,E0220100214111,横内小学校,青森県青森市大字野尻字野田60,1,,,40.78165555,140.7706637,
1067,E0220100215111,青森市小牧野遺跡保護センター「縄文の学び舎・小牧野館」（旧野沢小学校）,青森県青森市大字野沢字沢部108,1,,,40.74776794,140.7234354,
1068,E0220100216111,野内小学校,青森県青森市大字野内字菊川155,1,,,40.84938722,140.818849,
1069,E0220100217111,野木ふるさと館,青森県青森市大字野木字山口140-2,1,,,40.76226334,140.7404674,
1070,E0220100219121,特別養護老人ホーム和幸園,青森県青森市大字矢田字下野尻48-3,,,高齢者,40.8470523,140.8484699,
1071,E0220100220121,介護老人保健施設青森ナーシングライフ,青森県青森市大字矢田前字弥生田47-2,,,高齢者,40.82917971,140.8083401,
1072,E0220100221111,油川小学校,青森県青森市大字油川字船岡36,1,,,40.85051381,140.6919693,
1073,E0220100222111,西中学校,青森県青森市大字浪館字志田36,1,,,40.80878204,140.7192538,
1074,E0220100223111,泉川小学校,青森県青森市大字浪館字泉川1-1,1,,,40.80678887,140.7216003,
1075,E0220100224111,中央市民センター浪館分館,青森県青森市大字浪館字平岡66-1,1,,,40.80963001,140.7134519,
1076,E0220100226111,中央市民センター大矢沢分館,青森県青森市大矢沢字里見35-2,1,,,40.78024002,140.7739852,
1077,E0220100229111,合浦小学校,青森県青森市茶屋町32-17,1,,,40.82768724,140.7676975,
1078,E0220100231111,浦町小学校,青森県青森市中央2-17-13,1,,,40.81899873,140.7488827,
1079,E0220100233111,青森市総合福祉センター,青森県青森市中央3-16-1,1,,,40.81632986,140.7475681,
1080,E0220100234111,アピオあおもり,青森県青森市中央3-17-1,1,,,40.81676832,140.7474286,
1081,E0220100235121,サービス付き高齢者向け住宅　和幸セントラルハウス,青森県青森市中央3-20-10,,,高齢者,40.8175154775491,140.749950153228,
1082,E0220100236111,県民福祉プラザ,青森県青森市中央3-20-30,1,,,40.81674843,140.7500446,
1083,E0220100237111,佃中学校,青森県青森市中佃2-7-1,1,,,40.81604772,140.7806877,
1084,E0220100239121,和幸保育園,青森県青森市長島2-1-12,,,小児,40.8232601124718,140.739687271365,
1085,E0220100240111,長島小学校,青森県青森市長島3-8-1,1,,,40.82164816,140.7405772,
1086,E0220100243111,佃小学校,青森県青森市佃2-6-1,1,,,40.81950414,140.7781486,
1087,E0220100245111,リンクステーションホール青森（青森市文化会館）,青森県青森市堤町1-4-1,1,,,40.82439307,140.7568883,
1088,E0220100248111,青森中央高等学校,青森県青森市東大野1-22-1,1,,,40.80215303,140.7443965,
1089,E0220100249111,大野小学校,青森県青森市東大野1-3-1,1,,,40.80418433,140.7424815,
1090,E0220100250111,筒井小学校,青森県青森市筒井1-1-1,1,,,40.80847914,140.7649916,
1091,E0220100258111,中央市民センター相野分館,青森県青森市富田2-14-12,1,,,40.83014201,140.715495,
1092,E0220100264111,福祉増進センター,青森県青森市本町4-1-3,1,,,40.82928055,140.7513598,
1093,E0220100266111,青森市はまなす会館,青森県青森市問屋町1-10-10,1,,,40.78876983,140.7546179,
1094,E0220100267111,リンクモア平安閣市民ホール（青森市民ホール）,青森県青森市柳川1-2-14,1,,,40.82661129,140.7333779,
1095,E0220100268111,三内小学校,青森県青森市里見1-9-1,1,,,40.81754181,140.712182,
1096,E0220100269121,老人保健施設すずかけの里,青森県青森市里見2-13-1,,,高齢者,40.81562132,140.7134978,
1097,E0220100272111,南中学校,青森県青森市緑2-6-1,1,,,40.80743919,140.7465107,
1098,E0220100275111,浪岡女鹿沢公民館,青森県青森市浪岡大字下十川字宮本36-1,1,,,40.68977427,140.5565827,
1099,E0220100276111,女鹿沢小学校,青森県青森市浪岡大字下十川字扇田19-2,1,,,40.69808982,140.5644041,
1100,E0220100277111,下石川ふれあいセンター,青森県青森市浪岡大字下石川字岡田143-1,1,,,40.73431435,140.5329646,
1101,E0220100278111,浪岡野沢小学校,青森県青森市浪岡大字吉野田字平野51-2,1,,,40.72142345,140.550554,
1102,E0220100279111,吉野田農村センター,青森県青森市浪岡大字吉野田字木戸口10-1,1,,,40.72352549,140.5447582,
1103,E0220100281111,郷山前農村センター,青森県青森市浪岡大字郷山前字上野62-5,1,,,40.71604411,140.5535816,
1104,E0220100282111,銀農村センター,青森県青森市浪岡大字銀字杉田151,1,,,40.70545513,140.5618839,
1105,E0220100283111,五本松農村センター,青森県青森市浪岡大字五本松字羽黒平40-1,1,,,40.72291384,140.6158765,
1106,E0220100287111,杉高児童館,青森県青森市浪岡大字高屋敷字後田32-1,1,,,40.73122748,140.5861882,
1107,E0220100288111,浪岡細野山の家,青森県青森市浪岡大字細野字沢井37-3,1,,,40.69342684,140.6599135,
1108,E0220100292111,花岡農村環境改善センター,青森県青森市浪岡大字女鹿沢字野尻14-1,1,,,40.71191166,140.5724782,
1109,E0220100292112,健康の森花岡プラザ,青森県青森市浪岡大字女鹿沢字野尻14-1,1,,,40.7120004,140.5730009,
1110,E0220100295111,増館農村センター,青森県青森市浪岡大字増館字富岡140-2,1,,,40.67990583,140.5483487,
1111,E0220100296111,旧大栄小学校,青森県青森市浪岡大字大釈迦字前田5-2,1,,,40.75663028,140.5897224,
1112,E0220100299121,障害者支援施設りんどう苑,青森県青森市浪岡大字樽沢字上野74-1,,,障害者,40.7160428,140.5705001,
1113,E0220100301121,特別養護老人ホームゆうゆう荘,青森県青森市浪岡大字樽沢字村元330-7,,,高齢者,40.71266527,140.5582835,
1114,E0220100303111,徳長農村センター,青森県青森市浪岡大字徳才子字福田4-1,1,,,40.75190777,140.590277,
1115,E0220100306111,浪岡南小学校,青森県青森市浪岡大字北中野字北畠3,1,,,40.70838607,140.5980091,
1116,E0220100307111,本郷小学校,青森県青森市浪岡大字本郷字一本柳4,1,,,40.69640856,140.6142049,
1117,E0220100310111,浪岡中学校,青森県青森市浪岡大字浪岡字稲盛1,1,,,40.70554125,140.5880337,
1118,E0220100312111,浪岡体育館,青森県青森市浪岡大字浪岡字稲盛93,1,,,40.70633777,140.5881755,
1119,E0220100313111,浪岡中央公民館,青森県青森市浪岡大字浪岡字稲村101-1,1,,,40.70958085,140.595647,
1120,E0220100314111,浪岡高等学校,青森県青森市浪岡大字浪岡字稲村101-2,1,,,40.70905866,140.5941478,
1121,E0220100315111,中世の館,青森県青森市浪岡大字浪岡字岡田43,1,,,40.71416705,140.5971658,
1122,E0220100319111,浪岡茶屋町会館,青森県青森市浪岡大字浪岡字林本79-2,1,,,40.71460219,140.5926675,
1123,E0220100320111,浪岡北小学校,青森県青森市浪岡大字浪岡字淋城29,1,,,40.71951364,140.5932179,
1124,E0220100321111,なごやかプラザ福田,青森県青森市浪岡福田2-4-3,1,,,40.7193532,140.5843265,
1125,E0220100322111,浪館小学校,青森県青森市浪館前田3-23-1,1,,,40.81112502,140.7162403,
1126,E0220100323111,浪打小学校,青森県青森市浪打1-4-1,1,,,40.82371481,140.777005,
1127,E0220100324111,青森明の星短期大学,青森県青森市浪打2-6-32,1,,,40.823771025673,140.7811710252,
1128,E0242300001111,奥戸小学校,青森県大間町奥戸字館ノ上96,1,,,41.489127058277,140.90621279061,
1129,E0242300002111,旧奥戸中学校,青森県大間町奥戸字館ノ上96-7,1,,,41.486776259792,140.90714083492,
1130,E0242300003111,農村婦人の家,青森県大間町奥戸字材木川目32-2,1,,,41.471307092418,140.8916434728,
1131,E0242300007111,奥戸交流館,青森県大間町奥戸字浜町通48-1,1,,,41.489728500229,140.90580280984,
1132,E0242300008111,大間町総合開発センター,青森県大間町大間字奥戸下道20-1,1,,,41.523363228988,140.9043590681,
1133,E0242300010111,大間幼稚園,青森県大間町大間字大間平20-38,1,,,41.526851963063,140.92336783082,
1134,E0242300011111,大間高等学校,青森県大間町大間字大間平20-43,1,,,41.527654782873,140.92746276029,
1135,E0242300012111,大間中学校,青森県大間町大間字大間平31-1,1,,,41.528268967155,140.92341575086,
1136,E0242300013111,大間町勤労青少年ホーム,青森県大間町大間字大間平41-7,1,,,41.542560874237,140.91368682997,
1137,E0242300014111,大間町海峡保養センター,青森県大間町大間字内山48-1,,,,41.521076018651,140.92091213953,
1138,E0242300015111,大間小学校,青森県大間町大間字狼丁37-2,1,,,41.528127885823,140.91264697053,
1139,E0242300017111,大間町健康福祉センタースマイリー,青森県大間町大字大間字寺道16,,,,41.5267,140.907709,
1140,E0236200005121,大鰐療育センター,青森県大鰐町苦木野尻170-1,,,避難行動要支援者,40.510923,140.59732,
1141,E0236200006121,グループホーム月のうさぎ,青森県大鰐町鯖石字広田13-3,,,避難行動要支援者,40.537202,140.554543,
1142,E0236200007121,あずみ野グループホーム,青森県大鰐町鯖石字浅瀬渕35-5,,,避難行動要支援者,40.531765,140.55589,
1143,E0236200009111,居土多目的集会センター,青森県大鰐町大字居土字宮本53-5,1,,,40.503776,140.530235,
1144,E0236200010111,高野新田多目的集会センター,青森県大鰐町大字居土字高野新田27-4,1,,,40.487116,140.529861,
1145,E0236200011111,折紙多目的集会センター,青森県大鰐町大字居土字沢田74-2,1,,,40.508085,140.515281,
1146,E0236200012111,苦木多目的集会センター,青森県大鰐町大字苦木字豊田8-2,1,,,40.516095,140.600001,
1147,E0221000016121,障害者支援施設　大鰐療育センター,青森県大鰐町大字苦木字野尻170-1,,左記のうち、事前に市が特定し、環境調整を事前に行った者,要配慮者,40.510832,140.597228,
1148,E0236200013111,大鰐町農家高齢者創作館,青森県大鰐町大字駒木字駒木平124-1,1,,,40.518431,140.629874,
1149,E0236200014111,旧大鰐第二小学校,青森県大鰐町大字三ツ目内字大堰口3-2,1,,,40.509926,140.538092,
1150,E0236200015111,三ツ目内生活改善センター,青森県大鰐町大字三ツ目内字福清水46,1,,,40.519187,140.546079,
1151,E0236200016111,宿川原生活改善センター,青森県大鰐町大字宿川原字川崎81-2,1,,,40.525426,140.55814,
1152,E0236200017111,森山多目的研修センター,青森県大鰐町大字森山字東舘51,1,,,40.537442,140.54697,
1153,E0236200018111,早瀬野多目的集会センター,青森県大鰐町大字早瀬野字小金沢142-2,1,,,40.479115,140.554014,
1154,E0236200020111,大鰐町総合福祉センター,青森県大鰐町大字蔵館字川原田37-6,1,,,40.51881,140.582,
1155,E0236200021111,大鰐小学校,青森県大鰐町大字大鰐字羽黒館54,1,,,40.517007,140.566883,
1156,E0236200023111,大鰐町中央公民館,青森県大鰐町大字大鰐字前田51-8,1,,,40.520318,140.57035,
1157,E0236200024121,グループホーム大鰐温泉保養館,青森県大鰐町大字大鰐字湯野川原8-4,,,避難行動要支援者,40.520717,140.574544,
1158,E0221000017121,グループホーム大鰐温泉保養館,青森県大鰐町大字大鰐字湯野川原8-4,,左記のうち、事前に市が特定し、環境調整を事前に行った者,要配慮者,40.520679927208,140.57454313822,
1159,E0221000018121,特別養護老人ホーム　大鰐ホーム,青森県大鰐町大字大鰐字萢頭9-2,,左記のうち、事前に市が特定し、環境調整を事前に行った者,要配慮者,40.512356,140.577187,
1160,E0236200025111,九十九森公民館,青森県大鰐町大字長峰字九十九森76-3,1,,,40.5127300544496,140.604992403152,
1161,E0236200026111,駒の台へき地保健福祉館,青森県大鰐町大字長峰字駒ノ台193,1,,,40.520133,140.646008,
1162,E0236200027111,元長峰多目的集会センター,青森県大鰐町大字長峰字前田23-1,1,,,40.520077,140.596205,
1163,E0236200028111,旧長峰小学校,青森県大鰐町大字長峰字沢田1,1,,,40.513499,140.60278,
1164,E0236200029111,長峰多目的研修センター,青森県大鰐町大字長峰字沢田2-3,1,,,40.513954,140.602651,
1165,E0236200030111,唐牛構造改善センター,青森県大鰐町大字唐牛字沼田133-23,1,,,40.498525,140.614516,
1166,E0236200031111,森林浴交流センターしまだ,青森県大鰐町大字島田字ゾベコ沢71-1,1,,,40.471291,140.581048,
1167,E0236200032111,大鰐中学校,青森県大鰐町大字虹貝字篠塚24-1,1,,,40.519727,140.560823,
1168,E0236200033121,特別養護老人ホームあじゃら,青森県大鰐町大字虹貝字篠塚33-7,,,避難行動要支援者,40.519746,140.562692,
1169,E0236200036111,虹貝コミュニティセンター,青森県大鰐町大字虹貝字清川95-1,1,,,40.514857,140.56167,
1170,E0236200037111,虹貝新田へき地保健福祉館,青森県大鰐町大字虹貝字大熊沢73-3,1,,,40.503308,140.559849,
1171,E0236200038111,八幡館社会福祉館,青森県大鰐町大字八幡館字沢田65-1,1,,,40.541686,140.55835,
1172,E0236200039121,特別養護老人ホーム大鰐ホーム,青森県大鰐町大鰐萢頭9-2,,,避難行動要支援者,40.512142,140.577163,
1173,E0238700002111,福寿荘,青森県中泊町芦野字堤の袖153-9,,,,40.938409,140.40964,
1174,E0238700003111,宮野沢総合研修センター,青森県中泊町宮野沢字浦島46,,,,40.96131647,140.4534789,
1175,E0238700004111,高寿荘,青森県中泊町高根字小金石205-4,,,,40.98741,140.425995,
1176,E0238700005111,下高根公民館,青森県中泊町高根字小金石916,,,,41.00630093,140.4229004,
1177,E0238700006112,旧今泉小学校体育館,青森県中泊町今泉字布引115-1,,,,41.03042609,140.4186929,
1178,E0238700006111,泉寿荘,青森県中泊町今泉字布引115-1,,,,41.02995262,140.4197712,
1179,E0238700007111,稲荷山避難所,青森県中泊町小泊字稲荷20-1,,,,41.129748,140.3019727,
1180,E0238700008111,熊野神社,青森県中泊町小泊字下前175-1,,,,41.12186347,140.2755857,
1181,E0238700009111,すくすくしたまえ館,青森県中泊町小泊字下前207-2,,,,41.121076,140.273087,
1182,E0238700010111,小泊小学校体育館,青森県中泊町小泊字砂山1076-1,,,,41.129153,140.309556,
1183,E0238700011111,老人憩いの家,青森県中泊町小泊字砂山1158,,,,41.13034112,140.3090114,
1184,E0238700012111,小泊中学校体育館,青森県中泊町小泊字鮫貝196-188,,,,41.121536,140.293908,
1185,E0238700013111,旧下前小学校体育館,青森県中泊町小泊字漆流36-1,,,,41.12268785,140.2725387,
1186,E0238700014111,すくすくこどまり館,青森県中泊町小泊字小泊423,,,,41.13143591,140.305388,
1187,E0238700015111,日本海漁火センター,青森県中泊町小泊字小泊488,,,,41.130587,140.300206,
1188,E0238700016111,港老人憩いの家,青森県中泊町小泊字水澗17-1,,,,41.131201,140.294085,
1189,E0238700017111,折戸避難所,青森県中泊町小泊字折戸51-12,,,,41.11381095,140.2995033,
1190,E0238700018111,すくすく折戸館,青森県中泊町小泊字折戸65,,,,41.115207,140.296295,
1191,E0238700019111,基幹集落センター,青森県中泊町小泊字大山長根114,,,,41.13189344,140.2929089,
1192,E0238700020111,小泊克雪センター,青森県中泊町小泊字築上104-2,,,,41.11867,140.304299,
1193,E0238700021111,高齢者福祉センター,青森県中泊町小泊字朝間25,,,,41.12751694,140.309807,
1194,E0238700022111,深寿荘,青森県中泊町深郷田字富森84-17,,,,40.95908031,140.4409262,
1195,E0238700027122,グループホーム泉の里,青森県中泊町大字今泉字神山141,,,施設等の入所基準に該当又は該当すると認められる避難行動要支援者等,41.033518,140.423185,
1196,E0238700027121,竹山荘ディサービスセンター,青森県中泊町大字今泉字神山141,,,施設等の入所基準に該当又は該当すると認められる避難行動要支援者等,41.033639,140.423432,
1197,E0238700028121,グループホームやまなみ,青森県中泊町大字今泉字神山144-1,,,施設等の入所基準に該当又は該当すると認められる避難行動要支援者等,41.033684,140.424108,
1198,E0220900107111,下車力保健福祉館,青森県中泊町大字田茂木字若緑72-34,,,,40.941226897872,140.38107954395,
1199,E0238400001111,旧梅沢小学校,青森県鶴田町大字横萢字松倉16-1,1,,,40.755657860934,140.4725606492,
1200,E0238400002111,横萢ふれあいセンター,青森県鶴田町大字横萢字松倉2-1,1,,,40.754267692416,140.4716447134,
1201,E0238400049121,グループホーム　アップル鶴の里,青森県鶴田町大字横萢字矢留崎97,,,高齢者,40.752597,140.483033,
1202,E0238400003111,沖ふれあいセンター,青森県鶴田町大字沖字岡田289-1,1,,,40.746909764395,140.46926317186,
1203,E0238400004111,松倉文化センター,青森県鶴田町大字沖字藤巻99-5,1,,,40.757091207658,140.46417940798,
1204,E0238400005111,廻堰ふれあいセンター,青森県鶴田町大字廻堰字下桂井58-3,1,,,40.759584712468,140.39244948838,
1205,E0238400041121,特別養護老人ホーム　鶴松園,青森県鶴田町大字廻堰字上野尻146,,町が特定した者,高齢者,40.765689,140.398056,
1206,E0238400044121,グループホーム　ひら岡,青森県鶴田町大字廻堰字東下山1-1,,,高齢者,40.757656,140.392671,
1207,E0238400042121,介護老人保健施設　湖水荘,青森県鶴田町大字廻堰字東下山91-2,,町が特定した者,高齢者、障がい者,40.758148,140.387637,
1208,E0238400050121,鶴東館,青森県鶴田町大字境字宮内1-1,,,高齢者,40.735308,140.452654,
1209,E0238400006111,境・胡桃舘ふれあいセンター,青森県鶴田町大字胡桃舘字池田1-1,1,,,40.735683028091,140.45310514951,
1210,E0238400007111,旧胡桃舘小学校,青森県鶴田町大字胡桃舘字北田171,1,,,40.741495760587,140.45450590733,
1211,E0238400008111,中野文化センター,青森県鶴田町大字胡桃舘字北田21,1,,,40.742136316281,140.45512306699,
1212,E0238400048121,グループホーム　さくら荘,青森県鶴田町大字山道字小泉301,,,高齢者,40.757429,140.447741,
1213,E0238400009111,山道文化センター,青森県鶴田町大字山道字小泉371,1,,,40.755149610432,140.45143480763,
1214,E0238400010111,あやめふれあいセンター,青森県鶴田町大字菖蒲川字一本柳321-3,1,,,40.737144370358,140.42613775623,
1215,E0238400011111,旧菖蒲川小学校,青森県鶴田町大字菖蒲川字一本柳71-1,1,,,40.733164642141,140.42583029523,
1216,E0238400012111,瀬良沢ふれあいセンター,青森県鶴田町大字瀬良沢字篠田40-2,1,,,40.750427329233,140.49190612573,
1217,E0238400013111,大巻ふれあいセンター,青森県鶴田町大字大巻字柳葉309,1,,,40.778410683648,140.42228494555,
1218,E0238400014111,大性ふれあいセンター,青森県鶴田町大字大性字一本柳30-3,1,,,40.726944485971,140.42593902511,
1219,E0238400051121,多機能型事業所　飛翔食房,青森県鶴田町大字鶴田字押上52,,,障がい者,40.770093,140.42567,
1220,E0238400015111,鶴田町公民館,青森県鶴田町大字鶴田字沖津189-1,1,,,40.750023159299,140.42860135516,
1221,E0238400016111,鶴田町保健福祉センター「鶴遊館」,青森県鶴田町大字鶴田字沖津193,1,,,40.749097091502,140.42777564615,
1222,E0238400016121,保健福祉センター　鶴遊館,青森県鶴田町大字鶴田字沖津193,1,,高齢者　障がい者,40.74907,140.427849,
1223,E0238400052121,地域生活援助　はばたけ寮,青森県鶴田町大字鶴田字沖津194-3,,2,障がい者,40.74705,140.428171,
1224,E0238400017111,鶴田町体育センター,青森県鶴田町大字鶴田字沖津203-1,1,,,40.749961163561,140.4292018086,
1225,E0238400018111,鶴田町武徳館,青森県鶴田町大字鶴田字沖津204-1,1,,,40.750321560695,140.42941676336,
