NO,共通ID,施設・場所名,住所,洪水,崖崩れ、土石流及び地滑り,高潮,地震,津波,大規模な火事,内水氾濫,火山現象,指定避難所との住所同一,緯度,経度,備考
1,E0320900001201,瑞昌寺,岩手県一関市花泉町永井字寺前271,1,1,,1,,,1,,,38.79466203,141.2261471,避難場所は建物のほか敷地を含む
2,E0320900002201,祥雲寺,岩手県一関市花泉町永井字川ノ口46,,1,,1,,,,,,38.791433,141.240417,水害時は避難場所使用不可 土砂災害のおそれがある場合の避難場所は建物内のみ 地震時の避難場所は建物のほか敷地を含む
3,E0320900003201,高倉介護予防センター,岩手県一関市花泉町永井字薬師沢111,1,1,,1,,,1,,,38.75399091,141.2292511,避難場所は建物のほか敷地を含む
4,E0320900004201,永井市民センター,岩手県一関市花泉町永井字粒乱田69-1,1,1,,1,,,1,,1,38.78018864,141.2273281,避難場所は建物のほか敷地を含む
5,E0320900006201,花夢パル,岩手県一関市花泉町花泉字伊勢沢14-3,1,1,,1,,,1,,,38.83525786,141.1708446,避難場所は建物のほか敷地を含む
6,E0320900007201,奈良坂生活改善センター,岩手県一関市花泉町花泉字高田31-1,1,1,,1,,,1,,,38.83671512,141.1314359,
7,E0320900008201,徳壽院,岩手県一関市花泉町花泉字西郷ノ目30,1,1,,1,,,1,,,38.84470015,141.1836099,避難場所は建物のほか敷地を含む
8,E0320900009201,花泉駅前コミュニティセンター,岩手県一関市花泉町花泉字地平17-44,1,1,,1,,,1,,,38.83395392,141.1799103,避難場所は建物のほか敷地を含む
9,E0320900010201,花泉市民センター,岩手県一関市花泉町花泉字天王沢沖109-1,1,1,,1,,,1,,1,38.84578153,141.1611812,避難場所は建物のほか敷地を含む
10,E0320900012201,花泉高等学校,岩手県一関市花泉町花泉字林ノ沢17-9,1,1,,1,,,1,,,38.8302616,141.1749863,避難場所は柔剣道場及び第二体育館
11,E0320900014201,金沢市民センター,岩手県一関市花泉町金沢字大柳56,1,1,,1,,,1,,,38.84920227,141.1767251,避難場所は建物のほか敷地を含む
12,E0320900015201,宝持院,岩手県一関市花泉町金沢字大柳61,1,1,,1,,,1,,,38.8500897,141.17675,避難場所は建物のほか敷地を含む
13,E0320900016201,刈生沢コミュニティセンター,岩手県一関市花泉町金沢字中屋敷38,1,1,,1,,,1,,,38.86555696,141.2034935,避難場所はセンター、体育館及び敷地
14,E0320900017201,日形市民センター,岩手県一関市花泉町日形字井戸沢38-2,,1,,1,,,,,,38.83335095,141.2498287,水害時は避難場所使用不可 土砂災害・地震時の避難場所は建物のほか敷地を含む
15,E0320900018201,日形体育館,岩手県一関市花泉町日形字町裏131,,1,,1,,,,,,38.83159817,141.2546581,
16,E0320900019201,寶祥寺,岩手県一関市花泉町油島字柿ノ木3,1,1,,1,,,1,,,38.82491182,141.170798,避難場所は建物のほか敷地を含む
17,E0320900020202,油島市民センター,岩手県一関市花泉町油島字上築道34-1,1,1,,1,,,1,,1,38.81181187,141.1759593,
18,E0320900021201,満昌寺,岩手県一関市花泉町油島字憧伝沢35,1,1,,1,,,1,,,38.79482705,141.1707892,避難場所は建物のほか敷地を含む
19,E0320900022202,夏川沿岸土地改良区広場,岩手県一関市花泉町油島字日向平57-1,1,1,,1,,,1,,,38.787047,141.167581,避難場所は屋外敷地のみ
20,E0320900023201,わくつこども園,岩手県一関市花泉町涌津字悪法師38-312,1,1,,1,,,1,,,38.79960061,141.1921992,避難場所は建物のほか敷地を含む
21,E0320900024201,花泉中学校,岩手県一関市花泉町涌津字古川8,1,1,,1,,,1,,1,38.83068794,141.1880455,水害時の避難場所は校舎及び体育館 その他の災害での避難場所は校舎、体育館及びグラウンド
22,E0320900025201,長禅寺,岩手県一関市花泉町涌津字後山12,1,1,,1,,,1,,,38.81692352,141.1926966,避難場所は建物のほか敷地を含む
23,E0320900026201,亥年コミュニティセンター,岩手県一関市花泉町涌津字山中31-110,1,1,,1,,,1,,,38.79728541,141.1934852,避難場所は体育館のみ
24,E0320900028201,涌津市民センター,岩手県一関市花泉町涌津字松ノ坊65-2,1,1,,1,,,1,,,38.81291444,141.1964511,避難場所は建物のほか敷地を含む
25,E0320900030201,花泉総合福祉センター,岩手県一関市花泉町老松字水沢193-1,1,1,,1,,,1,,,38.83423609,141.1897684,水害時の避難場所は2階以上 土砂災害・地震時の避難場所は建物のほか敷地を含む
26,E0320900029201,花泉体育館,岩手県一関市花泉町老松字水沢209-1,,1,,1,,,,,,38.83500563,141.1913586,水害時は避難場所使用不可 土砂災害・地震時の避難場所は建物のほか敷地を含む
27,E0320900031201,大祥寺,岩手県一関市花泉町老松字水沢屋敷58,1,1,,1,,,1,,,38.83673112,141.1964535,避難場所は建物のほか敷地を含む
28,E0320900033201,老松市民センター,岩手県一関市花泉町老松字藤田274-2,1,1,,1,,,1,,1,38.82865564,141.2026787,避難場所は建物のほか敷地を含む
29,E0320900034201,関が丘市民センター,岩手県一関市関が丘16-1,1,1,,1,,,1,,,38.91990294,141.1429931,避難場所は建物のほか敷地を含む
30,E0320900035201,法師宗大法院,岩手県一関市宮前町12-28,1,1,,1,,,1,,,38.93763936,141.1268455,避難場所は建物のほか敷地を含む
31,E0320900036201,旧本寺中学校,岩手県一関市厳美町字岡山16-4,1,1,,1,,,1,,1,38.9722295,140.9382515,避難場所は体育館及びグラウンド
32,E0320900037201,厳美市民センター（一関自然休養村管理センター）,岩手県一関市厳美町字沖野々116-6,1,1,,1,,,1,,,38.9440544,141.0529138,避難場所は建物のほか敷地を含む
33,E0320900038201,都市農村交流館（道の駅厳美渓）,岩手県一関市厳美町字沖野々220-1,1,1,,1,,,1,,,38.94634025,141.0529343,避難場所は建物のほか敷地を含む 道の駅厳美渓部分については、観光客専用の避難場所とする
34,E0320900039201,瀧門寺,岩手県一関市厳美町字鴻ノ巣206,1,,,1,,,1,,,38.93741202,141.0478799,避難場所は建物のほか敷地を含む
35,E0320900040201,骨寺村荘園交流館,岩手県一関市厳美町字若神子241-2,1,1,,1,,,1,,,38.9724139,140.9597374,避難場所は建物のほか敷地を含む
36,E0320900041201,厳美中学校,岩手県一関市厳美町字上ノ台45-1,1,1,,1,,,1,,1,38.94298377,141.04152,避難場所は体育館及びグラウンド
37,E0320900042201,厳美小学校,岩手県一関市厳美町字上ノ台55-2,1,1,,1,,,1,,,38.94305052,141.0424266,避難場所は体育館及びグラウンド
38,E0320900043201,厳美市民センター山谷分館,岩手県一関市厳美町字入道200,1,1,,1,,,1,,,38.96901811,140.9991805,避難場所は建物のほか敷地を含む
39,E0320900044201,狐禅寺市民センター,岩手県一関市狐禅寺字小倉沢100-1,1,1,,1,,,1,,,38.93959215,141.1800428,避難場所は建物のほか敷地を含む
40,E0320900045201,一関市総合体育館,岩手県一関市狐禅寺字石ノ瀬25-3,,1,,1,,,,,1,38.94085377,141.1557042,水害時ハ避難場所使用不可 土砂災害のおそれがある場合の避難場所は建物内のみ 地震時の避難場所は建物のほか一関遊水地記念緑地等を含む
41,E0320900046201,一関清掃センター,岩手県一関市狐禅寺字草ケ沢36-41,1,1,,1,,,1,,,38.94477504,141.1926668,避難場所は建物のほか敷地を含む
42,E0320900047201,山目小学校,岩手県一関市幸町2-47,1,1,,1,,,1,,1,38.92963923,141.1229064,避難場所は体育館及びグラウンド
43,E0320900048201,サン・アビリティーズ一関,岩手県一関市三関字桜町36-3,,1,,1,,,,,1,38.92937161,141.1518406,水害時避難場所使用不可 土砂災害のおそれがある場合の避難場所は建物内のみ 地震時の避難場所は建物のほか敷地を含む
44,E0320900049201,桜町中学校,岩手県一関市三関字桜町39-2,1,1,,1,,,1,,,38.93048578,141.1526167,水害時の避難場所は校舎3階以上及び屋上 土砂災害のおそれがある場合の避難場所は体育館のみ 地震時の避難場所は体育館及びグラウンド
45,E0320900050201,磐井中学校,岩手県一関市山目字館46-1,1,1,,1,,,1,,1,38.93900701,141.1234666,避難場所は体育館、武道館及びグラウンド
46,E0320900051201,創価学会一関文化会館,岩手県一関市山目字大槻44-1,1,1,,,,,1,,,38.93779187,141.1180396,地震時は避難場所使用不可 避難場所は建物のほか敷地を含む
47,E0320900052201,中里市民センター,岩手県一関市山目町2-1-19,,1,,1,,,,,,38.94619956,141.1303386,水害時は避難場所使用不可 土砂災害のおそれがある場合の避難場所は建物内のみ 地震時の避難場所は建物のほか敷地を含む
48,E0320900053201,祥雲寺,岩手県一関市字台町48-2,1,1,,1,,,1,,,38.91871806,141.1299767,避難場所は建物のほか敷地を含む
49,E0320900054201,一関小学校,岩手県一関市字鳴神33-1,1,1,,1,,,1,,,38.92916025,141.1441429,水害時の避難場所は校舎3階以上及び屋上 土砂災害のおそれがある場合の避難場所は体育館のみ 地震時の避難場所は体育館及びグラウンド
50,E0320900055201,室根体育館,岩手県一関市室根町折壁字向山85,1,1,,1,,,1,,1,38.93444361,141.4462558,避難場所は建物のほか敷地を含む
51,E0320900056201,室根市民センター,岩手県一関市室根町折壁字大里201-1,1,1,,1,,,1,,,38.9406487,141.4508333,避難場所は建物のほか敷地を含む （駐車場部分は除く）
52,E0320900057201,室根浜横沢下地区会館,岩手県一関市室根町折壁字中西62-1,1,1,,1,,,1,,,38.91789207,141.4870578,避難場所は建物のほか敷地を含む
53,E0320900059201,田茂木地区コミュニティセンター,岩手県一関市室根町折壁字田茂木56,1,1,,1,,,1,,,38.95478335,141.4647404,避難場所は建物のほか敷地を含む
54,E0320900060201,曲ろくふれあいセンター,岩手県一関市室根町折壁字八幡沖345,,1,,1,,,,,1,38.93617605,141.4447123,
55,E0320900061201,室根市民センター津谷川体育館,岩手県一関市室根町津谷川字上川原19-1,1,1,,1,,,1,,1,38.84902923,141.4264141,避難場所は体育館及び北側駐車場 （グラウンド及び東側駐車場部分は除く）
56,E0320900063201,室根中学校,岩手県一関市室根町矢越字五反田41-2,1,1,,1,,,1,,1,38.93509664,141.4347034,避難場所は校舎、体育館及びグラウンド （駐車場部分は除く）
57,E0320900064201,室根ひこばえの森交流センター,岩手県一関市室根町矢越字山古沢94-7,1,1,,1,,,1,,,38.92169009,141.4229499,避難場所は建物のほか敷地を含む
58,E0320900066201,室根佐野地区会館,岩手県一関市室根町矢越字沢38-1,1,1,,1,,,1,,,38.89438372,141.4389247,避難場所は建物のほか敷地を含む
59,E0320900067201,室根第１５地区会館,岩手県一関市室根町矢越字朴12-3,1,1,,1,,,1,,,38.89892364,141.4265093,避難場所は建物のほか敷地を含む
60,E0320900068201,瑞川寺,岩手県一関市真柴字千刈田79-3,1,1,,1,,,1,,,38.91333636,141.1295247,避難場所は建物のほか敷地を含む
61,E0320900069201,真柴市民センター,岩手県一関市真柴字川戸3-1,1,1,,1,,,1,,,38.89921332,141.1295622,避難場所は建物のほか敷地を含む
62,E0320900070201,一関中学校,岩手県一関市真柴字中田18,1,1,,1,,,1,,1,38.91167774,141.1343063,避難場所は体育館及びグラウンド
63,E0320900071201,山目市民センター,岩手県一関市青葉2-4-5,,1,,1,,,,,,38.93149436,141.1266468,水害時は避難場所使用不可 土砂災害のおそれがある場合の避難場所は建物内のみ 地震時の避難場所は建物のほか敷地を含む
64,E0320900072201,要津院,岩手県一関市赤荻字宮田25,1,1,,1,,,1,,,38.94446282,141.0995929,避難場所は建物のほか敷地を含む
65,E0320900073201,赤荻小学校,岩手県一関市赤荻字桜町181-1,1,1,,1,,,1,,1,38.93849829,141.0939176,避難場所は体育館及びグラウンド
66,E0320900074201,山目市民センター赤荻分館（一関学習交流館）,岩手県一関市赤荻字桜町240,1,1,,1,,,1,,,38.9374648,141.0956759,避難場所は建物のほか敷地を含む
67,E0320900075201,山目市民センター笹谷分館,岩手県一関市赤荻字笹谷28-1,1,1,,1,,,1,,,38.96106223,141.0965101,避難場所は建物のほか敷地を含む
68,E0320900076201,一関農村女性の家,岩手県一関市赤荻字上袋199-1,1,1,,1,,,1,,,38.93350813,141.0900763,避難場所は建物のほか敷地を含む
69,E0320900077201,一関第二高等学校,岩手県一関市赤荻字野中23-1,1,1,,1,,,1,,,38.93242264,141.1060639,避難場所は体育館及びグラウンド
70,E0320900078201,花貫文化会館,岩手県一関市千厩町奥玉字花貫2-1,1,1,,1,,,1,,,38.94792287,141.3540874,避難場所は建物のみ
71,E0320900079201,天ヶ森会館,岩手県一関市千厩町奥玉字坂下33,1,1,,1,,,1,,,38.9556901,141.3714048,避難場所は建物のほか敷地を含む
72,E0320900080201,三沢自治会館,岩手県一関市千厩町奥玉字三沢102-1,1,1,,1,,,1,,,38.95117842,141.386834,地震時の避難場所は敷地（屋外）のみ 水害及び土砂災害での避難場所は建物のほか敷地を含む
73,E0320900081201,安養寺,岩手県一関市千厩町奥玉字寺ノ沢5,1,1,,1,,,1,,,38.952213,141.3771206,地震時の避難場所は敷地（屋外）のみ 水害及び土砂災害での避難場所は建物のほか敷地を含む
74,E0320900082201,地蔵院,岩手県一関市千厩町奥玉字上川原43,1,1,,1,,,1,,,38.95950459,141.3717135,
75,E0320900083201,大平集落センター,岩手県一関市千厩町奥玉字大森5-3,1,1,,1,,,1,,,38.960946,141.413414,避難場所は建物のほか敷地を含む
76,E0320900084201,宝築集落センター,岩手県一関市千厩町奥玉字宝築3-1,1,1,,1,,,1,,,38.952841,141.407475,避難場所は建物のほか敷地を含む
77,E0320900085201,寺崎前構造改善センター,岩手県一関市千厩町奥玉字北ノ沢1-2,1,1,,1,,,1,,,38.9520112,141.3504026,避難場所は建物のほか敷地を含む
78,E0320900086201,町下会館,岩手県一関市千厩町奥玉字立石沢357-1,1,1,,,,,1,,,38.96487803,141.3655992,地震時は避難場所使用不可 その他の災害での避難場所は建物のみ
79,E0320900087201,洞雲寺,岩手県一関市千厩町小梨字舘前81,1,1,,1,,,1,,,38.90509764,141.3712756,地震時の避難場所は敷地（屋外）のみ 水害及び土砂災害での避難場所は建物のほか敷地を含む
80,E0320900088201,小梨市民センター,岩手県一関市千厩町小梨字堂ヶ崎30-5,1,1,,1,,,1,,1,38.90213587,141.3815524,避難場所は建物のほか敷地を含む （小梨体育館と同一敷地）
81,E0320900090201,小梨体育館,岩手県一関市千厩町小梨字堂ヶ崎31-7,1,1,,1,,,1,,,38.90194384,141.3818582,避難場所は建物のほか敷地を含む （小梨市民センターと同一敷地）
82,E0320900092201,遊もあ館,岩手県一関市千厩町清田字西沢22-1,1,1,,1,,,1,,,38.9238405024562,141.388763225289,避難場所は建物のほか敷地を含む
83,E0320900093201,木六自治会館,岩手県一関市千厩町千厩字下木六15,1,1,,1,,,1,,,38.91210598,141.3518236,地震時の避難場所は敷地（屋外）のみ 水害及び土砂災害での避難場所は建物のほか敷地を含む
84,E0320900094201,千厩体育館・千厩武道館,岩手県一関市千厩町千厩字舘山50,1,1,,1,,,1,,1,38.91682557,141.3376584,避難場所は建物のほか敷地を含む （千厩市民センターと同一敷地）
85,E0320900094202,千厩市民センター,岩手県一関市千厩町千厩字舘山50,1,1,,1,,,1,,1,38.91735565,141.3378945,避難場所は建物のほか敷地を含む （千厩体育館・千厩武道館と同一敷地）
86,E0320900095201,千厩保育園,岩手県一関市千厩町千厩字宮田23,1,1,,1,,,1,,,38.92834398,141.3370752,避難場所は建物のほか園庭・敷地を含む
87,E0320900096201,千厩中学校,岩手県一関市千厩町千厩字上駒場195-5,1,1,,1,,,1,,,38.9299509,141.3580201,避難場所は体育館及びグラウンド
88,E0320900097201,千厩農村環境改善センター,岩手県一関市千厩町千厩字上駒場360-12,1,1,,1,,,1,,,38.92500512,141.3603037,避難場所は建物のほか敷地を含む
89,E0320900098201,千厩高等技術専門校,岩手県一関市千厩町千厩字神ノ田60-1,1,1,,1,,,1,,,38.91596114,141.3230255,避難場所は体育館及びグラウンド
90,E0320900099201,神子ノ澤集会所,岩手県一関市千厩町千厩字神子ノ沢32,1,1,,1,,,1,,,38.90744093,141.3414807,地震時の避難場所は敷地（屋外）のみ 水害及び土砂災害での避難場所は建物のほか敷地を含む
91,E0320900100201,小田梅田自治会館,岩手県一関市千厩町千厩字西小田236-2,1,1,,1,,,1,,,38.90810572,141.3229576,避難場所は建物のほか敷地を含む
92,E0320900101201,千厩高等学校,岩手県一関市千厩町千厩字石堂45-2,1,1,,1,,,1,,,38.92001743,141.3421398,避難場所はグラウンドのみ
93,E0320900102201,千厩老人福祉センター,岩手県一関市千厩町千厩字前田54-1,1,1,,1,,,1,,,38.91363222,141.3453251,地震時の避難場所は敷地（屋外）のみ 水害及び土砂災害での避難場所は建物のほか敷地を含む
94,E0320900103201,千厩農村勤労福祉センター,岩手県一関市千厩町千厩字町浦97-1,1,1,,1,,,1,,,38.91686736,141.3290204,水害及び土砂災害での避難場所はグラウンドを含む
95,E0320900104201,永澤寺,岩手県一関市千厩町磐清水字荻生田124,1,1,,1,,,1,,,38.94466348,141.3095624,地震時の避難場所は敷地（屋外）のみ 水害及び土砂災害での避難場所は建物のほか敷地を含む
96,E0320900105201,磐清水体育館,岩手県一関市千厩町磐清水字蒲沢75-3,1,1,,1,,,1,,1,38.94163388,141.3187026,避難場所は建物のほか駐車場を含む
97,E0320900106201,仏坂集落センター,岩手県一関市千厩町磐清水字関上84-1,1,1,,1,,,1,,,38.95499327,141.3209103,避難場所は建物のほか敷地を含む
98,E0320900107201,安楽寺,岩手県一関市千厩町磐清水字松森15,1,1,,1,,,1,,,38.92999598,141.3167362,地震時の避難場所は敷地（屋外）のみ 水害及び土砂災害での避難場所は建物のほか敷地を含む
99,E0320900108201,集落センターにごりぬま会館,岩手県一関市千厩町磐清水字新谷38,1,1,,1,,,1,,,38.92975703,141.3144099,避難場所は建物のほか敷地を含む
100,E0320900109201,葉山集落センター,岩手県一関市千厩町磐清水字葉山62-22,1,1,,1,,,1,,,38.94574769,141.3370947,地震時の避難場所は敷地（屋外）のみ 水害及び土砂災害での避難場所は建物のほか敷地を含む
101,E0320900110201,川崎中学校,岩手県一関市川崎町薄衣字上段1,1,1,,1,,,1,,,38.90556561,141.2615871,避難場所は校舎、体育館及びグラウンド
102,E0320900111201,川崎農村環境改善センター,岩手県一関市川崎町薄衣字諏訪前137,1,1,,1,,,1,,1,38.90167847,141.2640999,避難場所は建物のほか敷地を含む
103,E0320900112201,川崎市民センター,岩手県一関市川崎町薄衣字諏訪前7-1,,1,,1,,,,,,38.90059521,141.2670445,水害時は避難場所使用不可 土砂災害のおそれがある場合の避難場所は建物内のみ 地震時の避難場所は建物のほか敷地を含む
104,E0320900113201,川崎小学校,岩手県一関市川崎町薄衣字泉台50,1,1,,1,,,1,,1,38.902069,141.283004,避難場所は校舎、体育館及びグラウンド
105,E0320900114201,川崎体育センター,岩手県一関市川崎町薄衣字法道地151-5,,1,,1,,,,,,38.89756919,141.2699788,水害時避難場所使用不可 土砂災害のおそれがある場合の避難場所は建物内のみ 地震時の避難場所は建物のほか敷地を含む
106,E0320900115201,ひまわりクラブ,岩手県一関市台町11-13,1,1,,1,,,1,,,38.91659887,141.1304104,避難場所は建物のほか敷地を含む
107,E0320900116201,一関文化センター,岩手県一関市大手町2-16,1,1,,1,,,1,,1,38.92818764,141.133389,水害時の避難場所は建物3階以上 土砂災害のおそれがある場合の避難場所は建物内のみ 地震時の避難場所は建物のほか敷地を含む
108,E0320900117201,台ヶ丘ふるさと交流会館,岩手県一関市大東町猿沢字金取西沢63-1,1,1,,1,,,1,,,39.01666693,141.2870417,避難場所としてのみ指定
109,E0320900118201,猿沢市民センター（大東農村環境改善センター）,岩手県一関市大東町猿沢字板倉57-1,1,1,,1,,,1,,,39.03470264,141.2957144,避難場所は建物のほか敷地を含む
110,E0320900119201,猿沢伝承交流館,岩手県一関市大東町猿沢字板倉73,1,1,,1,,,1,,,39.03493181,141.2954321,避難場所は建物のみ
111,E0320900120201,天狗田体育館,岩手県一関市大東町沖田字峯岸14,1,1,,1,,,1,,,39.04192412,141.3456214,避難場所は建物のほか敷地を含む
112,E0320900122201,大東保健センター,岩手県一関市大東町渋民字大洞地55-8,1,1,,1,,,1,,,39.02010008,141.3393778,避難場所は建物のほか敷地を含む
113,E0320900123201,羽根折沢地区集会施設,岩手県一関市大東町摺沢字下羽根折沢296-2,1,1,,1,,,1,,,38.95865176,141.3407805,避難場所は建物のほか敷地を含む
114,E0320900124201,摺沢市民センター（大東コミュニティセンター）,岩手県一関市大東町摺沢字街道下25-3,1,1,,1,,,1,,1,38.99574402,141.3220026,避難場所は建物のほか敷地を含む
115,E0320900125201,大東中学校,岩手県一関市大東町摺沢字上堺ノ沢21-1,1,1,,1,,,1,,,39.00549025,141.3268317,避難場所は体育館及びグラウンド
116,E0320900126201,大東小学校,岩手県一関市大東町摺沢字上堺ノ沢70,1,1,,1,,,1,,,39.00536822,141.3296977,避難場所は体育館及びグラウンド
117,E0320900127201,曽慶市民センター（曽慶地区センター）,岩手県一関市大東町曽慶字神陰32-1,1,1,,1,,,1,,,38.99009275,141.3773015,避難場所は建物のほか敷地を含む
118,E0320900128201,大原小学校,岩手県一関市大東町大原字七切63-1,1,1,,1,,,1,,,39.01448328,141.4053476,避難場所は体育館及びグラウンド
119,E0320900129201,大東勤労者体育センター,岩手県一関市大東町大原字川内35,1,1,,1,,,1,,1,39.01842701,141.3968367,避難場所は建物のほか敷地を含む
120,E0320900130201,大原市民センター,岩手県一関市大東町大原字川内5-1,1,1,,1,,,1,,,39.01775495,141.3980224,
121,E0320900131201,中川体育館,岩手県一関市大東町中川字大畑98,1,1,,1,,,1,,,39.06619303,141.3815813,避難場所は建物のほか旧中川小学校校庭含む
122,E0320900132201,興田市民センター（大東開発センター）,岩手県一関市大東町鳥海字細田19-2,1,1,,1,,,1,,,39.04858377,141.3676162,避難場所は建物のほか敷地を含む
123,E0320900133201,丑石体育館,岩手県一関市大東町鳥海字上野105-3,1,1,,1,,,1,,,39.08013813,141.356717,避難場所は建物のほか敷地を含む
124,E0320900134201,伊勢館公園野球場,岩手県一関市大東町鳥海字清水22,1,1,,1,,,1,,,39.04971973,141.3693867,避難場所としてのみ指定
125,E0320900135201,興田小学校,岩手県一関市大東町鳥海字鞭柳104-1,1,1,,1,,,1,,,39.04851143,141.3637523,土砂災害の危険があるため、避難場所は校舎2階部分
126,E0320900136201,滝沢小学校,岩手県一関市滝沢字寺下46,1,1,,1,,,1,,,38.90632816,141.1848708,避難場所は体育館及びグラウンド
127,E0320900137201,滝沢市民センター,岩手県一関市滝沢字寺下52-2,1,1,,1,,,1,,,38.90584016,141.180845,避難場所は建物のほか敷地を含む
128,E0320900138201,一関東中学校,岩手県一関市滝沢字寺田下81-2,1,1,,1,,,1,,1,38.91090559,141.1707876,避難場所は体育館及びグラウンド
129,E0320900139201,龍澤寺,岩手県一関市中里字沢田17,1,1,,1,,,1,,,38.95015873,141.1292562,避難場所は建物のほか敷地を含む
130,E0320900140201,願成寺,岩手県一関市釣山28,1,1,,1,,,1,,,38.92051094,141.1308022,避難場所は建物のほか敷地を含む
131,E0320900141201,一関修紅高等学校,岩手県一関市東花王町6-1,1,1,,1,,,1,,,38.93423321,141.1397424,水害時の避難場所は校舎3階以上 土砂災害のおそれがある場合の避難場所は体育館のみ 地震時の避難場所は体育館及びグラウンド
132,E0320900142201,岩ノ下ふれあい館,岩手県一関市東山町松川字岩ノ下141-3,,,,1,,,,,,38.94679182,141.2451194,水害及び土砂災害のおそれがある場合の避難場所は使用不可 地震時の避難場所は建物のみ
133,E0320900143201,松川保育園,岩手県一関市東山町松川字台12-3,1,1,,1,,,1,,,38.95376914,141.2560137,避難場所として、屋外のみを指定
134,E0320900144201,松川住宅集会所,岩手県一関市東山町松川字台148-1,1,1,,1,,,1,,,38.95203781,141.2537964,避難場所は建物のほか敷地を含む
135,E0320900145201,東山農村勤労福祉センター,岩手県一関市東山町松川字滝ノ沢129-6,1,1,,1,,,1,,,38.97935207,141.2396762,水害時の避難場所は建物2階のみ 避難場所は建物のほか敷地を含む
136,E0320900146201,株式会社鈴清食品,岩手県一関市東山町松川字地蔵平150-1,1,1,,1,,,1,,,38.9511457,141.260152,避難場所として、屋外のみを指定
137,E0320900147201,松川市民センター,岩手県一関市東山町松川字町裏ノ上8-2,,1,,1,,,,,1,38.95755759,141.2561875,水害時は避難場所使用不可 土砂災害のおそれがある場合の避難場所は建物2階のみ 地震時の避難場所は建物のほか敷地を含む
138,E0320900148201,株式会社東北鉄興社,岩手県一関市東山町松川字野平159,1,1,,1,,,1,,,38.97367776,141.2471198,避難場所として、屋外のみを指定
139,E0320900149201,久保コミュニティセンター,岩手県一関市東山町長坂字久保238-49,1,1,,1,,,1,,,38.99387315,141.2688589,避難場所は建物のほか敷地を含む
140,E0320900150201,本町自治会館,岩手県一関市東山町長坂字西本町98,1,1,,1,,,1,,,38.99698627,141.2546094,土砂災害のおそれがある場合の避難場所は建物2階のみ その他の災害での避難場所は建物のほか敷地を含む
141,E0320900151201,ゆみおり館,岩手県一関市東山町長坂字大面75-2,1,1,,1,,,1,,,38.9687208,141.2818094,避難場所は建物のほか敷地を含む
142,E0320900152201,東山小学校,岩手県一関市東山町長坂字東本町12,1,1,,1,,,1,,,39.00319428,141.2654472,避難場所は体育館及びグラウンド
143,E0320900153201,東山総合体育館,岩手県一関市東山町長坂字北山谷247,1,1,,1,,,1,,1,38.99973905,141.2484328,避難場所は建物のほか敷地を含む
144,E0320900154201,東山中学校,岩手県一関市東山町長坂字北山谷46,1,1,,1,,,1,,,38.99654556,141.2489478,避難場所は体育館及びグラウンド
145,E0320900155201,夏山・横沢集会所,岩手県一関市東山町田河津字横沢2-4,1,1,,1,,,1,,,39.03424298,141.2496216,避難場所は建物のほか敷地を含む
146,E0320900156201,束稲生活改善センター,岩手県一関市東山町田河津字丸木52-2,1,1,,1,,,1,,,39.02015869,141.2086972,避難場所は建物のほか敷地を含む
147,E0320900157201,田河津市民センター,岩手県一関市東山町田河津字石ノ森16-8,1,1,,1,,,1,,1,39.0161634686274,141.232282705752,避難場所は建物のほか敷地を含む
148,E0320900158201,東山構造改善センター,岩手県一関市東山町田河津字竹沢305-1,1,1,,1,,,1,,,39.03421453,141.2272683,避難場所は建物のほか敷地を含む
149,E0320900159201,愛花夢館,岩手県一関市東山町田河津字矢ノ森59-19,1,1,,1,,,1,,,39.00642502,141.2179836,避難場所は建物のほか敷地を含む
150,E0320900160201,一関市産業教養文化体育施設（アイドーム）,岩手県一関市東台50-46,1,1,,1,,,1,,,38.91515698,141.1600687,避難場所は建物のほか敷地を含む
151,E0320900161201,館ヶ森高原ホテル,岩手県一関市藤沢町黄海字衣井沢山87,1,1,,1,,,1,,,38.81994597,141.279142,避難場所は建物のほか駐車場を含む
152,E0320900162201,曲田地区ふれあいセンター,岩手県一関市藤沢町黄海字下曲田417-18,1,1,,1,,,1,,,38.79452315,141.2498723,避難場所は建物のほか駐車場を含む
153,E0320900163201,黄北ふれあいセンター,岩手県一関市藤沢町黄海字京堂158-4,1,1,,1,,,1,,,38.86712278,141.2909894,避難場所は建物のほか駐車場を含む
154,E0320900164201,藤沢市民センター黄海分館,岩手県一関市藤沢町黄海字町裏54-1,,1,,1,,,,,,38.84824078,141.2944687,水害時は避難場所使用不可 土砂災害のおそれがある場合の避難場所は校舎及び体育館のみ 地震時の避難場所は校舎、体育館及びグラウンド
155,E0320900165201,七日町交流センター,岩手県一関市藤沢町黄海字天沼190,,1,,1,,,,,,38.84528177,141.2655365,水害時は避難場所使用不可 土砂災害のおそれがある場合の避難場所は校舎及び体育館のみ 地震時の避難場所は校舎、体育館及びグラウンド
156,E0320900166201,黄海コミュニティグラウンド,岩手県一関市藤沢町黄海字天堤11-1,,1,,1,,,,,,38.8515782,141.2879006,水害時は避難場所使用不可 避難場所としてのみ指定
157,E0320900166202,黄海小学校,岩手県一関市藤沢町黄海字天堤11-1,,1,,1,,,,,,38.85187899,141.2899927,水害時避難場所使用不可 土砂災害のおそれがある場合の避難場所は校舎及び体育館のみ 地震時の避難場所は校舎、体育館及びグラウンド
158,E0320900167201,株式会社長島製作所藤沢工場駐車場,岩手県一関市藤沢町黄海字天堤158,1,1,,1,,,1,,,38.85473977,141.297196,避難場所としてのみ指定
159,E0320900168201,サカイ産業株式会社岩手藤沢工場駐車場,岩手県一関市藤沢町黄海字天堤200,1,1,,1,,,1,,,38.85057884,141.295325,避難場所としてのみ指定
160,E0320900169201,陶芸センター,岩手県一関市藤沢町黄海字東深萱192-6,1,1,,1,,,1,,,38.84585324,141.3206038,避難場所は建物のほか駐車場を含む
161,E0320900170201,株式会社大昌電子岩手工場駐車場,岩手県一関市藤沢町砂子田字宮ノ脇30,1,1,,1,,,1,,,38.88592342,141.3556842,避難場所としてのみ指定
162,E0320900171201,新沼コミュニティセンター,岩手県一関市藤沢町新沼字関田45-10,1,1,,1,,,1,,,38.88924596,141.342084,避難場所は建物のほか駐車場を含む
163,E0320900173201,並木ヶ丘コミュニティグラウンド,岩手県一関市藤沢町新沼字西風46-10,1,1,,1,,,1,,,38.88167942,141.3489948,避難場所としてのみ指定
164,E0320900175201,西口コミュニティセンター,岩手県一関市藤沢町西口字十文字119-2,1,1,,1,,,1,,1,38.866869,141.313034,避難場所は建物のほか敷地を含む
165,E0320900176201,ＪＡいわて平泉藤沢営農経済センター駐車場,岩手県一関市藤沢町増沢字日当77-2,1,1,,1,,,1,,,38.88930561,141.3396231,避難場所としてのみ指定
166,E0320900177201,郷土文化保存伝習館,岩手県一関市藤沢町大籠字右名沢27-6,1,1,,1,,,1,,,38.79293269,141.4048721,避難場所は建物のほか駐車場を含む
167,E0320900179201,藤沢中学校グラウンド,岩手県一関市藤沢町藤沢字狩野40-3,1,1,,1,,,1,,,38.85656997,141.3452511,避難場所としてのみ指定
168,E0320900180201,藤沢スポーツプラザ,岩手県一関市藤沢町藤沢字仁郷12,1,1,,1,,,1,,1,38.86783175,141.3509426,避難場所は建物のほか駐車場を含む
169,E0320900181202,藤沢文化センター,岩手県一関市藤沢町藤沢字仁郷12-5,1,1,,1,,,1,,1,38.86787374,141.3527173,避難場所は建物のほか駐車場を含む
170,E0320900181201,藤沢市民センター,岩手県一関市藤沢町藤沢字仁郷12-5,1,1,,1,,,1,,1,38.8682037,141.3521647,避難場所は建物のほか敷地を含む
171,E0320900182201,さわやかトイレ前駐車場,岩手県一関市藤沢町藤沢字仁郷19-5,1,1,,1,,,1,,,38.86728755,141.3515376,避難場所としてのみ指定
172,E0320900183201,藤沢運動広場,岩手県一関市藤沢町藤沢字仁郷41,1,1,,1,,,1,,,38.86657284,141.3502071,避難場所としてのみ指定
173,E0320900184201,藤沢小学校,岩手県一関市藤沢町藤沢字仁郷50-1,1,1,,1,,,1,,,38.86639511,141.3521764,避難場所は校舎、体育館及びグラウンド
174,E0320900185201,藤沢体育館,岩手県一関市藤沢町藤沢字町裏187,1,1,,1,,,1,,,38.85846695,141.3473806,避難場所は建物のほか駐車場を含む
175,E0320900186201,本郷白藤交流館,岩手県一関市藤沢町藤沢字八沢132-1,1,1,,1,,,1,,,38.84531924,141.348327,避難場所は建物のほか駐車場を含む
176,E0320900187201,旧藤沢小学校グラウンド,岩手県一関市藤沢町藤沢字柳平66,1,1,,1,,,1,,,38.8600118,141.3428922,避難場所としてのみ指定
177,E0320900188201,ニコニコドーム,岩手県一関市藤沢町徳田字大望沢37-11,1,1,,1,,,1,,,38.85755574,141.3605675,避難場所はニコニコドームのほかニコニコパーク駐車場等の敷地を含む
178,E0320900189201,コミュニティ体育館徳田ふれあいランド,岩手県一関市藤沢町徳田字馬場37-1,,,,1,,,,,,38.86632196,141.3746317,水害時、土砂災害のおそれがある場合避難場所使用不可 地震時の避難場所は建物のほかグラウンドを含む
179,E0320900190201,株式会社ＳＨＯＥＩ岩手工場駐車場,岩手県一関市藤沢町徳田字野岡27-1,1,1,,1,,,1,,,38.87321855,141.360067,避難場所としてのみ指定
180,E0320900191201,保呂羽コミュニティセンター,岩手県一関市藤沢町保呂羽字宇和田82-11,1,1,,1,,,1,,,38.84250093,141.3752874,避難場所は建物のほか敷地を含む
181,E0320900192201,保呂羽コミュニティ体育館,岩手県一関市藤沢町保呂羽字宇和田82-9,1,1,,1,,,1,,1,38.84270148,141.374472,避難場所は建物のほかグラウンドを含む
182,E0320900193201,南小学校,岩手県一関市南町3-3,1,1,,1,,,1,,,38.91585588,141.1306541,避難場所は体育館及びグラウンド
183,E0320900194201,一関工業高等学校,岩手県一関市萩荘字釜ケ渕50,1,1,,1,,,1,,,38.92762892,141.1106699,避難場所は第一・第二体育館及びグラウンド
184,E0320900195201,萩荘中学校,岩手県一関市萩荘字境ノ神240,1,1,,1,,,1,,1,38.92172166,141.0931542,避難場所は体育館及びグラウンド
185,E0320900196201,萩荘小学校,岩手県一関市萩荘字境ノ神253,1,1,,1,,,1,,,38.92246455,141.0930791,避難場所は体育館及びグラウンド
186,E0320900197201,一関工業高等専門学校,岩手県一関市萩荘字高梨南方102,1,1,,1,,,1,,,38.92464658,141.1073166,避難場所は第一・第二体育館及びグラウンド
187,E0320900198201,萩荘市民センター市野々分館,岩手県一関市萩荘字上本郷305-1,1,1,,1,,,1,,,38.9013835,141.024193,避難場所は建物のほか敷地を含む 土砂災害のおそれがある場合の避難場所は1階和室及び2階のみ
188,E0320900199201,萩荘市民センター,岩手県一関市萩荘字打ノ目124,1,1,,1,,,1,,,38.91723506,141.0916755,避難場所は建物のほか敷地を含む
189,E0320900200201,修紅短期大学,岩手県一関市萩荘字竹際49-1,1,1,,1,,,1,,,38.91356329,141.109842,避難場所は体育館及びグラウンド
190,E0320900201201,一関運動公園,岩手県一関市萩荘字箱清水4-2,1,1,,1,,,1,,1,38.91862896,141.1215043,避難場所は建物のほか屋外の施設を含む
191,E0320900202201,厳美市民センター達古袋分館,岩手県一関市萩荘字八幡153-1,1,1,,1,,,1,,,38.93624062,141.0148486,避難場所は建物のほか敷地を含む
192,E0320900203201,一関学院高等学校,岩手県一関市八幡町5-24,1,,,1,,,1,,,38.92369386,141.1331037,水害時の避難場所は校舎3階及び屋上 地震時の避難場所は体育館及びグラウンド
193,E0320900204201,一関第一高等学校,岩手県一関市磐井町9-1,1,1,,1,,,1,,,38.93539268,141.1354987,水害時の避難場所は校舎3階以上 土砂災害のおそれがある場合の避難場所は体育館のみ 地震時の避難場所は体育館及びグラウンド
194,E0320900205201,舞川小学校,岩手県一関市舞川字館ノ越20-4,1,1,,1,,,1,,1,38.9700833,141.1738688,避難場所は体育館及びグラウンド
195,E0320900206201,職業訓練センター,岩手県一関市舞川字西平8-2,1,1,,1,,,1,,,38.96296832,141.1707508,避難場所は建物のほか敷地を含む
196,E0320900207201,舞川中学校,岩手県一関市舞川字中入92-8,1,1,,1,,,1,,,38.96895781,141.195825,避難場所は体育館及びグラウンド
197,E0320900208201,舞川市民センター（一関文化伝承館）,岩手県一関市舞川字中里84-1,1,1,,1,,,1,,,38.97607667,141.2066138,避難場所は建物のほか敷地を含む
198,E0320900209201,観福寺,岩手県一関市舞川字竜ケ沢7,1,1,,1,,,1,,,38.97028261,141.167509,避難場所は建物のほか敷地を含む
199,E0320900210201,弥栄市民センター,岩手県一関市弥栄字茄子沢198-3,1,1,,1,,,1,,,38.88986891,141.2500438,避難場所は建物のほか敷地を含む
200,E0320900211201,弥栄市民センター平沢分館,岩手県一関市弥栄字膳棚42-2,1,1,,1,,,1,,,38.90731529,141.223315,避難場所は建物のほか敷地を含む
201,E0320900212201,弥栄小学校,岩手県一関市弥栄字大奈良33-4,1,1,,1,,,1,,1,38.89691506,141.2368041,避難場所は体育館及びグラウンド
202,E0352400001201,旧経済連野菜集出荷場,岩手県一戸町一戸字越田橋11-2,1,1,1,1,1,1,1,1,,40.223334983064,141.29449534729,
203,E0352400002201,一戸町コミュニティセンター,岩手県一戸町一戸字砂森117-2,1,1,1,1,1,1,1,1,,40.210289248115,141.30405509485,
204,E0352400003201,一戸町立一戸中学校,岩手県一戸町一戸字砂森12,1,1,1,1,1,1,1,1,1,40.204749824973,141.30110304847,
205,E0352400004201,一戸町立一戸小学校,岩手県一戸町一戸字砂森149-13,1,1,1,1,1,1,1,1,1,40.210856188013,141.30089257646,
206,E0352400005201,一戸町総合保健福祉センター,岩手県一戸町一戸字砂森93-2,1,1,1,1,1,1,1,1,1,40.208268087031,141.30641693856,
207,E0352400006201,下町公民館（馬淵川の洪水時）,岩手県一戸町一戸字蒔前60-1,1,1,1,1,1,1,1,1,,40.221361909457,141.29748061514,
208,E0352400007201,一戸町高齢者創作館,岩手県一戸町一戸字本町44-5,1,1,1,1,1,1,1,1,,40.217422999082,141.30160647699,
209,E0352400008201,旧宇別保育所（宇別公民館）,岩手県一戸町宇別字本村4-1,1,1,1,1,1,1,1,1,,40.053837848785,141.28816491546,
210,E0352400009201,奥中山高原センターハウス・管理センター,岩手県一戸町奥中山字西田子662-1,1,1,1,1,1,1,1,1,1,40.083379,141.191381,
211,E0352400010201,一戸町立奥中山小学校,岩手県一戸町奥中山字西田子75-4,1,1,1,1,1,1,1,1,1,40.065274948828,141.22512735648,
212,E0352400011201,月舘自治公民館,岩手県一戸町月舘字大屋敷前田116,1,1,1,1,1,1,1,1,,40.188850959658,141.24540677045,
213,E0352400012201,中田公民館（※馬淵川の洪水時）,岩手県一戸町高善寺字古舘平31-15,1,1,1,1,1,1,1,1,,40.217643878186,141.29784806638,
214,E0352400013201,一戸地区センター,岩手県一戸町高善寺字大川鉢24-9,1,1,1,1,1,1,1,1,1,40.212213580987,141.29564651381,
215,E0352400014201,根反自治公民館,岩手県一戸町根反字中瀬71,1,1,1,1,1,1,1,1,,40.191372511357,141.32236726753,
216,E0352400015201,社会福祉法人慈孝会地域交流スペース「あねたいホール」,岩手県一戸町姉帯字下村24-1,1,1,1,1,1,1,1,1,1,40.16596639973,141.33638992729,
217,E0352400016201,姉帯地区多目的集会施設,岩手県一戸町姉帯字馬場30-7,1,1,1,1,1,1,1,1,,40.16639647088,141.33050707431,
218,E0352400017201,出ル町つどいセンター,岩手県一戸町出ル町字稲荷田16,1,1,1,1,1,1,1,1,,40.177096244854,141.21467583943,
219,E0352400018201,中女鹿地区自治公民館,岩手県一戸町女鹿字中崎40-2,1,1,1,1,1,1,1,1,,40.177393009129,141.27721989118,
220,E0352400019201,小繋多目的集会施設,岩手県一戸町小繋字下平106-2,1,1,1,1,1,1,1,1,,40.130566211446,141.27553093641,
221,E0352400020201,一戸町立小鳥谷小学校,岩手県一戸町小鳥谷字仁昌寺43-2,1,1,1,1,1,1,1,1,1,40.165792718434,141.30444479101,
222,E0352400021201,小鳥谷地区センター,岩手県一戸町小鳥谷字中屋敷上12-4,1,1,1,1,1,1,1,1,1,40.168319587679,141.30526483312,
223,E0352400023201,旧一戸町立小鳥谷中学校,岩手県一戸町小鳥谷字野里5-3,1,1,1,1,1,1,1,1,1,40.174938567288,141.30698601151,
224,E0352400024201,上小友自治公民館,岩手県一戸町小友字上小友568,1,1,1,1,1,1,1,1,,40.130048510712,141.23924684437,
225,E0352400025201,小友ふれあいセンター,岩手県一戸町小友字半在家65-2,1,1,1,1,1,1,1,1,,40.176616541649,141.2526259503,
226,E0352400037201,一戸町立一戸南小学校,岩手県一戸町西法寺字関屋62-1,,1,1,1,1,1,,1,1,40.201558,141.299591,
227,E0352400026201,一戸町総合運動公園,岩手県一戸町西法寺字大平8,1,1,1,1,1,1,1,1,,40.200574818638,141.29084091679,
228,E0352400027201,奥中山高原軽井沢プラザ,岩手県一戸町中山字稲荷林64-3,1,1,1,1,1,1,1,1,,40.086353016958,141.2571393423,
229,E0352400038201,一戸町立奥中山中学校,岩手県一戸町中山字軽井沢76-2,1,1,1,1,1,1,1,1,1,40.066132,141.23455,
230,E0352400039201,摺糠自治公民館,岩手県一戸町中山字高屋敷28-106,1,1,1,1,1,1,1,1,,40.060469139991,141.25572357199,
231,E0352400029201,奥中山地区センター,岩手県一戸町中山字大塚82-2,1,1,1,1,1,1,1,1,1,40.06549403525,141.23172966753,
232,E0352400030201,一戸町立鳥海小学校,岩手県一戸町中里字中前田15,1,1,1,1,1,1,1,1,1,40.195355427114,141.26306104501,
233,E0352400031201,旧一戸町立鳥越小学校,岩手県一戸町鳥越字中野平14-1,1,1,1,1,1,1,1,1,1,40.238845422706,141.27996083101,
234,E0352400032201,旧楢山へき地保育所,岩手県一戸町楢山字下楢山87-1,1,1,1,1,1,1,1,1,,40.228820241615,141.31548545943,
235,E0352400033201,来田保養センター,岩手県一戸町楢山字茶屋場1,1,1,1,1,1,1,1,1,1,40.217083374398,141.35221333676,
236,E0352400034201,平糠保健福祉館,岩手県一戸町平糠字東56-8,1,1,1,1,1,1,1,1,,40.111310694329,141.31611075571,
237,E0352400035201,旧田中分校跡地・友愛新館,岩手県一戸町平糠字名子根108,1,1,1,1,1,1,1,1,,40.095013891223,141.28334394671,
238,E0352400036201,面岸保健福祉館,岩手県一戸町面岸字一本木10,1,1,1,1,1,1,1,1,,40.161156337337,141.37317743471,
239,E0320800001201,長松寺,岩手県遠野市綾織町みさ崎2-13,1,1,,,,,,,,39.335862,141.47673,
240,E0320800002201,砂子沢地区コミュニティ消防センター,岩手県遠野市綾織町みさ崎6-31-1,1,,,1,,1,1,,,39.34397541,141.4760246,
241,E0320800003201,横内改善センター,岩手県遠野市綾織町みさ崎9-9-3,1,1,,,,,,,,39.336144441681,141.47301579629,
242,E0320800004201,綾織小学校　体育館,岩手県遠野市綾織町下綾織13-13-5,1,,,1,,1,1,,1,39.33169588,141.4672727,
243,E0320800005201,大久保地区コミュニティ消防センター,岩手県遠野市綾織町下綾織20-55-4,1,1,,1,,1,1,,,39.330865304011,141.46249670132,
244,E0320800007201,綾織町第７区コミュニティ消防センター,岩手県遠野市綾織町下綾織31-63-3,1,1,,1,,1,1,,1,39.318988512394,141.46071877116,
245,E0320800008201,新田自治集会所,岩手県遠野市綾織町下綾織33-1-46,1,1,,,,,,,,39.314612,141.472407,
246,E0320800151201,下中宿公民館,岩手県遠野市綾織町下綾織8-38-1,,1,,1,,1,1,,,39.325692,141.472197,
247,E0320800011201,長岡地区コミュニティ消防センター,岩手県遠野市綾織町上綾織16-127,1,1,,1,,1,1,,,39.320782219026,141.44659484232,
248,E0320800012201,下滝沢コミュニティーセンター,岩手県遠野市綾織町上綾織2-30-2,1,1,,1,,1,1,,,39.33917171534,141.43886114953,
249,E0320800013201,山口中央公民館,岩手県遠野市綾織町上綾織35-14-1,1,1,,,,,,,,39.331421,141.452929,
250,E0320800014201,山口地区コミュニティ消防センター,岩手県遠野市綾織町上綾織9-71-4,1,1,,,,,,,,39.334256588313,141.44462270814,
251,E0320800015201,根岸地区コミュニティ消防センター,岩手県遠野市綾織町新里13-2-2,1,,,1,,1,1,,1,39.330860291262,141.48531571535,
252,E0320800017201,新里地区コミュニティ消防センター,岩手県遠野市綾織町新里19-67-3,1,,,1,,1,1,,,39.326674457225,141.47810093744,
253,E0320800018201,日影公民館,岩手県遠野市綾織町新里23-30-4,,1,,,,1,1,,,39.326146183251,141.49136107707,
254,E0320800149201,大日地区コミュニティ消防センター（遠野町第４区・遠野町第１５区）,岩手県遠野市遠野町41-126,,1,,1,,1,1,,1,39.325675,141.533482,
255,E0320800020201,下組町コミュニティ消防センター,岩手県遠野市下組町6-3,,1,,1,,1,1,,,39.32726239,141.5198452,
256,E0320800021201,岩根橋地区集会所,岩手県遠野市宮守町下宮守20-35-6,1,1,,,,1,1,,1,39.354990727792,141.31290303068,
257,E0320800022201,下郷地区集会所,岩手県遠野市宮守町下宮守26-204,1,1,,,,1,1,,,39.35093912,141.3485191,
258,E0320800024201,新町地区集会所,岩手県遠野市宮守町下宮守29-122,1,1,,1,,1,1,,,39.34640229,141.3561154,
259,E0320800144201,遠野市宮守健康管理センター,岩手県遠野市宮守町下宮守29-73-1,1,1,,1,,1,1,,1,39.345313,141.35694,
260,E0320800145201,遠野市宮守体育館,岩手県遠野市宮守町下宮守29-74-2,1,1,,1,,1,1,,1,39.344659,141.357745,
261,E0320800026201,鹿込地区集会所,岩手県遠野市宮守町下宮守37-2-2,1,,,,,1,1,,,39.35312056,141.3766289,
262,E0320800027201,遠野西中学校　体育館・多目的ホール,岩手県遠野市宮守町下宮守39-65,1,1,,,,1,1,,1,39.34499461,141.3711979,
263,E0320800028201,塚沢構造改善センター,岩手県遠野市宮守町下宮守7-17-4,1,,,1,,1,1,,1,39.37612569,141.3765652,
264,E0320800030201,沢目地区集会所,岩手県遠野市宮守町下鱒沢18-37-6,1,1,,1,,1,1,,,39.302500955669,141.39971465358,
265,E0320800031201,ふるさと交流体験学習施設,岩手県遠野市宮守町下鱒沢21-137-6,1,1,,1,,1,1,,1,39.303574,141.37769,
266,E0320800032201,柏木平地区集会所,岩手県遠野市宮守町下鱒沢21-148-6,1,1,,1,,1,1,,,39.30453439,141.3775482,
267,E0320800146201,遠野市鱒沢地区センター,岩手県遠野市宮守町下鱒沢34-1-1,,1,,1,,1,,,1,39.297287,141.403048,
268,E0320800035201,迷岡地区集会所,岩手県遠野市宮守町下鱒沢6-132,1,1,,1,,1,1,,1,39.32983824,141.3778057,
269,E0320800037201,上宮守地区多目的集会施設,岩手県遠野市宮守町上宮守14-89-6,1,,,1,,1,1,,1,39.36945593,141.3963893,
270,E0320800038201,上鱒沢地区集会所,岩手県遠野市宮守町上鱒沢19-105-1,,,,1,,1,1,,1,39.30965146,141.4287591,
271,E0320800039201,宮守農村婦人の家,岩手県遠野市宮守町上鱒沢8-66,,1,,1,,1,1,,1,39.3039874,141.4264679,
272,E0320800040201,宿地区集会所,岩手県遠野市宮守町達曽部14-119-1,1,,,1,,1,1,,,39.39482212,141.344637,
273,E0320800043201,達曽部地区センター,岩手県遠野市宮守町達曽部15-31-120,1,1,,1,,1,1,,,39.39152712453,141.34684769105,
274,E0320800044201,達曽部生活改善センター,岩手県遠野市宮守町達曽部26-2,1,1,,,,1,1,,,39.385573502009,141.34384121905,
275,E0320800045201,中野地区集会所,岩手県遠野市宮守町達曽部39-55-1,1,,,,,1,1,,,39.39930411039,141.36442982618,
276,E0320800046201,下中斉地区集会所,岩手県遠野市宮守町達曽部43-49-1,1,,,,,1,1,,,39.409478078424,141.37295520794,
277,E0320800047201,中斉生活改善センター,岩手県遠野市宮守町達曽部44-81-4,1,,,,,1,1,,,39.414824873565,141.3850287172,
278,E0320800048201,白石涌水地区集会所,岩手県遠野市宮守町達曽部57-1-2,1,,,,,1,1,,1,39.43350651958,141.40052193122,
279,E0320800049201,湯屋地区集会所,岩手県遠野市宮守町達曽部9-18-16,1,,,1,,1,1,,1,39.40218668,141.3381909,
280,E0320800050201,穀町コミュニティ消防センター,岩手県遠野市穀町14-12,1,1,,1,,1,1,,1,39.32887312,141.5344921,
281,E0320800051201,材木町自治会館,岩手県遠野市材木町2-7,1,1,,,,1,1,,,39.33329132,141.53248,
282,E0320800052201,小友地区センター,岩手県遠野市小友町16-105-1,1,1,,1,,1,1,,1,39.270817128601,141.4238080924,
283,E0320800055201,長野地区コミュニティ消防センター,岩手県遠野市小友町23-2-1,1,1,,1,,1,1,,1,39.23875693,141.4412968,
284,E0320800056201,小友中央コミュニティ消防センター,岩手県遠野市小友町33-5-1,1,,,1,,1,1,,,39.27159436356,141.42273091534,
285,E0320800057201,山谷地区コミュニティ消防センター,岩手県遠野市小友町34-70-8,1,1,,1,,1,1,,,39.276529031026,141.43536724422,
286,E0320800058201,鷹鳥屋地区コミュニティセンター,岩手県遠野市小友町43-201-1,1,1,,1,,1,1,,1,39.28855748,141.463437,
287,E0320800059201,鮎貝地区コミュニティ消防センター,岩手県遠野市小友町5-105-1,1,,,1,,1,1,,1,39.2757523299,141.39004163069,
288,E0320800060201,駒木地区コミュニティ消防センター,岩手県遠野市松崎町駒木6-84-5,1,1,,1,,1,1,,,39.37430617,141.5589336,
289,E0320800061201,光興寺地区コミュニティ消防センター,岩手県遠野市松崎町光興寺8-51,1,,,1,,1,1,,,39.352898132583,141.52650610675,
290,E0320800062201,松崎地区コミュニティ消防センター,岩手県遠野市松崎町松崎9-55-1,1,1,,1,,1,1,,,39.35891563,141.5459002,
291,E0320800063201,遠野中学校　体育館,岩手県遠野市松崎町白岩11-30,1,1,,1,,1,1,,1,39.33883516,141.5350135,
292,E0320800064201,新張７区自治会館,岩手県遠野市松崎町白岩13-30-2,1,1,,1,,1,1,,,39.34271401,141.5378245,
293,E0320800065201,新張地区コミュニティ消防センター,岩手県遠野市松崎町白岩16-31-2,1,1,,1,,1,1,,,39.336855632247,141.53875613491,
294,E0320800067201,八幡地区コミュニティ消防センター,岩手県遠野市松崎町白岩22-23-8,1,1,,1,,1,1,,1,39.34036249,141.5491151,
295,E0320800068201,第５区青少年会館,岩手県遠野市松崎町白岩23-17-1,1,1,,1,,1,1,,,39.34249401,141.5461942,
296,E0320800069201,松崎４区公民館,岩手県遠野市松崎町白岩31-44-1,1,1,,1,,1,1,,,39.34554322047,141.53626928252,
297,E0320800070201,上早瀬コミュニティ消防センター,岩手県遠野市松崎町白岩9-52-27,,1,,1,,1,1,,1,39.33656521,141.5321533,
298,E0320800071201,遠野市総合福祉センター,岩手県遠野市松崎町白岩字薬研淵1-3,1,1,,1,,1,1,,1,39.34347118,141.5365773,
299,E0320800073201,佐比内地区コミュニティ消防センター,岩手県遠野市上郷町佐比内22-29-1,1,1,,1,,1,1,,1,39.283234741595,141.60901585953,
300,E0320800074201,暮坪地区コミュニティ消防センター,岩手県遠野市上郷町佐比内37-143,1,1,,1,,1,1,,1,39.290260090712,141.59983642091,
301,E0320800076201,細越地区コミュニティ消防センター,岩手県遠野市上郷町細越24-41-1,1,,,1,,1,1,,,39.26548856,141.61488,
302,E0320800077201,桑畑部落公民館,岩手県遠野市上郷町細越30-10-6,1,,,,,1,1,,,39.259594856219,141.62689626323,
303,E0320800078201,中央地区コミュニティ消防センター,岩手県遠野市上郷町細越7-11-6,1,1,,1,,1,1,,,39.28318291,141.5911331,
304,E0320800079201,上郷地区センター,岩手県遠野市上郷町板沢11-5-4,1,1,,1,,1,1,,1,39.285399114137,141.58825490979,
305,E0320800081201,板沢地区コミュニティ消防センター,岩手県遠野市上郷町板沢8-19-1,1,1,,1,,1,1,,,39.292222668375,141.58502757302,
306,E0320800082201,平倉地区コミュニティ消防センター,岩手県遠野市上郷町平倉25-19-2,1,1,,1,,1,1,,1,39.276770791334,141.5752306914,
307,E0320800083201,平野原地区コミュニティ消防センター,岩手県遠野市上郷町平野原3-7-1,1,1,,1,,1,1,,1,39.26869004,141.5862178,
308,E0320800084201,来内地区コミュニティ消防センター,岩手県遠野市上郷町来内6-30,1,,,1,,1,1,,,39.277516822126,141.54973845886,
309,E0320800085201,上組町コミュニティ消防センター,岩手県遠野市上組町11-4,1,1,,1,,1,1,,1,39.33252281,141.5382529,
310,E0320800086201,第７区自治会館,岩手県遠野市新穀町5-13,1,1,,1,,1,1,,,39.332572783652,141.53019033069,
311,E0320800088201,赤羽根公民館,岩手県遠野市青笹町糠前17-53-2,1,1,,,,1,1,,,39.3256400706,141.57036419787,
312,E0320800089201,沢田地区コミュニティ消防センター,岩手県遠野市青笹町糠前25-31,1,1,,1,,1,1,,1,39.33219507445,141.58332426196,
313,E0320800090201,上糠前集落センター,岩手県遠野市青笹町糠前40-51-8,1,1,,1,,1,1,,,39.321686516187,141.60431268242,
314,E0321100001201,遠野運動公園駐車場,岩手県遠野市青笹町糠前１１地割地内,1,1,,,,,1,,,39.331162992288,141.5641903648,
315,E0320800093201,青笹地区センター,岩手県遠野市青笹町青笹13-1-8,1,1,,1,,1,1,,1,39.32160564,141.5732485,
316,E0320800094201,善応寺地区コミュニティ消防センター,岩手県遠野市青笹町青笹13-38-4,1,1,,1,,1,1,,,39.321113304786,141.57926797985,
317,E0320800095201,中下部落公民館,岩手県遠野市青笹町青笹17-100-1,1,1,,1,,1,1,,,39.322507,141.561253,
318,E0320800096201,下関地区コミュニティ消防センター,岩手県遠野市青笹町青笹17-107,1,1,,1,,1,1,,,39.31776143,141.5647275,
319,E0320800143201,中妻生活改善センター,岩手県遠野市青笹町青笹30-7-2,1,1,,1,,1,1,,,39.307180384578,141.56848792353,
320,E0320800099201,瀬内部落公民館,岩手県遠野市青笹町中沢15-56-2,1,1,,,,1,1,,,39.299519255003,141.60064499287,
321,E0320800100201,中沢地区コミュニティ消防センター,岩手県遠野市青笹町中沢9-93-2,1,1,,1,,1,1,,,39.30550228,141.5852537,
322,E0320800101201,下早瀬コミュニティ消防センター,岩手県遠野市早瀬町3-15-25,,1,,1,,1,1,,1,39.33801355,141.5239023,
323,E0320800103201,大工町自治会館,岩手県遠野市大工町4-3,1,1,,1,,1,1,,,39.33329458,141.5266898,
324,E0320800104201,第５区自治会館,岩手県遠野市中央通り1-19,,1,,,,1,1,,,39.328633758163,141.53154967117,
325,E0320800105201,仲町自治会館,岩手県遠野市中央通り4-28,1,1,,1,,1,1,,,39.33095618,141.5281323,
326,E0320800106201,似田貝地区コミュニティ消防センター,岩手県遠野市土淵町土淵12-109-1,1,1,,1,,1,1,,1,39.35519336,141.5628073,
327,E0320800107201,五日市公民館,岩手県遠野市土淵町土淵18-184,1,,,,,1,1,,,39.34960391,141.5580031,
328,E0320800109201,本宿生活改善センター,岩手県遠野市土淵町土淵4-22-8,1,1,,1,,1,1,,,39.358561,141.577102,
329,E0320800148201,伝承園食事処,岩手県遠野市土淵町土淵6-5-1,,,,1,,1,,,,39.357288,141.56953,
330,E0320800112201,大杉公民館,岩手県遠野市土淵町土淵7-46,1,1,,1,,1,1,,,39.355536008979,141.57060144935,
331,E0320800113201,栃内地区コミュニティ消防センター,岩手県遠野市土淵町栃内11-125-2,,1,,1,,1,1,,1,39.38599783,141.6096487,
332,E0320800114201,久保部落公民館,岩手県遠野市土淵町栃内13-180,1,1,,,,1,1,,,39.380146629822,141.6066095295,
333,E0320800115201,山口自治会館,岩手県遠野市土淵町栃内22-150,1,1,,1,,1,1,,,39.364696569216,141.60798533038,
334,E0320800117201,西内公民館,岩手県遠野市土淵町栃内4-24,1,,,,,1,1,,,39.402932947172,141.61073928532,
335,E0320800118201,一ノ渡公民館,岩手県遠野市土淵町栃内5-83-2,1,1,,1,,1,1,,,39.393705961843,141.61325438121,
336,E0320800119201,野崎公民館,岩手県遠野市土淵町柏崎10-24-3,1,1,,1,,1,1,,,39.36517821674,141.59330315145,
337,E0320800120201,土淵第３区公民館,岩手県遠野市土淵町柏崎6-4,1,1,,1,,1,1,,,39.355887832338,141.58771856057,
338,E0320800121201,たかむろ水光園芸能館,岩手県遠野市土淵町柏崎7-175-2,1,1,,1,,1,1,,1,39.352651,141.596119,
339,E0320800122201,飯豊地区コミュニティ消防センター,岩手県遠野市土淵町飯豊5-14-2,1,1,,1,,1,1,,1,39.33571146,141.5830519,
340,E0320800123201,遠野小学校　体育館,岩手県遠野市東舘町11-28,1,1,,1,,1,1,,1,39.32718872,141.5362277,
341,E0320800140201,安居台公民館,岩手県遠野市附馬牛町安居台1-11-1,1,1,,1,,1,1,,,39.391883954607,141.54132039516,
342,E0320800124201,花輪地区コミュニティ消防センター,岩手県遠野市附馬牛町下附馬牛10-62-3,1,,,1,,1,1,,,39.41055197,141.5238354,
343,E0320800125201,附馬牛地区センター,岩手県遠野市附馬牛町下附馬牛11-40-1,,1,,1,,1,1,,1,39.41321295,141.5300716,
344,E0320800127201,和野地区コミュニティ消防センター,岩手県遠野市附馬牛町下附馬牛19-1-2,1,,,1,,1,1,,,39.42704569,141.5290494,
345,E0320800128201,附馬牛町第２区コミュニティ消防センター,岩手県遠野市附馬牛町下附馬牛22-6-7,1,1,,1,,1,1,,,39.41406641,141.5329217,
346,E0320800129201,荒屋地区コミュニティ消防センター,岩手県遠野市附馬牛町下附馬牛4-44,1,1,,1,,1,1,,1,39.40114887,141.5299347,
347,E0320800141201,石羽根生活改善センター,岩手県遠野市附馬牛町下附馬牛7-84,1,1,,1,,1,1,,,39.407257956411,141.52091700879,
348,E0320800131201,大出地区コミュニティ消防センター,岩手県遠野市附馬牛町上附馬牛19-59-3,1,1,,1,,1,1,,1,39.47318075,141.508538,
349,E0320800132201,張山地区コミュニティ消防センター,岩手県遠野市附馬牛町上附馬牛4-15-2,,1,,1,,1,1,,1,39.39371717,141.541256,
350,E0320800147201,遠野ふるさと村ビジターセンター,岩手県遠野市附馬牛町上附馬牛5-89-1,,,,1,,1,,,,39.395803,141.540308,
351,E0320800133201,大萩地区コミュニティ消防センター,岩手県遠野市附馬牛町東禅寺11-108,1,1,,1,,1,1,,1,39.409381041028,141.49869307749,
352,E0320800142201,常福院（寺）,岩手県遠野市附馬牛町東禅寺12-16,1,1,,,,,1,,,39.40946433628,141.49766600205,
353,E0320800134201,沢の口地区コミュニティ消防センター,岩手県遠野市附馬牛町東禅寺14-85,1,,,1,,1,1,,1,39.413587,141.4954588,
354,E0320800135201,東禅寺地区コミュニティ消防センター,岩手県遠野市附馬牛町東禅寺5-70,1,1,,1,,1,1,,1,39.41336346,141.5071503,
355,E0320800136201,遠野高等学校,岩手県遠野市六日町3-17,,1,,1,,1,1,,1,39.32733235,141.5212867,
356,E0320800137201,新町自治会館,岩手県遠野市六日町5-34,,1,,1,,1,1,,,39.328590126176,141.52403192408,
357,E0320800138201,神明自治会館,岩手県遠野市六日町7-16,,1,,1,,1,1,,,39.32921736,141.519019,
358,E0320800139201,鶯崎集会所,岩手県遠野市鶯崎町4-4,1,1,,1,,1,1,,,39.32892609,141.5501799,
359,E0321500001201,奥州市立衣里小学校,岩手県奥州市衣川堰下7-2,1,,,1,,1,,,1,39.01999984,141.0951723,
360,E0321500002201,川西公民館,岩手県奥州市衣川横道下28,1,1,,,,1,,,,39.013982,141.088681,
361,E0321500003201,衣川ふるさと自然塾,岩手県奥州市衣川下大森109-3,1,1,,1,,1,,,1,39.04506518,141.0113073,
362,E0321500004201,池田団地集会所,岩手県奥州市衣川九輪堂69-1,1,1,,,,1,,,,39.00986906,141.1038945,
363,E0321500005201,奥州市衣川地区センター,岩手県奥州市衣川古戸15-10,1,1,,1,,1,,,1,39.0404867,141.0658183,
364,E0321500006201,衣川セミナーハウス,岩手県奥州市衣川古戸29-2,1,1,,1,,1,,,1,39.039428387809,141.06546961549,
365,E0321500007201,奥州市立衣川中学校,岩手県奥州市衣川古戸403-1,1,1,,1,,1,,,1,39.042226006593,141.06688179478,
366,E0321500008201,奥州市立衣川小学校,岩手県奥州市衣川古戸414-1,1,1,,1,,1,,,1,39.04144088,141.0676071,
367,E0321500009201,衣川社会体育館,岩手県奥州市衣川古戸420,1,1,,1,,1,,,1,39.03990079,141.0685801,
368,E0321500010201,衣川柔剣道場,岩手県奥州市衣川古戸422-4,1,1,,1,,1,,,1,39.03939246,141.0686338,
369,E0321500011201,衣川総合支所,岩手県奥州市衣川古戸64-4,1,1,,1,,1,,,1,39.039306385058,141.06332095857,
370,E0321500012201,奥州市北股地区センター,岩手県奥州市衣川小田212,1,,,1,,1,,,1,39.08682394,140.9871459,
371,E0321500013201,奥州市南股地区センター,岩手県奥州市衣川沼野38-9,1,1,,1,,1,,,1,39.004047002896,141.00385302327,
372,E0321500014201,川東公民館,岩手県奥州市衣川上野27,1,1,,,,1,,,,39.009500936016,141.09735491601,
373,E0321500016201,瀬原交流館,岩手県奥州市衣川瀬原9-1,1,1,,,,1,,,,39.01358696,141.1090261,
374,E0321500017201,旧国見平温泉,岩手県奥州市衣川長袋230-5,,,,1,,1,,,1,39.0794302,140.9984983,
375,E0321500019201,奥州市衣里地区センター,岩手県奥州市衣川富田44-1,1,1,,1,,1,,,1,39.021616874303,141.09081360096,
376,E0321500020201,富田集落センター,岩手県奥州市衣川富田69-3,1,,,,,1,,,,39.02063151,141.0916736,
377,E0321500021201,江刺西体育館,岩手県奥州市江刺愛宕字宿150,,1,,1,,1,,,1,39.17814568,141.1527327,
378,E0321500022201,奥州市江刺愛宕地区センター,岩手県奥州市江刺愛宕字宿98-1,,1,,1,,1,,,1,39.17860713958,141.1529784656,
379,E0321500023201,江刺愛宕地区総合運動場,岩手県奥州市江刺愛宕字新川149-6,,1,,1,,1,,,,39.17622511,141.1499308,
380,E0321500024201,奥州市立江刺愛宕小学校,岩手県奥州市江刺愛宕字西下川原8,,1,,1,,1,,,1,39.17658871,141.1508494,
381,E0321500025201,前中野公園,岩手県奥州市江刺愛宕字前中野108,,1,,1,,1,,,,39.16947398,141.164496,
382,E0321500026201,旧伊手小学校グラウンド,岩手県奥州市江刺伊手字西風102,,1,,1,,1,,,,39.17855399,141.3009063,
383,E0321500027202,奥州市伊手地区センター,岩手県奥州市江刺伊手字西風54,1,1,,1,,1,,,1,39.177895096073,141.30317155894,
384,E0321500027201,伊手山村広場,岩手県奥州市江刺伊手字西風54,,1,,1,,1,,,1,39.17731729,141.3040674,
385,E0321500028201,奥州市立稲瀬小学校,岩手県奥州市江刺稲瀬字下台12,1,1,,1,,1,,,1,39.21651767,141.156849,
386,E0321500029201,稲瀬農村公園,岩手県奥州市江刺稲瀬字十文字台249-130,,1,,1,,1,,,,39.23255133,141.1556137,
387,E0321500030201,岩手県立緑化センター,岩手県奥州市江刺稲瀬字瀬谷子195-2,1,,,,,1,,,,39.235294517919,141.14090538341,
388,E0321500031201,稲瀬体育センター,岩手県奥州市江刺稲瀬字谷地16,,1,,,,1,,,1,39.21501643,141.1532559,
389,E0321500032201,奥州市稲瀬地区センター,岩手県奥州市江刺稲瀬字谷地16-1,,1,,1,,1,,,1,39.215477384191,141.1534841648,
390,E0321500033201,栄町公園,岩手県奥州市江刺栄町109,,1,,1,,1,,,,39.18674255,141.185163,
391,E0321500034201,奥州市立岩谷堂小学校,岩手県奥州市江刺岩谷堂字一本松32,,1,,1,,1,,,1,39.19474382,141.1694019,
392,E0321500035201,歌読会館,岩手県奥州市江刺岩谷堂字歌読84,1,,,,,1,,,1,39.22899779,141.1790425,
393,E0321500036201,根岸公園,岩手県奥州市江刺岩谷堂字御所橋62,,1,,1,,1,,,,39.19834087,141.165375,
394,E0321500037201,向山公園,岩手県奥州市江刺岩谷堂字向山1-13,,1,,1,,1,,,,39.19369626,141.1881324,
395,E0321500038201,岩手県立岩谷堂高等学校,岩手県奥州市江刺岩谷堂字根岸116,1,1,,1,,1,,,1,39.20463062,141.1697529,
396,E0321500039201,奥州市立江刺第一中学校,岩手県奥州市江刺岩谷堂字小境1,,1,,1,,1,,,,39.19114776,141.1690047,
397,E0321500040201,江刺中央運動公園,岩手県奥州市江刺岩谷堂字松長根2,,1,,1,,1,,,,39.20275902,141.1750003,
398,E0321500041201,餅田会館,岩手県奥州市江刺岩谷堂字中堰143-2,,1,,,,1,,,1,39.17851351,141.1901867,
399,E0321500042201,増沢ふれあいセンター,岩手県奥州市江刺岩谷堂字中野41,1,1,,,,1,,,1,39.20550989,141.1919365,
400,E0321500043201,旧江刺東中学校グラウンド,岩手県奥州市江刺玉里字後沢76-1,,1,,1,,1,,,,39.23629002,141.2450697,
401,E0321500044201,奥州市玉里地区センター,岩手県奥州市江刺玉里字青篠199-3,,1,,1,,1,,,1,39.22809263,141.2455449,
402,E0321500045201,奥州市立江刺ひがし小学校,岩手県奥州市江刺玉里字大松沢108,,1,,1,,1,,,1,39.22904096,141.2411973,
403,E0321500046201,江刺農業者トレーニングセンター,岩手県奥州市江刺玉里字大松沢85,1,1,,,,1,,,1,39.23024766,141.2437823,
404,E0321500047201,広瀬地区総合運動場,岩手県奥州市江刺広瀬字柿ノ木418-8,,1,,1,,1,,,,39.25314148,141.210202,
405,E0321500048201,旧広瀬小学校グラウンド,岩手県奥州市江刺広瀬字柿ノ木421-3,,1,,1,,1,,,,39.25469193,141.2106759,
406,E0321500049201,奥州市広瀬地区センター,岩手県奥州市江刺広瀬字柿ノ木443-4,1,,,1,,1,,,1,39.25255679,141.2100201,
407,E0321500050202,江刺中央体育館,岩手県奥州市江刺杉ノ町9-1,,1,,,,1,,,1,39.18248333,141.1737146,
408,E0321500050201,江刺カルチュアパーク,岩手県奥州市江刺杉ノ町9-1,,1,,1,,1,,,1,39.18304062,141.1740653,
409,E0321500051201,江刺防災センター,岩手県奥州市江刺西大通り3-8,,1,,,,1,,,1,39.19195013,141.1722187,
410,E0321500052201,江刺保健センター,岩手県奥州市江刺西大通り4-11-3,,1,,,,1,,,1,39.1935528,141.1733294,
411,E0321500053201,江刺生涯学習センター,岩手県奥州市江刺大通り1-54,,1,,,,1,,,1,39.19199464,141.1736434,
412,E0321500054201,江刺体育文化会館,岩手県奥州市江刺大通り1-59,,1,,,,1,,,1,39.19205479,141.1746007,
413,E0321500056201,江刺総合支所,岩手県奥州市江刺大通り1-8,1,1,,1,,1,,,1,39.19143946,141.1736351,
414,E0321500057201,大通り公園,岩手県奥州市江刺大通り2-1,,1,,1,,1,,,,39.19034076,141.1762025,
415,E0321500058201,奥州市立田原小学校,岩手県奥州市江刺田原字駒場108,1,1,,1,,1,,,1,39.15454746,141.2111641,
416,E0321500059201,石谷会館,岩手県奥州市江刺田原字御免124,1,1,,,,1,,,1,39.16418985,141.195819,
417,E0321500060201,奥州市田原地区センター,岩手県奥州市江刺田原字深沢166-1,1,1,,1,,1,,,1,39.15345638,141.2224612,
418,E0321500061201,江刺農業者健康増進センター,岩手県奥州市江刺田原字深沢240-1,1,1,,,,1,,,1,39.15361446,141.2220106,
419,E0321500062201,旧大田代小学校グラウンド,岩手県奥州市江刺田原字大平42,,,,1,,1,,,,39.1200652,141.2539832,
420,E0321500214201,田原地区農村広場,岩手県奥州市江刺田原字沢田前48-5,,1,,1,,1,,,,39.152186480623,141.22925681747,
421,E0321500064201,旧江刺南中学校グラウンド,岩手県奥州市江刺藤里字外ノ沢875,,1,,1,,1,,,,39.1799464,141.2717298,
422,E0321500065201,藤里地区総合運動場,岩手県奥州市江刺藤里字上長沢18,,1,,1,,1,,,,39.18236549,141.2481594,
423,E0321500066201,奥州市藤里地区センター,岩手県奥州市江刺藤里字上長沢27,1,1,,1,,1,,,1,39.182796834287,141.24822813055,
424,E0321500067201,旧藤里小学校グラウンド,岩手県奥州市江刺藤里字上長沢38,,1,,1,,1,,,,39.18302991,141.2465848,
425,E0321500068201,フロンティア奥州えさし,岩手県奥州市江刺南町4-8,1,1,,,,1,,,1,39.19053332,141.1821997,
426,E0321500069201,旧木細工小学校グラウンド,岩手県奥州市江刺米里字向木細工228,,1,,1,,1,,,,39.19694089,141.3487443,
427,E0321500215201,米里地区総合運動場,岩手県奥州市江刺米里字荒谷30-4,,1,,1,,1,,,,39.23880047,141.3144434,
428,E0321500071201,旧人首小学校グラウンド,岩手県奥州市江刺米里字荒田表85-1,1,1,,1,,1,,,,39.23576798,141.311488,
429,E0321500072201,江刺ターミナルプラザ,岩手県奥州市江刺豊田町3-1-27,,1,,,,1,,,1,39.1857067,141.1806661,
430,E0321500073201,梁川地区総合運動場,岩手県奥州市江刺梁川字藤渡戸289-9,,1,,1,,1,,,,39.28603328,141.2655628,
431,E0321500074201,旧梁川小学校グラウンド,岩手県奥州市江刺梁川字日ノ神112,,1,,1,,1,,,,39.28008566,141.2645211,
432,E0321500075201,奥州市林業者等健康増進センター,岩手県奥州市江刺梁川字日ノ神86,,1,,,,1,,,1,39.281904705445,141.26505961786,
433,E0321500076201,奥州市梁川地区センター,岩手県奥州市江刺梁川字日ノ神90,1,1,,1,,1,,,1,39.282101532765,141.26458452461,
434,E0321500077201,荒神社参集殿,岩手県奥州市水沢羽田町駅前1-28,,1,,1,,1,,,1,39.14385338,141.1888629,
435,E0321500078201,奥州市羽田地区センター,岩手県奥州市水沢羽田町久保9,,1,,1,,1,,,,39.14444656293,141.18296102276,
436,E0321500079201,奥州市総合体育館,岩手県奥州市水沢羽田町字うぐいす平72,1,1,,1,,1,,,1,39.12877395,141.1956761,
437,E0321500080201,川前会館,岩手県奥州市水沢羽田町字粟ノ瀬90,,1,,1,,1,,,1,39.13979398,141.1795459,
438,E0321500081201,御山下子供会館,岩手県奥州市水沢羽田町字御山下165,,,,1,,1,,,1,39.14822876,141.1906079,
439,E0321500082201,奥州市立羽田小学校,岩手県奥州市水沢羽田町字洗田362,1,,,1,,1,,,1,39.13493688,141.190802,
440,E0321500083201,奥州市鋳物技術交流センター,岩手県奥州市水沢羽田町字明正131,,1,,1,,1,,,1,39.13886789,141.1841474,
441,E0321500084201,黒田助会館,岩手県奥州市水沢羽田町字門下77-2,,1,,1,,1,,,1,39.12227886,141.2109026,
442,E0321500085201,卸町東公園,岩手県奥州市水沢卸町4-6,,1,,1,,1,,,,39.18103263,141.1141254,
443,E0321500086201,小黒石自然体験交流館,岩手県奥州市水沢黒石町字下ノ在家5,,1,,1,,1,,,1,39.098161,141.213182,
444,E0321500087201,しもやなぎ交流館,岩手県奥州市水沢黒石町字下柳79-134,1,1,,1,,1,,,1,39.07831489,141.1973377,
445,E0321500088201,正法寺,岩手県奥州市水沢黒石町字正法寺129,,,,1,,1,,,,39.06808832,141.2249284,
446,E0321500089201,正法寺会館,岩手県奥州市水沢黒石町字正法寺62,,,,1,,1,,,1,39.06763281,141.2230422,
447,E0321500090201,旧黒石小学校グラウンド,岩手県奥州市水沢黒石町字長根2-15,1,1,,1,,1,,,,39.09102221,141.1961375,
448,E0321500091201,高清水会館,岩手県奥州市水沢黒石町字長田24-4,,1,,1,,1,,,1,39.10349487,141.2090134,
449,E0321500092201,奥州市黒石地区センター,岩手県奥州市水沢黒石町字鶴城9-2,1,,,1,,1,,,1,39.0951121,141.1941661,
450,E0321500216201,二渡会館,岩手県奥州市水沢黒石町字二渡616-2,,1,,,,1,,,1,39.07404599,141.1804051,
451,E0321500094201,白石沢子供会館,岩手県奥州市水沢黒石町字白石沢43-1,1,,,1,,1,,,1,39.070913949553,141.19118738167,
452,E0321500095201,一本木会館,岩手県奥州市水沢佐倉河字一本木25-1,,1,,,,1,,,1,39.16300175,141.1129024,
453,E0321500096201,水沢勤労者体育館,岩手県奥州市水沢佐倉河字舘下65-8,,1,,1,,1,,,1,39.16500546,141.1503184,
454,E0321500097201,栃の木会館,岩手県奥州市水沢佐倉河字玉ノ木248,,1,,,,1,,,1,39.15483821,141.0921967,
455,E0321500098201,八幡会館,岩手県奥州市水沢佐倉河字九蔵田100-1,,1,,1,,1,,,1,39.176509773068,141.13629690215,
456,E0321500099201,奥州市埋蔵文化財調査センター,岩手県奥州市水沢佐倉河字九蔵田96-1,,1,,1,,1,,,,39.17640921,141.1353327,
457,E0321500100201,慶徳公園,岩手県奥州市水沢佐倉河字慶徳29-2,,1,,1,,1,,,,39.14480007,141.1534585,
458,E0321500101201,岩手ふるさと農業協同組合拠点配送センター,岩手県奥州市水沢佐倉河字権現堂13,,1,,1,,1,,,,39.16373472,141.1034556,
459,E0321500102201,舘会館,岩手県奥州市水沢佐倉河字寺西58,1,1,,1,,1,,,1,39.16442545,141.1457818,
460,E0321500103201,佐野会館,岩手県奥州市水沢佐倉河字宿93-2,,1,,1,,1,,,1,39.17465055,141.1173553,
461,E0321500104201,奥州市立東水沢中学校,岩手県奥州市水沢佐倉河字瀬ノ上2-5,,1,,1,,1,,,1,39.14030976,141.1666998,
462,E0321500105201,奥州市佐倉河地区センター,岩手県奥州市水沢佐倉河字西沖ノ目4-1,1,1,,1,,1,,,1,39.16565699,141.1304226,
463,E0321500106201,上幅会館,岩手県奥州市水沢佐倉河字西田中24,,1,,,,1,,,1,39.16370122,141.0993382,
464,E0321500107201,奥州市文化会館,岩手県奥州市水沢佐倉河字石橋41,,1,,1,,1,,,1,39.14632691,141.1534638,
465,E0321500108201,奥州市立佐倉河小学校,岩手県奥州市水沢佐倉河字曾根7,1,1,,1,,1,,,1,39.16538405,141.1280816,
466,E0321500109201,岩手県立水沢工業高等学校,岩手県奥州市水沢佐倉河字道下100-1,1,1,,1,,1,,,1,39.15571348,141.1512501,
467,E0321500110201,北常盤交流館,岩手県奥州市水沢佐倉河字冨堂32,,1,,1,,1,,,1,39.14907417,141.159082,
468,E0321500111201,宮田会館,岩手県奥州市水沢佐倉河字面塚40-2,,1,,1,,1,,,1,39.16503373,141.1213401,
469,E0321500112201,水沢競馬場,岩手県奥州市水沢姉体町字阿久戸1-2,,1,,1,,1,,,,39.12961638,141.1704028,
470,E0321500113201,奥州市立姉体小学校,岩手県奥州市水沢姉体町字京原70,1,1,,1,,1,,,1,39.10699448,141.16615,
471,E0321500114201,下姉体会館,岩手県奥州市水沢姉体町字漆林59-3,,1,,1,,1,,,1,39.09094574,141.1684507,
472,E0321500115201,奥州市姉体地区センター,岩手県奥州市水沢姉体町字宿8-3,,1,,1,,1,,,1,39.0983612,141.1776797,
473,E0321500116201,上島会館,岩手県奥州市水沢姉体町字上島122,,1,,,,1,,,1,39.11237342,141.1755247,
474,E0321500117201,姉体南方会館,岩手県奥州市水沢姉体町字野中16-3,,1,,1,,1,,,1,39.08554854,141.1694114,
475,E0321500118201,さくら会館,岩手県奥州市水沢字桜屋敷西110-1,,1,,,,1,,,1,39.12171251,141.1247308,
476,E0321500119201,大林寺,岩手県奥州市水沢字寺小路1,,1,,,,1,,,1,39.14024839,141.1439401,
477,E0321500120201,増長寺,岩手県奥州市水沢字寺小路26,,1,,,,1,,,1,39.14142746,141.144319,
478,E0321500121201,長光寺,岩手県奥州市水沢字寺小路33,,1,,1,,1,,,1,39.14265858,141.1435835,
479,E0321500122201,石田北集会所,岩手県奥州市水沢字寺領216,,1,,1,,1,,,1,39.14581512,141.1207841,
480,E0321500123201,水沢第一高等学校,岩手県奥州市水沢字森下20-1,,1,,1,,1,,,1,39.12251472,141.112463,
481,E0321500124201,堀ノ内公園,岩手県奥州市水沢字聖天85-2,,1,,1,,1,,,1,39.14793787,141.1343585,
482,E0321500124202,奥州市水沢地区センター,岩手県奥州市水沢字聖天85-2,1,1,,1,,1,,,1,39.148072683155,141.13195149174,
483,E0321500125201,福原農村公園,岩手県奥州市水沢字西田115-5,,1,,1,,1,,,,39.13282563,141.1211485,
484,E0321500126201,岩手県立水沢商業高等学校,岩手県奥州市水沢字土器田1,,1,,1,,1,,,1,39.14365988,141.1257703,
485,E0321500127201,大安寺,岩手県奥州市水沢字東町2,,1,,1,,1,,,1,39.13919143,141.14298,
486,E0321500128201,奥州市立水沢中学校,岩手県奥州市水沢字南丑沢10-1,,1,,1,,1,,,1,39.15336467,141.1369274,
487,E0321500129201,日高神社,岩手県奥州市水沢字日高小路13,,1,,1,,1,,,,39.142945,141.1326175,
488,E0321500130201,北下巾会館,岩手県奥州市水沢字北半郷24-1,,1,,1,,1,,,1,39.1549388,141.1124581,
489,E0321500131201,奥州市立水沢小学校,岩手県奥州市水沢字堀ノ内4-2,,1,,1,,1,,,1,39.14630684,141.1334432,
490,E0321500132201,岩手県立水沢高等学校,岩手県奥州市水沢字龍ケ馬場5-1,,1,,1,,1,,,,39.12358432,141.1399079,
491,E0321500133201,秋葉公園,岩手県奥州市水沢秋葉町24-12,,1,,1,,1,,,,39.14808294,141.1434241,
492,E0321500134201,水沢武道館,岩手県奥州市水沢秋葉町24-3,,1,,,,1,,,1,39.1481266,141.1430061,
493,E0321500135201,上姉体会館,岩手県奥州市水沢上姉体2-1-20,,1,,1,,1,,,1,39.11708632,141.163748,
494,E0321500136201,北姉体会館,岩手県奥州市水沢上姉体5-15-5,,1,,1,,1,,,1,39.11978873,141.1631155,
495,E0321500137201,奥州市真城地区センター,岩手県奥州市水沢真城字柿ノ木下99,1,1,,1,,1,,,1,39.11429884,141.147896,
496,E0321500138201,折居町会館,岩手県奥州市水沢真城字宮沢5-7,,1,,,,1,,,1,39.09768497,141.1299477,
497,E0321500139201,西姉体会館,岩手県奥州市水沢真城字迎畑183,,1,,1,,1,,,1,39.11811526,141.1571806,
498,E0321500140201,高根会館,岩手県奥州市水沢真城字高根74,,1,,1,,1,,,1,39.09621201,141.1520897,
499,E0321500141201,奥州市立真城小学校,岩手県奥州市水沢真城字高田44-1,1,1,,1,,1,,,1,39.11411415,141.1455096,
500,E0321500142201,奥州市立水沢南中学校,岩手県奥州市水沢真城字大檀39-1,1,1,,1,,1,,,1,39.11863315,141.1428419,
501,E0321500143201,中平集会所,岩手県奥州市水沢真城字中平88-1,,1,,,,1,,,1,39.10674701,141.1549947,
502,E0321500144201,瀬台野交流館,岩手県奥州市水沢真城字町屋敷54-2,,1,,1,,1,,,1,39.12725064,141.1614308,
503,E0321500145201,大深沢交流館,岩手県奥州市水沢真城字東大深沢19-3,,1,,,,1,,,1,39.10783529,141.1384837,
504,E0321500146201,須江交流館,岩手県奥州市水沢真城字堂林前2-1,,1,,,,1,,,1,39.12545924,141.1483493,
505,E0321500147201,北野公園,岩手県奥州市水沢真城字北野19,,1,,1,,1,,,,39.1140141,141.1539497,
506,E0321500148201,奥州市立常盤小学校,岩手県奥州市水沢神明町1-1-5,1,1,,1,,1,,,1,39.139855808832,141.15771408197,
507,E0321500150201,奥州市常盤地区センター,岩手県奥州市水沢台町2-12,1,1,,1,,1,,,1,39.13204683,141.1554608,
508,E0321500151201,奥州市水沢保健センター,岩手県奥州市水沢大手町3-2,,1,,1,,1,,,1,39.1460906,141.1398227,
509,E0321500153201,奥州市水沢南地区センター,岩手県奥州市水沢大鐘町2-12,1,1,,1,,1,,,1,39.12905363,141.1371705,
510,E0321500154201,水沢公園,岩手県奥州市水沢中上野町1-1,,1,,1,,1,,,,39.13471683,141.1393748,
511,E0321500155201,水沢体育館,岩手県奥州市水沢中上野町1-85,,1,,,,1,,,1,39.13565721,141.1381624,
512,E0321500156201,水沢駅東駐車場,岩手県奥州市水沢東大通り1-61-2,,1,,1,,1,,,,39.138161532344,141.14721498197,
513,E0321500157201,岩手ふるさと農業協同組合水沢支店,岩手県奥州市水沢東大通り1-8-17,,1,,1,,1,,,1,39.14037086,141.1491939,
514,E0321500158201,旧東水沢中学校グラウンド,岩手県奥州市水沢東中通り1-5-52,,1,,1,,1,,,,39.1363092,141.1572987,
515,E0321500159201,奥州市総合福祉センター,岩手県奥州市水沢南町5-12,,1,,1,,1,,,1,39.13585113,141.1459891,
516,E0321500160201,奥州市立水沢南小学校,岩手県奥州市水沢福吉町3-24,,1,,1,,1,,,1,39.13168507,141.1316477,
517,E0321500161201,旧古城小学校グラウンド,岩手県奥州市前沢古城字東見寺下15,1,1,,1,,1,,,,39.07950394,141.138359,
518,E0321500162201,奥州市古城地区センター,岩手県奥州市前沢古城字東見寺下290,1,1,,1,,1,,,1,39.07927603,141.1370449,
519,E0321500163201,緑公園,岩手県奥州市前沢古城字比良36-88,1,,,1,,1,,,,39.06957939542,141.12599932955,
520,E0321500164201,イオン前沢店,岩手県奥州市前沢向田2-85,,1,,1,,1,,,,39.05243431,141.1296392,
521,E0321500165201,前沢いきいきスポーツランド,岩手県奥州市前沢字阿部舘27-1,,1,,1,,1,,,1,39.05736498,141.1416244,
522,E0321500166201,白鳥地区防災センター,岩手県奥州市前沢字鵜ノ木56-23,1,,,,,1,,,1,39.02300193,141.131374,
523,E0321500167201,奥州市立前沢小学校,岩手県奥州市前沢字河ノ畑71-1,,,,1,,1,,,1,39.06281315018,141.13358593202,
524,E0321500168201,奥州市立前沢中学校,岩手県奥州市前沢字久田31,,1,,1,,1,,,1,39.05796612,141.1387585,
525,E0321500169201,岩手県立前沢高等学校,岩手県奥州市前沢字狐石36-1,1,,,1,,1,,,1,39.06330939,141.1223944,
526,E0321500170201,前沢勤労者研修センター,岩手県奥州市前沢字五合田19-5,,1,,,,1,,,1,39.05052927,141.133538,
527,E0321500171201,旧白鳥小学校グラウンド,岩手県奥州市前沢字合ノ沢105,1,,,1,,1,,,,39.04100613,141.1118669,
528,E0321500172201,奥州市前沢地区センター白鳥分館,岩手県奥州市前沢字合ノ沢106-4,1,,,,,1,,,1,39.04029815,141.1121124,
529,E0321500173201,前沢ふれあいセンター,岩手県奥州市前沢字七日町裏104,,1,,1,,1,,,1,39.05177052,141.125399,
530,E0321500174201,奥州市前沢地区センター,岩手県奥州市前沢字七日町裏131-1,1,1,,1,,1,,,1,39.0519011,141.1261452,
531,E0321500175201,前沢総合支所,岩手県奥州市前沢字七日町裏71,1,1,,1,,1,,,1,39.0510929,141.124146,
532,E0321500176201,岩手県立前沢明峰支援学校,岩手県奥州市前沢字田畠18-1,1,1,,1,,1,,,1,39.06080699,141.1262946,
533,E0321500177201,前沢スポーツセンター,岩手県奥州市前沢字塔ケ崎7,,,,1,,1,,,1,39.0406898,141.1200694,
534,E0321500178202,奥州市前沢地区センター目呂木分館,岩手県奥州市前沢字道場3,,1,,,,1,,,1,39.04671702,141.1444568,
535,E0321500178201,目呂木勤労者体育館,岩手県奥州市前沢字道場3,,1,,,,1,,,1,39.04681701,141.1447143,
536,E0321500179201,牛の博物館,岩手県奥州市前沢字南陣場103-1,1,1,,,,1,,,1,39.02698038,141.1240296,
537,E0321500180201,旧上野原小学校グラウンド,岩手県奥州市前沢字養ケ森44-2,1,1,,1,,1,,,,39.06171617,141.1083234,
538,E0321500181201,奥州市前沢地区センター上野原分館,岩手県奥州市前沢字養ケ森45-1,1,1,,,,1,,,1,39.06024695,141.1091776,
539,E0321500182201,前沢さわやか健康センター,岩手県奥州市前沢字立石180-1,,1,,,,1,,,1,39.05561543,141.1367964,
540,E0321500183201,奥州市生母地区センター,岩手県奥州市前沢生母字羽場69-1,1,1,,1,,1,,,1,39.04527797,141.160871,
541,E0321500184201,奥州市生母地区センター赤生津分館,岩手県奥州市前沢生母字荒谷24-12,1,,,,,1,,,1,39.034420940216,141.15166880997,
542,E0321500185201,成岡田自治公民館,岩手県奥州市前沢生母字地蔵壇18-13,1,,,,,1,,,1,39.051337992402,141.19870789165,
543,E0321500186201,天王自治公民館,岩手県奥州市前沢生母字天王29,1,,,,,1,,,1,39.06699837,141.1868195,
544,E0321500187201,旧赤生津小学校グラウンド,岩手県奥州市前沢生母字田谷49-2,,1,,1,,1,,,,39.03386502,141.1494462,
545,E0321500188201,旧母体小学校グラウンド,岩手県奥州市前沢生母字北羽毛33,1,1,,1,,1,,,,39.0569105,141.1781103,
546,E0321500189201,奥州市白山地区センター,岩手県奥州市前沢白山字古宿37-3,,1,,1,,1,,,1,39.07070423,141.1621633,
547,E0321500190201,旧白山小学校グラウンド,岩手県奥州市前沢白山字古宿40,,1,,1,,1,,,,39.07061459,141.1617184,
548,E0321500191201,奥州市胆沢愛宕地区センター,岩手県奥州市胆沢若柳字愛宕155,1,1,,1,,1,,,1,39.126366753426,140.98611114395,
549,E0321500192201,旧胆沢愛宕小学校グラウンド,岩手県奥州市胆沢若柳字愛宕350,,1,,1,,1,,,,39.12671481,140.9875432,
550,E0321500193201,供養塚体育館,岩手県奥州市胆沢若柳字相馬檀1,1,1,,1,,1,,,,39.13142557,141.0608639,
551,E0321500194201,奥州市若柳地区センター,岩手県奥州市胆沢若柳字相馬檀144,1,1,,1,,1,,,1,39.13159522,141.0630355,
552,E0321500195201,焼石クアパークひめかゆ・やけいし館,岩手県奥州市胆沢若柳字天沢52-7,1,1,,,,1,,,1,39.11548616,140.9442386,
553,E0321500196201,旧若柳中学校グラウンド,岩手県奥州市胆沢若柳字土橋30,1,1,,1,,1,,,,39.1285297,141.0298615,
554,E0321500197201,奥州湖交流館,岩手県奥州市胆沢若柳字馬留81-1,1,1,,,,1,,,1,39.11968798,140.9348269,
555,E0321500198201,奥州市立若柳小学校,岩手県奥州市胆沢若柳字箸塚181,1,1,,1,,1,,,1,39.12985255,141.0580581,
556,E0321500199201,旧奥州市勤労青少年ホーム胆沢サテライト,岩手県奥州市胆沢小山字舘130,1,1,,1,,1,,,,39.10127181,141.0801953,
557,E0321500200201,岩手県立水沢農業高等学校,岩手県奥州市胆沢小山字笹森1,1,1,,1,,1,,,1,39.11358388,141.1156835,
558,E0321500201201,奥州市立胆沢第一小学校,岩手県奥州市胆沢小山字道場30,1,1,,1,,1,,,1,39.09709724,141.0795399,
559,E0321500202201,奥州市小山地区センター,岩手県奥州市胆沢小山字道場40-1,1,1,,1,,1,,,1,39.0970529,141.0821765,
560,E0321500203201,旧小山中学校グラウンド,岩手県奥州市胆沢小山字道場66,1,1,,1,,1,,,,39.09863746,141.0816067,
561,E0321500204201,胆沢文化創造センター,岩手県奥州市胆沢南都田字加賀谷地1-1,1,1,,1,,1,,,1,39.11938885,141.0695511,
562,E0321500205201,胆沢総合支所,岩手県奥州市胆沢南都田字加賀谷地270,1,1,,1,,1,,,1,39.11705853,141.069879,
563,E0321500206201,胆沢総合体育館,岩手県奥州市胆沢南都田字小十文字160,1,1,,1,,1,,,1,39.12259396,141.0683579,
564,E0321500207201,胆沢総合福祉センター,岩手県奥州市胆沢南都田字石行30-1,1,1,,1,,1,,,,39.11929291,141.067688,
565,E0321500208201,健康増進プラザ悠悠館,岩手県奥州市胆沢南都田字大持50,1,1,,1,,1,,,,39.12840734,141.0684937,
566,E0321500209201,奥州市立胆沢中学校,岩手県奥州市胆沢南都田字蛸の手6-1,1,1,,1,,1,,,1,39.114996173322,141.06985481974,
567,E0321500210201,奥州市立南都田小学校,岩手県奥州市胆沢南都田字塚田126,1,1,,1,,1,,,1,39.13978422,141.0880483,
568,E0321500211201,奥州市南都田地区センター,岩手県奥州市胆沢南都田字塚田126-8,1,1,,1,,1,,,1,39.139072943,141.0868047629,
569,E0320500002201,湯口振興センター,岩手県花巻市円万寺字堰田53-1,1,1,,1,,1,1,,1,39.39319945,141.0478988,
570,E0320500005201,旧笹間第二小学校,岩手県花巻市横志田6-142-8,1,,,,,,1,,1,39.35483034,140.9887668,
571,E0320500008201,桜台小学校,岩手県花巻市下幅292,1,,,,,,1,,1,39.39951693,141.1103677,
572,E0320500009201,生涯学園都市会館（まなび学園）,岩手県花巻市花城町1-47,1,1,,1,,1,1,,1,39.39119746,141.115743,
573,E0320500010201,花巻小学校,岩手県花巻市花城町5-13,1,1,,,,,1,,1,39.39090477,141.1182158,
574,E0320500014201,矢沢振興センター,岩手県花巻市高木19-24-14,1,1,,1,,1,1,,1,39.3848213,141.1416431,
575,E0320500017201,花北振興センター,岩手県花巻市四日町1-1-27,,1,,1,,1,,,1,39.39665409,141.1137514,
576,E0320500020201,文化会館,岩手県花巻市若葉町3-16-22,1,1,,1,,1,1,,1,39.3853376,141.1014757,
577,E0320500021201,松園振興センター（技術振興会館）,岩手県花巻市松園町4-3,1,1,,1,,1,1,,1,39.40989734,141.0955107,
578,E0320500025201,宮野目振興センター,岩手県花巻市西宮野目6-172,1,1,,1,,1,1,,1,39.42608805,141.1287988,
579,E0320500085201,盛岡南ゴルフ倶楽部,岩手県花巻市石鳥谷町戸塚2-13-1,1,,,,,,1,,,39.474614,141.189785,
580,E0320500029201,石鳥谷小学校,岩手県花巻市石鳥谷町好地7-34-1,1,,,,,,1,,1,39.49131562,141.1435791,
581,E0320500030201,好地振興センター,岩手県花巻市石鳥谷町好地8-78-3,,1,,1,,1,,,1,39.495594637227,141.15027448532,
582,E0320500032201,新堀振興センター,岩手県花巻市石鳥谷町新堀40-27-2,,1,,1,,1,,,1,39.48685859,141.1722289,
583,E0320500034201,石鳥谷東部土地改良区,岩手県花巻市石鳥谷町新堀56-80-1,1,,,,,,1,,,39.46497,141.16815,
584,E0320500086201,戸塚森森林公園駐車場,岩手県花巻市石鳥谷町新堀57-44-7,1,,,,,,1,,,39.473074,141.177733,
585,E0320500036201,八日市振興センター（八日市いきいき交流館）,岩手県花巻市石鳥谷町大興寺8-157-4,1,1,,1,,1,1,,1,39.47775435,141.118596,
586,E0320500037201,大瀬川振興センター,岩手県花巻市石鳥谷町大瀬川10-45-2,1,1,,1,,1,1,,1,39.50001781,141.1135384,
587,E0320500038201,石鳥谷生涯学習会館,岩手県花巻市石鳥谷町中寺林7-1-1,1,,,,,,1,,1,39.48246157,141.1434429,
588,E0320500084201,石鳥谷野球場駐車場,岩手県花巻市石鳥谷町猪鼻2-88-5,1,,,,,,1,,,39.448828,141.180681,
589,E0320500083201,花巻農業高校愛農農場,岩手県花巻市石鳥谷町猪鼻3-58-1,1,,,,,,1,,,39.448315,141.1846,
590,E0320500039201,八重畑振興センター（八重畑定住促進センター）,岩手県花巻市石鳥谷町猪鼻7-30-1,1,1,,1,,1,1,,1,39.44913295469,141.17328642209,
591,E0320500042201,八幡小学校,岩手県花巻市石鳥谷町八幡1-125-1,1,,,,,,1,,1,39.469034463879,141.14307616423,
592,E0320500043201,八幡振興センター,岩手県花巻市石鳥谷町八幡23-147,,1,,1,,1,,,1,39.46761015,141.1444388,
593,E0320500045201,太田振興センター,岩手県花巻市太田32-163-3,1,1,,1,,1,1,,1,39.37301988,141.052471,
594,E0320500048201,外川目振興センター,岩手県花巻市大迫町外川目27-107-5,1,,,1,,1,1,,1,39.45375847,141.2988855,
595,E0320500049201,下中居自治公民館,岩手県花巻市大迫町外川目29-61-3,,1,,,,,,,,39.44870332,141.3011689,
596,E0320500050201,亀ケ森振興センター（旧亀ケ森小学校）,岩手県花巻市大迫町亀ケ森7-12,1,1,,1,,1,1,,1,39.477993,141.243703,
597,E0320500055201,大迫振興センター（大迫交流活性化センター）,岩手県花巻市大迫町大迫3-161,1,1,,1,,1,1,,1,39.46644531,141.28533,
598,E0320500059202,大迫労働安全衛生推進施設,岩手県花巻市大迫町内川目36-85,1,1,,,,1,1,,1,39.499024,141.324927,
599,E0320500059201,内川目振興センター（内川目地区農村環境改善センター）,岩手県花巻市大迫町内川目36-85,,,,1,,,,,1,39.49912764,141.3245382,
600,E0320500061201,笹間第一小学校,岩手県花巻市中笹間15-1,1,,,,,,1,,1,39.34671585,141.0481015,
601,E0320500065202,土沢振興センター（東和コミュニティセンター）,岩手県花巻市東和町安俵6-53,1,1,,1,,1,1,,1,39.386307,141.226231,
602,E0320500066201,谷内振興センター,岩手県花巻市東和町舘迫5-22,1,1,,1,,1,1,,1,39.36059881,141.2573871,
603,E0320500067201,浮田振興センター（浮田集会所）,岩手県花巻市東和町上浮田2-140,1,1,,1,,1,1,,1,39.324522444421,141.21984226204,
604,E0320500087201,軽井沢公民館,岩手県花巻市東和町前田1-257,1,1,,1,,1,1,,,39.417828,141.213617,
605,E0320500068201,田瀬振興センター（旧田瀬中学校）,岩手県花巻市東和町田瀬14-137,1,1,,1,,1,1,,1,39.31515421,141.3129096,
606,E0320500070201,成島振興センター（旧成島小学校）,岩手県花巻市東和町北成島5-78-1,1,1,,1,,1,1,,1,39.36562129,141.2118016,
607,E0320500074201,湯本振興センター,岩手県花巻市湯本4-31-8,1,1,,1,,1,1,,1,39.44503849,141.087127,
608,E0320500079201,花南振興センター,岩手県花巻市南城57,1,1,,1,,1,1,,1,39.37041267,141.1192786,
609,E0320500080201,笹間振興センター,岩手県花巻市北笹間13-74-1,1,1,,1,,1,1,,1,39.35760619,141.052029,
610,E0330200005201,鷹の巣公民館,岩手県葛巻町葛巻1-82-3,1,,,1,,1,1,,,40.101192598957,141.45184902239,
611,E0330200002201,新町自治会館,岩手県葛巻町葛巻12-49,,1,,1,,1,1,,,40.039799959446,141.44090636986,
612,E0330200003201,葛巻町コミュニティ防災センター,岩手県葛巻町葛巻15-34-3,1,,,1,,1,1,,,40.041642611129,141.43564255028,
613,E0330200006201,田子ふれあいセンター,岩手県葛巻町葛巻18-26,,1,,1,,1,1,,,40.044369,141.431769,
614,E0330200008201,田代コミュニティセンター,岩手県葛巻町葛巻21-95-6,,,,1,,1,1,,,40.045608740206,141.41776489618,
615,E0330200009201,小屋瀬農村センター,岩手県葛巻町葛巻28-20,,1,,1,,1,1,,,39.98172729241,141.40994111385,
616,E0330200012201,元木生活改善センター,岩手県葛巻町葛巻38-139,1,1,,1,,1,1,,,39.981099,141.375291,
617,E0330200013201,土谷川生活改善センター,岩手県葛巻町葛巻39-231-3,1,1,,1,,1,1,,,39.987674467249,141.32644295153,
618,E0330200015201,吉ヶ沢地区コミュニティセンター,岩手県葛巻町葛巻43-34-1,1,1,,1,,1,1,,,40.039565570574,141.30500229827,
619,E0330200016201,平船集会所,岩手県葛巻町葛巻49-26,1,1,,1,,1,1,,,40.055784654504,141.40856760235,
620,E0330200018201,夢見る里ふれあい交流館,岩手県葛巻町葛巻52-61-3,,1,,1,,1,1,,,40.065680522734,141.40194696265,
621,E0330200019201,小田林業研修センター,岩手県葛巻町葛巻54-333,,1,,1,,1,1,,,40.078410008847,141.41483864907,
622,E0330200022201,茶屋場自治会館,岩手県葛巻町葛巻6-142-1,1,1,,1,,1,1,,,40.037528617909,141.45679172551,
623,E0330200021201,星野生活改善センター,岩手県葛巻町葛巻60-7-1,1,1,,1,,1,1,,,40.083113786608,141.4405556691,
624,E0330200024201,象鼻会館,岩手県葛巻町葛巻8-39-3,,,,1,,1,1,,,40.037986315737,141.44675383415,
625,E0330200028201,寺田公民館,岩手県葛巻町江刈12-73-1,1,1,,1,,1,1,,,40.013897142259,141.47346628506,
626,E0330200029201,江刈農村センター,岩手県葛巻町江刈14-238-2,,,,1,,1,1,,,40.000999197431,141.48670566876,
627,E0330200031201,泉田自治会館,岩手県葛巻町江刈18-36-15,1,,,1,,1,1,,,39.991106885262,141.49199544891,
628,E0330200032201,立の神会館,岩手県葛巻町江刈19-38-7,1,1,,1,,1,1,,,39.988673840397,141.49635487127,
629,E0330200036201,水車の里交流館,岩手県葛巻町江刈2-99,,1,,1,,1,1,,,40.05908399327,141.49308904429,
630,E0330200033201,五日市生活改善センター,岩手県葛巻町江刈25-49-1,,1,,1,,1,1,,,39.97595337759,141.50426247064,
631,E0330200035201,山岸自治会館,岩手県葛巻町江刈28-17-4,1,1,,1,,1,1,,,39.965856952475,141.50951925548,
632,E0330200037201,車門ふるさと会館,岩手県葛巻町江刈31-104-6,1,1,,1,,1,1,,,39.953788561514,141.51583873488,
633,E0330200038201,遠矢場林業研修センター,岩手県葛巻町江刈33-60-1,1,,,1,,1,1,,,39.939963322014,141.52772604239,
634,E0330200039201,江刈馬渕自治会館,岩手県葛巻町江刈34-125-7,1,1,,1,,1,1,,,39.941986012897,141.55384838209,
635,E0330200040201,馬淵農村婦人の家,岩手県葛巻町江刈37-65-2,1,,,1,,1,1,,,39.961244752883,141.56569539321,
636,E0330200041201,西里公民館,岩手県葛巻町江刈41-27-7,1,1,,1,,1,1,,,39.945926902695,141.51956139815,
637,E0330200042201,上外川林業研修センター,岩手県葛巻町江刈42-17-3,1,,,1,,1,1,,,39.937806183495,141.44855731039,
638,E0330200043201,四日市コミュニティセンター,岩手県葛巻町江刈7-4-4,1,1,,1,,1,1,,,40.031324528887,141.46048036226,
639,E0330200044201,橋場生活改善センター,岩手県葛巻町江刈8-76-4,1,1,,1,,1,1,,,40.022498045528,141.45987387505,
640,E0330200046201,冬部コミュニティセンター,岩手県葛巻町田部字境の沢44,1,1,,1,,1,1,,1,40.122314,141.379145,
641,E0330200048201,田野集会所,岩手県葛巻町田部字上田野37,,1,,1,,1,1,,,40.085464746362,141.4088899328,
642,E0330200049201,名前端公民館,岩手県葛巻町田部字上名前端7-13,1,1,,1,,1,1,,,40.112555861982,141.38410333364,
643,E0330200051201,田野構造改善センター,岩手県葛巻町田部字触沢3-10,1,1,,1,,1,1,,,40.092326511957,141.39605210277,
644,E0330200052201,やまぶきホール,岩手県葛巻町田部字正路1,1,,,1,,1,1,,,40.100405,141.390751,
645,E0330200053201,前里集会所,岩手県葛巻町田部字前里140-2,1,1,,1,,1,1,,,40.105416339487,141.39141884455,
646,E0330200054201,田屋集落センター,岩手県葛巻町田部字田屋78-2,,1,,1,,1,1,,,40.130240916251,141.36616945424,
647,E0330200055201,毛頭沢林業研修センター,岩手県葛巻町田部字毛頭沢73-3,1,,,1,,1,1,,,40.081936159836,141.36055573792,
648,E0321100003201,森団地高台,岩手県釜石市鵜住居町12-38,,,,,1,,,,,39.33173721,141.8806616,
649,E0321100005201,鵜住居小学校・釜石東中学校第２体育館,岩手県釜石市鵜住居町13-20-3,1,1,,,,,1,,1,39.326584491341,141.88450166832,
650,E0321100005202,鵜住居小学校・釜石東中学校第１体育館,岩手県釜石市鵜住居町13-20-3,1,1,,,,,1,,1,39.326678978455,141.88450172202,
651,E0321100005203,鵜住居小学校・釜石東中学校校庭,岩手県釜石市鵜住居町13-20-3,,,,1,1,1,,,1,39.325592807911,141.88495904441,
652,E0321100007201,常楽寺墓地裏高台,岩手県釜石市鵜住居町13-88,,,,,1,,,,,39.33050231,141.8808489,
653,E0321100009201,五葉寮駐車場,岩手県釜石市鵜住居町2-20-1,,,,,1,,,,1,39.344422,141.847403,
654,E0321100008201,宝来館裏山,岩手県釜石市鵜住居町20-91-1,,,,,1,,,,,39.328527283514,141.90022021764,
655,E0321100012201,かまいしワーク・ステーション広場,岩手県釜石市鵜住居町25-13-43,,,,,1,,,,,39.319523910439,141.88494584117,
656,E0321100135201,本行寺奥三陸道,岩手県釜石市鵜住居町28,,,,,1,,,,,39.322188,141.880427,
657,E0321100135202,長内集会所付近三陸道管理施設敷地（避難階段使用）,岩手県釜石市鵜住居町28,,,,,1,,,,,39.322793313508,141.88014082322,
658,E0321100015201,日向公園,岩手県釜石市鵜住居町28-22-4,,,,,,1,,,,39.32352651,141.8808722,
659,E0321100017201,神の沢南側の沢,岩手県釜石市鵜住居町7-29,,,,,1,,,,,39.33199123,141.8757812,
660,E0321100002201,麓山神社境内,岩手県釜石市鵜住居町１０地内,,,,,1,,,,,39.3339793,141.879636,
661,E0321100011201,東の沢奥根浜墓地,岩手県釜石市鵜住居町２２地内,,,,,1,,,,,39.32136343,141.9024481,
662,E0321100016201,長内集会所奥の沢,岩手県釜石市鵜住居町２９地内,,,,,1,,,,,39.32236625,141.8772669,
663,E0321100130201,日ノ神バス停北側林道,岩手県釜石市鵜住居町５地割地内,,,,,1,,,,,39.337277,141.864622,
664,E0321100018201,市民交流センター広場,岩手県釜石市嬉石町1-7-8,,,,1,1,1,,,1,39.26302352,141.8875066,
665,E0321100019201,白山小学校校庭,岩手県釜石市嬉石町3-6-1,,,,1,1,1,,,1,39.26288287,141.8910188,
666,E0321100020201,魚河岸テラス駐車場,岩手県釜石市魚河岸3-3,,,,,,1,,,,39.274197458279,141.88950024502,
667,E0321100022201,旧橋野小学校校庭,岩手県釜石市橋野町34-35,,,,1,,1,,,,39.35900834,141.7704219,
668,E0321100023201,能舟木集会所,岩手県釜石市橋野町6-16-2,1,1,,,,,1,,,39.35742877,141.7302763,
669,E0321100024201,駒木沢,岩手県釜石市駒木町1-38,,,,,1,,,,,39.27726676,141.8708917,
670,E0321100025201,駒木不動沢,岩手県釜石市駒木町5-23,,,,,1,,,,,39.27711599,141.868173,
671,E0321100026201,栗橋地区基幹集落センター,岩手県釜石市栗林町13-4-1,1,1,,,,,1,,,39.35480337,141.8277036,
672,E0321100027203,栗林小学校校舎（２階）,岩手県釜石市栗林町16-46,1,1,,,,,1,,1,39.351048,141.827738,
673,E0321100027202,栗林小学校校庭,岩手県釜石市栗林町16-46,,,,1,,1,,,1,39.35091753,141.8276521,
674,E0321100028201,釜石市球技場,岩手県釜石市甲子町10-159-4,,,,1,,1,,,,39.25399917,141.8083687,
675,E0321100029201,釜石高校校庭,岩手県釜石市甲子町10-614-1,,,,1,,1,,,,39.25378147,141.8064109,
676,E0321100031202,旧大松小学校校庭,岩手県釜石市甲子町3-225,,,,1,,1,,,1,39.25130983,141.7465977,
677,E0321100031201,旧大松小学校体育館,岩手県釜石市甲子町3-225,1,1,,,,,1,,1,39.250358284828,141.74598916509,
678,E0321100034201,大洞集会所,岩手県釜石市甲子町8-345-2,1,1,,,,,1,,,39.24132133,141.7819844,
679,E0321100035201,甲子中学校校庭,岩手県釜石市甲子町9-156,,,,1,,1,,,1,39.25374512,141.7975196,
680,E0321100131201,甲子小学校校庭,岩手県釜石市甲子町9-87,,,,1,,1,,,,39.25590901,141.797054,
681,E0321100036203,甲子小学校体育館,岩手県釜石市甲子町9-87-3,1,1,,,,,1,,1,39.25617901,141.7976977,
682,E0321100036202,甲子小学校校舎,岩手県釜石市甲子町9-87-3,1,1,,,,,1,,1,39.255711546964,141.79760114583,
683,E0321100037201,小佐野コミュニティ会館（３階）,岩手県釜石市小佐野町3-4-25,1,1,,,,,1,,1,39.26369253,141.8394071,
684,E0321100038202,小佐野小学校体育館,岩手県釜石市小佐野町3-5-37,1,1,,,,,1,,1,39.262977359875,141.8394595054,
685,E0321100038203,小佐野小学校校庭,岩手県釜石市小佐野町3-5-37,,,,1,,1,,,1,39.2632693,141.8406707,
686,E0321100038201,小佐野小学校校舎（３階以上）,岩手県釜石市小佐野町3-5-37,1,1,,,,,1,,1,39.262777996536,141.83990475211,
687,E0321100041201,松原神社境内,岩手県釜石市松原町1-3,,,,,1,,,,,39.26632474,141.8811939,
688,E0321100042202,松原公園奥高台,岩手県釜石市松原町2-46-1,,,,,1,,,,,39.26428456,141.8814894,
689,E0321100042201,松原公園,岩手県釜石市松原町2-46-1,,,,,,1,,,,39.26428456,141.8814894,
690,E0321100044202,双葉小学校校庭,岩手県釜石市新町1-58,,,,1,1,1,,,1,39.26610181,141.847608,
691,E0321100044203,双葉小学校校舎（２階以上）,岩手県釜石市新町1-58,1,1,,,,,1,,1,39.26552,141.847554,
692,E0321100045201,滝の沢高台,岩手県釜石市新浜町1-5-20,,,,,1,,,,,39.275763,141.9028171,
693,E0321100046201,釜石第二魚市場構内,岩手県釜石市新浜町2-1,,,,,,1,,,,39.2721656,141.9048827,
694,E0321100047201,岬林道,岩手県釜石市新浜町2-2-36,,,,,1,,,,,39.27522383,141.9067574,
695,E0321100048201,尾崎アスレチック公園,岩手県釜石市大字釜石１地内,,,,,1,,,,,39.27635714,141.8925936,
696,E0321100049201,浜町避難道路,岩手県釜石市大字釜石２地内,,,,,1,,,,,39.27556152,141.888547,
697,E0321100053202,平田小学校校庭,岩手県釜石市大字平田4-2,,,,,,1,,,,39.24554497,141.8869657,
698,E0321100053201,平田小学校体育館,岩手県釜石市大字平田4-2,1,1,,,,,1,,,39.24579838999,141.88754503182,
699,E0321100054201,君が洞高台,岩手県釜石市大字平田4-51,,,,,1,,,,,39.24249102,141.8838181,
700,E0321100055201,平田公園クラブハウス,岩手県釜石市大字平田5-92-8,1,1,,,,,1,,,39.23376199,141.8866751,
701,E0321100057201,県営平田アパート駐車場,岩手県釜石市大字平田6-1-9,,,,,1,,,,,39.239051,141.889902,
702,E0321100059201,尾崎白浜集会所前広場,岩手県釜石市大字平田7-90-1,,,,,1,,,,,39.234516362501,141.92048181488,
703,E0321100060201,尾崎神社本宮境内,岩手県釜石市大字平田8-17-4,,,,,1,,,,,39.236685282267,141.92223061515,
704,E0321100136201,佐須神社境内,岩手県釜石市大字平田9,,,,,1,,,,,39.22120714,141.9232943,
705,E0321100136202,佐須トンネル付近,岩手県釜石市大字平田9,,,,,1,,,,,39.22828423,141.921052,
706,E0321100056201,下平田国道４５号歩道（避難階段使用）,岩手県釜石市大字平田５地内,,,,,1,,,,,39.241593158243,141.88753035318,
707,E0321100058201,館山神社境内,岩手県釜石市大字平田６地内,,,,,1,,,,,39.24490617,141.8925734,
708,E0321100063201,国道４５号もしもしピット,岩手県釜石市大字平田第３地割内,,,,,1,,,,,39.251534,141.888433,
709,E0321100064201,平田公園野球場前広場,岩手県釜石市大字平田第５地割内,,,,,1,,,,,39.233531932359,141.88595383604,
710,E0321100065201,大只越市営住宅駐車場,岩手県釜石市大只越町1-12-3,,,,,1,,,,,39.278397812885,141.8792879505,
711,E0321100066201,仙寿院境内,岩手県釜石市大只越町2-9-1,,,,1,1,1,,,,39.27697342,141.8833625,
712,E0321100067201,薬師公園,岩手県釜石市大町3-1,,,,,1,,,,,39.2744076,141.8790823,
713,E0321100068201,大町復興住宅１号棟（６階集会室）,岩手県釜石市大町3-9-9,1,1,,,,,1,,,39.275463224478,141.8816642249,
714,E0321100069201,釜石小学校校舎（４階）,岩手県釜石市大渡町3-14-8,1,1,,,,,1,,1,39.274448746585,141.87680686518,
715,E0321100069202,釜石小学校校庭,岩手県釜石市大渡町3-14-8,,,,1,1,1,,,1,39.27420996,141.876772,
716,E0321100070201,大平集会所,岩手県釜石市大平町2-8-15,1,1,,,,,1,,,39.25946869,141.8927187,
717,E0321100071201,望洋ケ丘集会所,岩手県釜石市大平町3-1-15,1,1,,,,,1,,,39.26178648,141.8937375,
718,E0321100072201,釜石大観音駐車場,岩手県釜石市大平町3-125-218,,,,,1,,,,,39.257233303704,141.89752457235,
719,E0321100073201,釜石商工高校校庭,岩手県釜石市大平町3-2-1,,,,1,1,1,,,,39.25833407,141.8969406,
720,E0321100074202,大平中学校校庭,岩手県釜石市大平町3-6-1,,,,1,1,1,,,1,39.25975398,141.896658,
721,E0321100074201,大平中学校体育館,岩手県釜石市大平町3-6-1,1,1,,,,,1,,1,39.26044347,141.8965078,
722,E0321100075202,釜石中学校校庭,岩手県釜石市中妻町1-6-8,,,,,,1,,,,39.27285056,141.8618421,
723,E0321100075201,釜石中学校校舎（３階以上）,岩手県釜石市中妻町1-6-8,1,1,,,,,1,,,39.27278783,141.86254541,
724,E0321100077202,宝樹寺墓地高台,岩手県釜石市天神町4-8,,,,,1,,,,,39.27643999,141.8856114,
725,E0321100138201,大曽根国道４５号歩道,岩手県釜石市唐丹町桜峠96-6,,,,,1,,,,,39.211822447727,141.87469362211,
726,E0321100078201,花露辺集会所前広場,岩手県釜石市唐丹町字花露辺73-4,,,,,1,,,,,39.21356841,141.8982342,
727,E0321100079201,大石地域交流センター広場,岩手県釜石市唐丹町字向54,,,,,1,,,,,39.17848293,141.8913083,
728,E0321100080201,荒川集会所前広場,岩手県釜石市唐丹町字荒川146-2,,,,,1,,,,,39.19322839,141.841657,
729,E0321100081202,熊野神社境内,岩手県釜石市唐丹町字荒川87-3,,,,,1,,,,,39.19318213,141.8606955,
730,E0321100081201,荒川消防屯所前広場,岩手県釜石市唐丹町字荒川87-3,,,,,1,,,,,39.19324449,141.8602341,
731,E0321100084201,山谷集会所,岩手県釜石市唐丹町字山谷109-2,1,1,,,,,1,,,39.20835201,141.8237411,
732,E0321100085203,唐丹小学校・唐丹中学校棟５駐車場,岩手県釜石市唐丹町字小白浜314,,,,,1,,,,1,39.209839798626,141.8649068329,
733,E0321100085202,唐丹小学校・唐丹中学校第１体育館,岩手県釜石市唐丹町字小白浜314,1,1,,,,,1,,1,39.208771511153,141.86559181291,
734,E0321100085201,唐丹小学校・唐丹中学校第２体育館,岩手県釜石市唐丹町字小白浜314,1,1,,,,,1,,1,39.208496880743,141.86551858479,
735,E0321100085204,唐丹小学校・唐丹中学校校庭,岩手県釜石市唐丹町字小白浜314,,,,1,1,1,,,1,39.2092432,141.865934,
736,E0321100086201,荒金集会所,岩手県釜石市唐丹町字上荒川257-4,1,1,,,,,1,,,39.19241368,141.804102,
737,E0321100087201,荒川地区造成団地,岩手県釜石市唐丹町字上荒川28-24,,,,,1,,,,,39.191092986632,141.85645868122,
738,E0321100088201,鍋倉集会所,岩手県釜石市唐丹町字川目195,1,1,,,,,1,,,39.2272748,141.8002176,
739,E0321100089201,稲荷神社高台,岩手県釜石市唐丹町字大曽根54-5,,,,,1,,,,,39.211154496575,141.88714521548,
740,E0321100090201,本郷元青年クラブ集会所広場,岩手県釜石市唐丹町字大曽根57,,,,,1,,,,,39.21081622,141.8834069,
741,E0321100091201,片川集会所,岩手県釜石市唐丹町字片岸178-1,1,1,,,,,1,,,39.20720908,141.8509458,
742,E0321100091202,片川集会所前広場,岩手県釜石市唐丹町字片岸178-1,,,,1,1,1,,,,39.20711347,141.8510799,
743,E0321100092201,天照御祖神社境内,岩手県釜石市唐丹町字片岸30-1,,,,,1,,,,,39.20004347,141.8620474,
744,E0321100093201,東前不動沢,岩手県釜石市東前町13,,,,,1,,,,,39.27598992,141.8948216,
745,E0321100094201,東前樋が沢,岩手県釜石市東前町17-21,,,,,1,,,,,39.27444593,141.8945289,
746,E0321100098201,箱崎白浜集会所前広場,岩手県釜石市箱崎町1-5,,,,,1,,,,,39.32659953,141.9406375,
747,E0321100099201,御箱崎の宿前広場,岩手県釜石市箱崎町1-6-1,,,,,1,,,,,39.32732897,141.9450073,
748,E0321100095201,桑の浜トンネル高台,岩手県釜石市箱崎町11-4,,,,,1,,,,,39.3159517,141.9113745,
749,E0321100139201,両石方面高台,岩手県釜石市箱崎町13,,,,,1,,,,,39.30925,141.904833,
750,E0321100139202,桑の浜トンネル方向高台,岩手県釜石市箱崎町13,,,,,1,,,,,39.31253919,141.9095454,
751,E0321100100201,津元前高台,岩手県釜石市箱崎町2-85-5,,,,,1,,,,,39.330925424988,141.94863114765,
752,E0321100101201,仮宿高台,岩手県釜石市箱崎町4-3-21,,,,,1,,,,,39.31760782,141.9439907,
753,E0321100102201,鵜住居公民館仮宿分館,岩手県釜石市箱崎町4-50-2,1,1,,,,,1,,,39.31692531,141.945781,
754,E0321100103201,箱崎集会所,岩手県釜石市箱崎町5-35-17,1,1,,,,,1,,,39.320844679449,141.91702191451,
755,E0321100104201,上前高台,岩手県釜石市箱崎町6-17-1,,,,,1,,,,,39.32070682,141.9193301,
756,E0321100105201,ヨコゼ沢高台,岩手県釜石市箱崎町7-9,,,,,1,,,,,39.32261669,141.9201614,
757,E0321100107201,市道鵜住居２号線側高台,岩手県釜石市箱崎町９地内,,,,,1,,,,,39.3245837,141.9111599,
758,E0321100140201,大天場運動広場,岩手県釜石市八雲町3,,,,,1,,,,,39.272065,141.855272,
759,E0321100108201,八雲神社境内,岩手県釜石市八雲町61,,,,,1,,,,,39.2708492,141.8548648,
760,E0321100109201,浜町復興住宅（５階集会室）,岩手県釜石市浜町1-3-12,1,1,,,,,1,,,39.27493518627,141.88814128705,
761,E0321100110201,尾崎神社境内,岩手県釜石市浜町3-23-27,,,,,1,,,,,39.28026513,141.8936058,
762,E0321100111201,浜町集会所（２階）,岩手県釜石市浜町3-6-6,1,1,,,,,1,,,39.2770457,141.8912952,
763,E0321100112201,法冠神社境内,岩手県釜石市片岸町10-104-2,,,,,1,,,,,39.345507954247,141.90607852287,
764,E0321100114201,道地沢団地,岩手県釜石市片岸町2-13,,,,,1,,,,,39.33492725,141.8877714,
765,E0321100115201,北光水道土木前,岩手県釜石市片岸町8-114-1,,,,,1,,,,,39.342626271756,141.894061868,
766,E0321100116201,古廟坂トンネル入口付近高台,岩手県釜石市片岸町9-1-1,,,,,1,,,,,39.34408117,141.8931953,
767,E0321100117201,片岸公葬地,岩手県釜石市片岸町9-22,,,,,1,,,,,39.34041084,141.8898771,
768,E0321100118201,不動沢,岩手県釜石市片岸町9-69,,,,,1,,,,,39.33959031,141.8890307,
769,E0321100113201,観世音神社境内,岩手県釜石市片岸町１０地内,,,,,1,,,,,39.34489844,141.9047449,
770,E0321100119201,片岸稲荷神社境内,岩手県釜石市片岸町９地内,,,,,1,,,,,39.3380769,141.8920607,
771,E0321100133201,野田中央公園,岩手県釜石市野田町1-5,,,,1,,1,,,,39.258513,141.829636,
772,E0321100134201,野田西公園,岩手県釜石市野田町2-16,,,,1,,1,,,,39.255779,141.821743,
773,E0321100120201,千島墓地前広場,岩手県釜石市両石町1-40,,,,,1,,,,,39.31087044,141.892985,
774,E0321100122201,あさひ公園,岩手県釜石市両石町3-128,,,,,1,,,,,39.30704223,141.8897755,
775,E0321100124202,水海集会所前避難階段,岩手県釜石市両石町4,,,,,1,,,,,39.301836,141.875894,
776,E0321100124201,女遊部集会所,岩手県釜石市両石町4,1,1,,,,,1,,,39.29272896,141.8619021,
777,E0321100129201,愛の浜水海公園管理棟奥高台,岩手県釜石市両石町5-58-1,,,,,1,,,,,39.298284,141.895987,
778,E0321100121201,厳島神社境内,岩手県釜石市両石町２地内,,,,,1,,,,,39.31022912,141.8898693,
779,E0321100123201,恋ノ峠高台,岩手県釜石市両石町３地内,,,,,1,,,,,39.3141018,141.8846498,
780,E0321100126201,教育センター（５階）,岩手県釜石市鈴子町15-2,1,1,,,1,,1,,,39.27431188,141.8695155,
781,E0321100128201,日本製鉄構内高台,岩手県釜石市鈴子町2-72,,,,,1,,,,,39.268039672459,141.87056896447,
782,E0321100127201,シープラザ釜石屋外駐車場,岩手県釜石市鈴子町22-1,,,,,,1,,,,39.27422527,141.870125,
783,E0330300001202,一方井公民館,岩手県岩手町大字一方井14-67,1,1,,1,,1,1,1,1,39.96967224,141.1680102,
784,E0330300001201,一方井健康センター,岩手県岩手町大字一方井14-67,1,1,,1,,1,1,1,1,39.96917068,141.1676991,
785,E0330300002201,一方井小学校,岩手県岩手町大字一方井15-45-1,1,1,,1,,1,1,1,1,39.9721722,141.1702242,
786,E0330300003201,久保公民館,岩手県岩手町大字久保10-54-6,1,1,,1,,1,1,1,1,39.947240140339,141.19079452355,
787,E0330300004201,旧久保小学校,岩手県岩手町大字久保10-57-2,1,1,,1,,1,1,1,1,39.94815826,141.1900055,
788,E0330300005201,道の駅石神の丘,岩手県岩手町大字五日市10-121-20,1,1,,1,,1,1,1,1,39.96859962,141.2137864,
789,E0330300006201,沼宮内高等学校,岩手県岩手町大字五日市10-4,1,1,,1,,1,1,1,1,39.96956165,141.2113563,
790,E0330300007201,林業研修センター,岩手県岩手町大字五日市12-81-1,1,1,,1,,1,1,1,1,39.96129454,141.2139304,
791,E0330300008201,沼宮内中学校,岩手県岩手町大字五日市8-30-2,1,,,1,,1,1,1,1,39.98094632,141.2246231,
792,E0330300009201,沼宮内保育所,岩手県岩手町大字江刈内9-65-17,,,,1,,1,1,1,1,39.96922481,141.2204275,
793,E0330300010201,スポーツ文化センター,岩手県岩手町大字子抱5-142,1,1,,1,,1,1,1,1,39.95412933,141.2057139,
794,E0330300011201,旧水堀小学校,岩手県岩手町大字沼宮内20-15-1,1,1,,1,,1,1,1,1,40.00666943,141.239339,
795,E0330300012201,水堀いきがい交流センター,岩手県岩手町大字沼宮内20-8-1,,1,,1,,1,1,1,1,40.00826514,141.2388616,
796,E0330300013201,沼宮内公民館,岩手県岩手町大字沼宮内7-33,,1,,1,,1,1,1,1,39.97303266,141.2231646,
797,E0330300014201,沼宮内小学校,岩手県岩手町大字沼宮内9-57-2,1,1,,1,,1,1,1,1,39.97491456,141.2271578,
798,E0330300015201,川口公民館別館,岩手県岩手町大字川口12-10,1,1,,1,,1,1,1,1,39.91522235,141.2023054,
799,E0330300016201,川口小学校,岩手県岩手町大字川口15-91-2,1,,,1,,1,1,1,1,39.925783014845,141.20592581747,
800,E0330300017201,川口保育所,岩手県岩手町大字川口16-26-4,1,,,1,,1,1,1,1,39.92598126,141.2043419,
801,E0330300018201,南山形公民館,岩手県岩手町大字川口26-52-2,1,,,1,,1,1,1,1,39.89851291,141.3017368,
802,E0330300019201,旧東部中学校,岩手県岩手町大字川口41-145-2,1,1,,1,,1,1,1,1,39.94249086,141.3267279,
803,E0330300019202,旧北山形小学校,岩手県岩手町大字川口41-145-2,1,1,,1,,1,1,1,1,39.94244562,141.3257811,
804,E0330300020201,北山形公民館,岩手県岩手町大字川口43-192-5,1,1,,1,,1,1,1,1,39.94291696,141.3273493,
805,E0330300021201,川口社会体育館,岩手県岩手町大字川口9-34,1,1,,1,,1,1,1,1,39.92146069,141.2012871,
806,E0330300021202,川口公民館,岩手県岩手町大字川口9-34,1,1,,1,,1,1,1,1,39.92143395,141.2016438,
807,E0330300022201,岩瀬張地区体育館,岩手県岩手町大字大坊5-8-1,1,1,,1,,1,1,1,1,39.96634582,141.3315525,
808,E0330300023201,浮島公民館,岩手県岩手町大字土川1-131-1,1,1,,1,,1,1,1,1,39.94315432,141.1611288,
809,E0348300001201,江川公民館,岩手県岩泉町安家字高須賀39-3,1,1,,1,,1,,,1,39.930612930415,141.76050851944,
810,E0348300003201,松ケ沢公民館,岩手県岩泉町安家字松ケ沢249-2,1,,,,,1,,,1,39.982171789684,141.69355355796,
811,E0348300004201,安家寺,岩手県岩泉町安家字松林127,1,,,,,1,,,,39.987227601038,141.73379547775,
812,E0348300005201,岩泉町立安家小学校,岩手県岩泉町安家字松林157-2,,,,1,,1,,,1,39.986027920634,141.73745144793,
813,E0348300078201,坂本地区集会移設,岩手県岩泉町安家字大坂本15-2,1,,,,,1,,,1,39.97115828119,141.60891774473,
814,E0348300006201,旧大平小中学校,岩手県岩泉町安家字大平115-2,1,1,,1,,1,,,1,39.97043884605,141.66123789264,「崖崩れ土石流及び地滑り」は校舎２階のみ
815,E0348300007201,安家地区総合交流センター,岩手県岩泉町安家字日蔭66,1,1,,1,,1,,,1,39.986002415259,141.7276500379,
816,E0348300008201,猿沢公民館,岩手県岩泉町猿沢字林の下14-7,1,,,1,,1,,,,39.818645887541,141.86373411215,
817,E0348300091201,道の駅いわいずみ駐車場,岩手県岩泉町乙茂字乙茂90-1,,,,,1,,,,,39.842467,141.862294,
818,E0348300009201,乙茂公民館,岩手県岩泉町乙茂字和乙茂10-24,,,,1,,1,,,,39.841082754879,141.86005975252,
819,E0348300010201,栃の木皆の川ふれあいセンター,岩手県岩泉町下有芸字千足6-1,1,1,,1,,1,,,1,39.762663488639,141.83265451839,
820,E0348300011201,肘葛地区生涯学習センター,岩手県岩泉町下有芸字肘葛11,1,,,,,1,,,1,39.768078950441,141.87667346661,
821,E0348300012201,権現岩谷地区交流センター,岩手県岩泉町釜津田字権現7-1,1,1,,,,1,,,1,39.855770312241,141.55606750049,
822,E0348300013201,旧釜津田中学校,岩手県岩泉町釜津田字上種倉27-6,1,1,,1,,1,,,1,39.792972335222,141.59193581079,
823,E0348300014201,釜津田総合コミュニティセンター,岩手県岩泉町釜津田字沢口36-2,,,,1,,1,,,,39.784001253482,141.5583092454,
824,E0348300015201,岩泉町立釜津田小学校,岩手県岩泉町釜津田字沢口37,1,1,,1,,1,,,1,39.784548382035,141.55788180468,「崖崩れ土石流及び地滑り」は校舎2階以上
825,E0348300016201,唐地公民館,岩手県岩泉町釜津田字唐地24-2,1,1,,,,1,,,1,39.783535985585,141.53723982711,
826,E0348300017201,岩泉町立岩泉中学校,岩手県岩泉町岩泉字一ツ石4,1,1,,1,,1,,,1,39.850467492521,141.80363162393,
827,E0348300018201,老人福祉センター,岩手県岩泉町岩泉字三本松52-1,1,1,,1,,1,,,,39.848551858276,141.80502794961,
828,E0348300019201,いわいずみこども園,岩手県岩泉町岩泉字三本松7-6,1,1,,1,,1,,,1,39.845547224047,141.79778768564,
829,E0348300020201,月出森山公民館,岩手県岩泉町岩泉字山屋1-2,1,1,,1,,1,,,1,39.81416279136,141.80597655853,
830,E0348300021202,岩泉町民会館・町立図書館,岩手県岩泉町岩泉字松橋21-1,1,1,,1,1,1,,,1,39.842973561168,141.79362131101,
831,E0348300022201,下岩泉公民館,岩手県岩泉町岩泉字新町37,1,1,,1,,1,,,1,39.848163591467,141.82079504516,
832,E0348300023201,雲岩寺,岩手県岩泉町岩泉字村木16-1,1,1,,,,1,,,,39.847924108763,141.79163059344,
833,E0348300024201,岩泉町Ｂ＆Ｇ海洋センター,岩手県岩泉町岩泉字中家55-1,,,,1,,1,,,1,39.849042395759,141.79519144956,
834,E0348300025201,龍ちゃんドーム,岩手県岩泉町岩泉字中野8-2,1,1,,1,,1,,,1,39.843650587522,141.78959845422,
835,E0348300026201,岩泉基幹集落センター,岩手県岩泉町岩泉字天間17-7,,,,1,,1,,,1,39.84790328979,141.78620881606,
836,E0348300027201,岩泉町立岩泉小学校,岩手県岩泉町岩泉字和川原4-2,1,,,1,,1,,,1,39.849150232842,141.78984679852,
837,E0348300028201,穴沢多目的集会施設,岩手県岩泉町穴沢字道の下75-1,,,,,,1,,,,39.859120979809,141.67476561753,
838,E0348300081201,宗得寺,岩手県岩泉町小本,,,,,,1,,,,39.844099782854,141.96987463625,
839,E0348300030201,小本生活改善センター,岩手県岩泉町小本字家の向52-1,,,,1,,1,,,1,39.843635005911,141.96802444974,
840,E0348300031201,小成津波防災センター,岩手県岩泉町小本字小成133-2,1,,1,1,1,1,,,1,39.826261099935,141.96881386444,
841,E0348300033203,宗得寺裏山付近,岩手県岩泉町小本字小本21,,,,,1,,,,,39.843650837658,141.97040034922,
842,E0348300092201,ＮＴＴ小本交換所北側高台,岩手県岩泉町小本字上中野31-3,,,,,1,,,,,39.844873,141.956773,
843,E0348300034201,小本小学校旧大牛内分校,岩手県岩泉町小本字大牛内318-1,1,1,,1,1,1,,,1,39.87000864583,141.94962152269,
844,E0348300035202,中野坂東側高台,岩手県岩泉町小本字中野10-12,,,,,1,,,,,39.849125762542,141.95985911664,
845,E0348300038202,小本トンネル前広場（避難施設）,岩手県岩泉町小本字内の沢79-148,,,,,1,,,,,39.839750398778,141.96949187542,
846,E0348300039201,岩泉町立小本小・中学校（津波避難ビル）,岩手県岩泉町小本字南中野145,1,1,1,1,1,1,,,1,39.839827976702,141.9548105279,津波は校舎２階以上
847,E0348300040201,小本津波防災センター（津波避難ビル）,岩手県岩泉町小本字南中野239-1,1,1,1,1,1,1,,,1,39.842686507399,141.95871045979,津波は屋上のみ
848,E0348300041201,茂師生活改善センター,岩手県岩泉町小本字本茂師92,,,,1,,1,,,1,39.833877343639,141.97793697289,
849,E0348300042202,茂師消防屯所付近,岩手県岩泉町小本字茂師1,,,,,1,,,,,39.832345316862,141.97836484071,
850,E0348300043201,中野交流館,岩手県岩泉町小本字鈩244,1,,,1,,1,,,,39.845812099604,141.96059633536,
851,E0348300044201,岩泉町立有芸小学校,岩手県岩泉町上有芸字運名根27-21,1,,,1,,1,,,1,39.772009078044,141.81007370493,
852,E0348300045201,有芸生活改善センター,岩手県岩泉町上有芸字猿ケ淵5-4,1,1,,1,,1,,,1,39.772476405163,141.811567601,
853,E0348300046201,農業体験交流施設,岩手県岩泉町上有芸字向平75,1,1,,,,1,,,1,39.753252094921,141.75261801127,
854,E0348300047201,浅内多目的集会施設,岩手県岩泉町浅内字上糸坪48-1,1,,,,,1,,,1,39.818960833579,141.72579364486,
855,E0348300048201,旧浅内小学校,岩手県岩泉町浅内字上野82,1,,,1,,1,,,1,39.820042995386,141.72496637015,
856,E0348300049201,鼠入自治会館,岩手県岩泉町鼠入字中鼠入43-2,1,,,1,,1,,,,39.802877623023,141.77693312024,
857,E0348300050201,旧大川小学校,岩手県岩泉町大川字下町112,1,,,1,,1,,,1,39.802170139133,141.65390994523,
858,E0348300051201,大川基幹集落センター,岩手県岩泉町大川字下町117-4,1,,,1,,1,,,1,39.802036854133,141.6532638623,
859,E0348300052201,大川地区総合交流センター,岩手県岩泉町大川字下町65-1,1,1,,1,,1,,,1,39.802718537832,141.65859216499,
860,E0348300053201,大川寺,岩手県岩泉町大川字日蔭道の上114,1,,,,,,,,,39.800029894446,141.65084523239,
861,E0348300054201,外川目公民館,岩手県岩泉町中島字外川目86,1,1,,,,1,,,1,39.828723888408,141.94637602582,
862,E0348300089201,卒郡公民館奥高台,岩手県岩泉町中島字卒郡21,,,,,1,,,,,39.837253,141.945788,
863,E0348300090201,卒郡ポンプ場,岩手県岩泉町中島字卒郡57,,,,,1,,,,,39.836499,141.94729,
864,E0348300088201,中島・八坂神社付近,岩手県岩泉町中島字中島115-54,,,,,1,,,,,39.845252,141.9412,
865,E0348300055201,中島地区多目的集会施設,岩手県岩泉町中島字中島62,,,,,,1,,,,39.843835450476,141.94064170285,
866,E0348300087201,小本小・中学校脇高台,岩手県岩泉町中島字長内53-32,,,,,1,,,,,39.841022,141.954057,
867,E0348300056201,中里公民館,岩手県岩泉町中里字下中里12-1,,,,1,1,1,,,1,39.831753967803,141.91649703152,
868,E0348300086201,岸公民館付近,岩手県岩泉町中里字岸11,,,,,1,,,,,39.843371,141.935563,
869,E0348300058201,二升石多目的集会施設,岩手県岩泉町二升石字坂の下10-5,1,,,,,1,,,1,39.838369724451,141.74618635231,
870,E0348300059201,旧二升石小学校,岩手県岩泉町二升石字大根13,1,1,,1,,1,,,1,39.841149402049,141.7461393963,
871,E0348300060201,松橋地区生涯学習会館,岩手県岩泉町二升石字日蔭55-2,,,,,,1,,,,39.845668222075,141.7193868142,
872,E0348300057201,尼額公民館,岩手県岩泉町尼額字山崎2-3,1,1,,1,,1,,,1,39.839986286712,141.7748778294,
873,E0348300061201,中沢公民館,岩手県岩泉町門字横道48,,,,,,1,,,1,39.895695165485,141.62568981115,
874,E0348300062201,旧中沢小学校,岩手県岩泉町門字横道53-2,,,,1,,1,,,1,39.897345522503,141.62507826749,
875,E0348300063201,見内川公民館,岩手県岩泉町門字見内川100,1,1,,,,1,,,1,39.901110453998,141.59280180819,
876,E0348300064201,国境公民館,岩手県岩泉町門字国境28-2,,,,1,,1,,,,39.92056862083,141.57736981581,
877,E0348300065201,三田貝公民館,岩手県岩泉町門字三田貝47-2,1,1,,1,,1,,,1,39.870941715847,141.58943299008,
878,E0348300066201,横道公民館,岩手県岩泉町門字中瀬10-2,1,1,,1,,1,,,1,39.890019195904,141.62530027725,
879,E0348300067201,不眛庵,岩手県岩泉町門字町107,1,1,,,,,,,,39.877576682794,141.65218888926,
880,E0348300068201,岩泉町立小川小学校,岩手県岩泉町門字町32-3,1,1,,1,,1,,,1,39.876469660912,141.64890383647,
881,E0348300069201,小川生活改善センター,岩手県岩泉町門字町66-1,1,1,,1,,1,,,1,39.877105527443,141.64954133882,
882,E0348300070201,小川屋内多目的運動場,岩手県岩泉町門字町向31-1,1,,,1,,1,,,1,39.875723930067,141.65209690974,
883,E0348300071201,岩泉町立小川中学校,岩手県岩泉町門字町向39,,,,1,,1,,,1,39.874682200742,141.65399512826,
884,E0348300072201,旧国見小学校,岩手県岩泉町門字雷峠44-25,,,,1,,1,,,1,39.90271486023,141.59345134344,
885,E0348300073201,旧小川小学校,岩手県岩泉町袰綿字関屋57-1,1,,,1,,1,,,1,39.858188600405,141.68174480364,
886,E0348300074201,一ツ苗代自治会館,岩手県岩泉町袰綿字馬立52,,,,1,,1,,,,39.847423206078,141.69887332207,
887,E0348300075201,洞岩寺,岩手県岩泉町袰綿字本町63,1,,,,,,,,,39.85451510945,141.68717848389,
888,E0348300076201,老人憩の家松栢荘,岩手県岩泉町袰綿字本町66,1,,,,,1,,,,39.854218603812,141.68797241776,
889,E0348300077201,袰野公民館,岩手県岩泉町袰野字赤鹿11-1,,,,,,1,,,,39.843695315381,141.89637742035,
890,E0320700001202,久慈市総合福祉センター,岩手県久慈市旭町7-127-3,1,,1,1,1,,1,,1,40.20325217,141.7790563,
891,E0320700001201,屋内温水プール,岩手県久慈市旭町7-127-3,1,,1,1,1,,1,,1,40.20304731,141.7794908,
892,E0320700002201,旭町公民館,岩手県久慈市旭町7-73,1,,,1,,,1,,1,40.201884,141.774388,
893,E0320700003201,元気の泉,岩手県久慈市旭町8-100-1,1,1,1,1,,,1,,,40.199698250644,141.77451609444,
894,E0320700005201,川原屋敷地区農村センター,岩手県久慈市宇部町18-36-2,1,1,,1,1,,1,,1,40.13074661,141.8101601,
895,E0320700006201,久喜小学校,岩手県久慈市宇部町19-192-1,1,1,,1,,,1,,1,40.14287419,141.8442956,
896,E0320700007201,久喜地区防災センター（久喜保育園）,岩手県久慈市宇部町20-146-1,1,,1,1,1,,1,,1,40.13664219,141.8402329,
897,E0320700008201,三崎林業センター,岩手県久慈市宇部町22-27-4,1,1,,1,,,1,,1,40.14602205,141.8502427,
898,E0320700009201,三崎中学校,岩手県久慈市宇部町22-961,1,1,,1,,,1,,1,40.1492827,141.851088,
899,E0320700010201,小袖小学校,岩手県久慈市宇部町23-128-3,1,1,,1,,,1,,1,40.16067461,141.8480628,
900,E0320700011201,小袖地区漁村センター,岩手県久慈市宇部町23-37-1,1,,1,1,1,,1,,1,40.165253548366,141.85361041112,
901,E0320700012201,和野公民館,岩手県久慈市宇部町4-20-3,1,1,,1,,,1,,1,40.1290158,141.778627,
902,E0320700013201,宇部保育園,岩手県久慈市宇部町5-118,1,1,,1,,,1,,1,40.13212747,141.7848027,
903,E0320700014201,宇部小学校,岩手県久慈市宇部町5-132-8,1,,,1,,,1,,1,40.13370046,141.7890545,
904,E0320700015201,久慈市宇部市民センター,岩手県久慈市宇部町5-41,1,1,,1,,,1,,1,40.131118280701,141.78741081836,
905,E0320700016201,宇部中学校,岩手県久慈市宇部町6-133-13,1,1,,1,,,1,,1,40.12652501,141.7840483,
906,E0320700017201,久慈市宇部マレットゴルフ場,岩手県久慈市宇部町7-158-1,1,1,,1,1,,1,,1,40.1225369,141.7943806,
907,E0320700018201,久慈小学校,岩手県久慈市栄町31-149,1,1,,1,,,,,1,40.19539591,141.7529793,
908,E0320700019201,栄町町民会館,岩手県久慈市栄町32-49-2,,1,,1,,,,,1,40.195113,141.760391,
909,E0320700020201,久慈中学校,岩手県久慈市栄町32-88-5,,1,,1,,,,,1,40.19524219,141.758663,
910,E0320700022201,夏井地域ふれあい館,岩手県久慈市夏井町夏井1-88-5,1,1,,1,,,1,,1,40.2207467,141.7550092,
911,E0320700021201,くにさか公民館,岩手県久慈市夏井町夏井10-9-5,1,,,1,,,1,,1,40.231403501693,141.72019049326,
912,E0320700023201,富原公民館,岩手県久慈市夏井町夏井21-72-4,1,1,,1,,,1,,1,40.24165334,141.7015778,
913,E0320700024201,夏井農村地域交流館,岩手県久慈市夏井町夏井22-90-12,1,,,1,,,1,,1,40.23508451,141.6960059,
914,E0320700025201,夏井小学校,岩手県久慈市夏井町夏井3-57-1,1,,,1,,,1,,1,40.22458653,141.7518144,
915,E0320700026201,生平公民館,岩手県久慈市夏井町夏井4-28-1,1,,,1,,,1,,1,40.228209,141.743972,
916,E0320700027201,黒沼公民館,岩手県久慈市夏井町黒沼5-1-2,,1,,1,,,,,1,40.22044941,141.7646561,
917,E0320700028201,平山小学校,岩手県久慈市夏井町早坂14-51-7,1,1,1,1,1,,1,,1,40.21807464,141.7815844,
918,E0320700029201,夏井中学校,岩手県久慈市夏井町早坂3-20,,,,1,,,,,1,40.21824129,141.7639066,
919,E0320700030201,久慈市夏井市民センター,岩手県久慈市夏井町早坂8-1-1,,1,,1,1,,,,1,40.216571,141.773779,
920,E0320700031201,大湊公葬地,岩手県久慈市夏井町大崎3-51,1,1,1,1,,,1,,,40.20745237,141.7893083,
921,E0320700032201,大崎生活技術伝承館,岩手県久慈市夏井町大崎4-1-3,1,1,,1,,,1,,1,40.21210806,141.7800654,
922,E0320700033201,久慈市総合防災公園,岩手県久慈市夏井町大崎5-39,1,1,1,1,1,,1,,,40.208114084527,141.7867678654,
923,E0320700034201,ふっこう館,岩手県久慈市夏井町大崎9-28-1,,1,1,1,,,1,,1,40.209891581576,141.78992700979,
924,E0320700035201,鳥谷子供会館,岩手県久慈市夏井町鳥谷6-14,,1,,1,,,,,1,40.23074723,141.7759722,
925,E0320700036201,若宮八幡宮,岩手県久慈市夏井町鳥谷9-1-4,1,1,1,1,1,,1,,,40.21548565,141.7861787,
926,E0320700163201,高砂公民館,岩手県久慈市夏井町閉伊口1-28-5,1,1,,1,1,,1,,1,40.226728,141.783489,
927,E0320700038201,へいのくち公民館,岩手県久慈市夏井町閉伊口7-12-7,1,,1,1,,,1,,1,40.21767946,141.7902154,
928,E0320700162201,鼻舘地区公葬地,岩手県久慈市夏井町閉伊口7-66-3,1,,,1,1,,1,,,40.218359437671,141.79055188954,
929,E0320700039201,半崎集会所,岩手県久慈市夏井町閉伊口8-85-3,1,,1,1,1,,1,,1,40.21886,141.799055,
930,E0320700158201,旭町・京の森公園,岩手県久慈市京の森７地割19-31,1,,,1,1,,1,,,40.202157432195,141.7721334365,
931,E0320700040201,荷軽部保育園,岩手県久慈市山形町荷軽部3-58-1,1,1,,1,,,1,,,40.15119356,141.5044069,
932,E0320700041201,元荷軽部小学校,岩手県久慈市山形町荷軽部5-1-1,1,1,,1,,,1,,,40.15012995,141.5061217,
933,E0320700042201,荷軽部地区集落センター,岩手県久慈市山形町荷軽部5-7,1,1,,1,,,1,,1,40.150829794434,141.50541356011,
934,E0320700043201,苅間沢集会所,岩手県久慈市山形町荷軽部8-17-1,1,1,,1,,,1,,1,40.171795463613,141.49852755522,
935,E0320700044201,つなぎ地区消防コミュニティセンター,岩手県久慈市山形町繋20-30-2,1,1,,1,,,1,,1,40.143289032028,141.66006127612,
936,E0320700045201,岡堀公民館,岩手県久慈市山形町戸呂町2-6-1,1,,,1,,,1,,1,40.215841,141.54769,
937,E0320700046201,戸呂町地区集落センター,岩手県久慈市山形町戸呂町4-50-64,1,,,1,,,1,,1,40.201938500815,141.59089413491,
938,E0320700047201,元小国小学校,岩手県久慈市山形町小国9-11-4,1,1,,1,,,1,,,40.08119591,141.622727,
939,E0320700048201,小国地区多目的集会施設,岩手県久慈市山形町小国9-21-3,1,1,,1,,,1,,1,40.081391,141.622061,
940,E0320700049201,山形小学校,岩手県久慈市山形町川井10-13-1,,,,1,,,1,,1,40.14753658,141.5684786,
941,E0320700050201,山形中学校,岩手県久慈市山形町川井10-87-11,1,,,1,,,1,,1,40.15083442,141.5683672,
942,E0320700051201,山形老人福祉センター,岩手県久慈市山形町川井12-60-2,1,1,,1,,,1,,1,40.14525201,141.5693298,
943,E0320700052201,山形Ｂ＆Ｇ海洋センター,岩手県久慈市山形町川井13-70-2,1,,,1,,,1,,1,40.14120301,141.5642119,
944,E0320700053201,沼袋町内会公民館,岩手県久慈市山形町川井4-46-1,1,1,,1,,,1,,1,40.15911321,141.5918583,
945,E0320700054201,久慈市山形総合センター,岩手県久慈市山形町川井8-30-1,1,1,,1,,,1,,1,40.1484445,141.5715102,
946,E0320700055201,霜畑営農研修館,岩手県久慈市山形町霜畑14-41,,1,,1,,,,,1,40.121985688711,141.60075073624,
947,E0320700056201,元霜畑小学校,岩手県久慈市山形町霜畑7-44,1,1,,1,,,1,,1,40.09943315,141.59865,
948,E0320700057201,霜畑地区コミュニティーセンター,岩手県久慈市山形町霜畑7-63,1,,,1,,,1,,1,40.093414,141.568481,
949,E0320700058201,元日野沢小学校,岩手県久慈市山形町日野沢4-69-3,,1,,1,,,1,,1,40.17690419,141.5504194,
950,E0320700059201,日野沢公民館,岩手県久慈市山形町日野沢4-72-1,,1,,1,,,1,,,40.177029,141.548958,
951,E0320700060201,来内小学校,岩手県久慈市山形町来内22-49-1,1,1,,1,,,1,,1,40.110805298124,141.50251992884,
952,E0320700061201,来内地区集落センター,岩手県久慈市山形町来内22-49-6,1,,,1,,,1,,1,40.110985821572,141.5030608135,
953,E0320700062201,馬越公民館,岩手県久慈市山根町下戸鎖3-95-2,,1,,1,,,1,,1,40.07216493,141.7156663,
954,E0320700063201,久慈市山根市民センター（元山根中学校）,岩手県久慈市山根町下戸鎖4-38-1,1,,,1,,,1,,1,40.08473318,141.7068645,
955,E0320700064201,新山根温泉,岩手県久慈市山根町下戸鎖4-5-1,1,,,1,,,1,,,40.08231218,141.7055995,
956,E0320700066201,元山根小学校校庭,岩手県久慈市山根町下戸鎖5-41-1,1,1,,1,,,1,,,40.086018233146,141.71151597233,
957,E0320700164201,細野公民館,岩手県久慈市山根町細野3-125,,,,1,,,,,1,40.055205,141.682863,
958,E0320700165201,端神公民館,岩手県久慈市山根町端神2-6-2,1,1,,1,,,1,,1,40.045719,141.693721,
959,E0320700069201,久慈市中央市民センター枝成沢分館,岩手県久慈市枝成沢18-1-2,1,,,1,,,1,,1,40.20538239,141.7089731,
960,E0320700070201,横沼公民館,岩手県久慈市侍浜町横沼9-64-4,1,,,1,,,1,,1,40.260851891318,141.81106341853,
961,E0320700071201,外屋敷公民館,岩手県久慈市侍浜町外屋敷6-47-1,1,1,,1,,,1,,1,40.275653780693,141.79465551202,
962,E0320700072201,元侍浜小学校・角柄分校,岩手県久慈市侍浜町角柄11-89-1,1,1,,1,,,1,,1,40.24700519,141.7295069,
963,E0320700073201,桑畑コミュニティセンター,岩手県久慈市侍浜町桑畑5-40-244,1,1,,1,,,1,,1,40.285203399064,141.79599449751,
964,E0320700074201,久慈市侍浜市民センター,岩手県久慈市侍浜町向町8-3-2,1,1,,1,,,1,,1,40.268729310396,141.79632931025,
965,E0320700075201,白前公民館,岩手県久慈市侍浜町白前1-184,1,1,,1,,,1,,1,40.25085734,141.8139172,
966,E0320700076201,麦生地区農村センター,岩手県久慈市侍浜町麦生3-30,1,1,,1,,,1,,1,40.22519656,141.8250707,
967,E0320700077201,元麦生小中学校跡地前広場,岩手県久慈市侍浜町麦生3-36-1,1,1,,1,,,1,,,40.22553627,141.8236347,
968,E0320700078201,侍浜小学校,岩手県久慈市侍浜町保土沢8-27-1,1,1,,1,,,1,,1,40.26436424,141.8001406,
969,E0320700079201,保っ土木館,岩手県久慈市侍浜町保土沢8-43-179,1,1,,1,,,1,,1,40.25703534,141.7922943,
970,E0320700080201,北野公民館,岩手県久慈市侍浜町北野10-116-4,1,1,,1,,,1,,1,40.25267157,141.7852275,
971,E0320700081201,堀切ふれあいセンター,岩手県久慈市侍浜町堀切10-1-30,1,1,,1,,,1,,1,40.2594301,141.7630479,
972,E0320700082201,侍浜本町公民館,岩手県久慈市侍浜町本町7-47-4,1,1,,1,,,1,,1,40.27044888,141.7949186,
973,E0320700083201,侍浜中学校,岩手県久慈市侍浜町本町9-152,1,1,,1,,,1,,1,40.26889259,141.7835286,
974,E0320700084201,本波林業センター,岩手県久慈市侍浜町本波11-75-4,1,1,,1,,,1,,1,40.2402059,141.8060817,
975,E0320700085201,畑田保育園,岩手県久慈市寺里27-9-1,1,,,1,1,,1,,1,40.19508044,141.7415876,
976,E0320700086201,寺里公民館,岩手県久慈市寺里30-47-2,,1,,1,,,1,,1,40.195135797009,141.74690362852,
977,E0320700159201,寺里健康ひろば,岩手県久慈市寺里第２９地割20-1,1,1,,1,1,,1,,,40.196444224657,141.74705469339,
978,E0320700087201,下日当公民館,岩手県久慈市小久慈町13-19-4,,1,,1,,,1,,1,40.16278102,141.7390666,
979,E0320700088201,久慈市小久慈市民センター,岩手県久慈市小久慈町21-47-14,1,1,,1,1,,1,,1,40.170457,141.745099,
980,E0320700089201,小久慈小学校,岩手県久慈市小久慈町24-51,1,1,,1,1,,1,,1,40.17041397,141.747711,
981,E0320700091201,岩瀬張公民館,岩手県久慈市小久慈町3-49-3,1,,,1,,,1,,1,40.158143165029,141.73284223677,
982,E0320700090201,下柏木公民館,岩手県久慈市小久慈町30-47-5,1,,,1,1,,1,,1,40.17378626,141.7528342,
983,E0320700160201,小久慈焼陶芸苑駐車場,岩手県久慈市小久慈町31-29-1,1,1,,1,1,,1,,,40.178606601153,141.75646523344,
984,E0320700092201,久慈文化財保管・展示施設,岩手県久慈市小久慈町37-32-1,1,1,,1,,,1,,1,40.17245656,141.7595483,
985,E0320700093201,長内中学校,岩手県久慈市小久慈町39-2-2,1,1,,1,1,,1,,1,40.17259039,141.7638242,
986,E0320700094201,日吉町公民館,岩手県久慈市小久慈町53-56-2,1,1,,1,,,1,,1,40.1637932,141.7483418,
987,E0320700095201,新井田子供会館,岩手県久慈市新井田5-17-2,,1,,1,,,,,1,40.194702,141.779324,
988,E0320700096201,久慈市民体育館,岩手県久慈市新中の橋4-13-3,1,1,,1,,,1,,1,40.19453044,141.7691887,
989,E0320700097201,久慈市中央市民センター,岩手県久慈市新中の橋5-28-4,,1,,1,,,1,,1,40.19465159,141.7699657,
990,E0320700098201,三船十段記念館,岩手県久慈市川貫5-20-230,1,,,1,1,,1,,1,40.18802194,141.7591182,
991,E0320700099201,川貫公民館,岩手県久慈市川貫9-3-1,1,,,1,1,,1,,1,40.1878656461,141.75209264509,
992,E0320700101201,久慈市役所,岩手県久慈市川崎町1-1,1,1,,1,,,,,,40.190437132749,141.7755716856,
993,E0320700103201,久慈高等学校長内校,岩手県久慈市川崎町1-15,,1,,1,,,,,1,40.19104942,141.7766508,
994,E0320700100201,久慈グランドホテル,岩手県久慈市川崎町10-15,1,1,,1,1,,1,,1,40.18958674,141.7716703,「洪水」は建物2階以上、「津波」は4階以上
995,E0320700102201,久慈市保健センター,岩手県久慈市川崎町11-1,1,1,,1,,,1,,1,40.19087002,141.7713491,
996,E0320700104201,久慈市文化会館（アンバーホール）,岩手県久慈市川崎町17-1,1,1,,1,,,1,,1,40.1918833,141.7786945,
997,E0320700161201,ミニストップ久慈大川目店駐車場,岩手県久慈市大川目町1-114-20,1,,,1,1,,1,,,40.189236541771,141.74313846394,
998,E0320700109201,生出町公民館,岩手県久慈市大川目町1-81,1,,,1,1,,1,,1,40.18348772,141.7326542,
999,E0320700105201,大川目北部公民館,岩手県久慈市大川目町13-104-2,,1,,1,,,1,,1,40.181612,141.7147155,
1000,E0320700106201,大川目中学校,岩手県久慈市大川目町13-105,,1,,1,,,,,1,40.18078528,141.7140062,
1001,E0320700107201,山口八幡宮,岩手県久慈市大川目町13-3,1,,,1,,,1,,,40.18673208,141.7073117,
1002,E0320700108201,大川目小学校,岩手県久慈市大川目町14-45-1,1,1,,1,,,1,,1,40.18340768,141.7167357,
1003,E0320700110201,山口地区農業技術伝承館,岩手県久慈市大川目町22-56-1,1,1,,1,,,1,,1,40.19095186,141.709848,
1004,E0320700111201,慈光寺,岩手県久慈市大川目町22-62,1,1,,1,,,1,,,40.19303423,141.7076681,
1005,E0320700112201,田中公民館,岩手県久慈市大川目町27-117-4,1,1,,1,,,1,,1,40.192131,141.7260772,
1006,E0320700113201,滝地区農業センター,岩手県久慈市大川目町36-18-5,1,1,,1,,,1,,1,40.13275238,141.7007044,
1007,E0320700114201,久慈市大川目市民センター,岩手県久慈市大川目町8-10-2,1,1,,1,,,1,,1,40.177036,141.718684,
1008,E0320700115201,立正寺,岩手県久慈市大沢9-40-10,1,,,1,1,,1,,,40.18854797,141.7493343,
1009,E0320700167201,久慈第一ホテル,岩手県久慈市中央2-11,1,1,,1,1,,1,,,40.190602,141.769338,【洪水】は建物３階以上、「津波」は建物４階以上
1010,E0320700116201,久慈市情報交流センター（ＹＯＭＵＮＯＳＵ）,岩手県久慈市中央3-58,1,1,,1,1,,1,,1,40.189468548579,141.77085222321,「洪水」は２階以上、「津波」は屋上
1011,E0320700117201,長福寺,岩手県久慈市中町1-41,1,1,,1,1,,1,,,40.18943482,141.7630954,
1012,E0320700118201,中町イベント広場,岩手県久慈市中町1-67,1,,,1,1,,,,,40.188941308,141.76513769,
1013,E0320700119201,巽山公園（巽山稲荷神社）,岩手県久慈市中町1-69,1,1,,1,1,,1,,,40.189032594673,141.76737440004,
1014,E0320700120201,風の館,岩手県久慈市中町2-5-6,1,,,1,,,1,,1,40.18987768,141.7647628,
1015,E0320700168201,ＮＴＴ東日本久慈ビル（旧棟３階及び屋上）,岩手県久慈市長内町,,,,,1,,,,,40.185804,141.775996,
1016,E0320700121201,つつじヶ丘霊園,岩手県久慈市長内町20-103-1,1,1,,1,1,,1,,,40.182024577571,141.77733993258,
1017,E0320700122201,上長内公民館,岩手県久慈市長内町20-27-3,1,1,,1,1,,1,,1,40.178907979935,141.77566502314,
1018,E0320700123201,久慈市長内市民センター,岩手県久慈市長内町21-63-2,1,1,,1,,,1,,1,40.184303506367,141.77222490443,
1019,E0320700124201,いなり保育園,岩手県久慈市長内町23-27,,1,,1,,,,,1,40.183685655815,141.77617075121,
1020,E0320700125201,長内小学校,岩手県久慈市長内町25-41,,1,,1,,,,,1,40.18848729,141.7790564,
1021,E0320700126201,久慈総合運動場,岩手県久慈市長内町28-105-1,1,1,1,1,1,,1,,,40.17951003,141.7911806,
1022,E0320700127201,下長内公民館,岩手県久慈市長内町28-96,1,,1,1,1,,1,,1,40.185397,141.783421,
1023,E0320700128201,久慈市防災センター,岩手県久慈市長内町29-21-1,1,1,1,1,,,1,,1,40.1880139,141.7860853,
1024,E0320700129201,元木沢地区防災センター,岩手県久慈市長内町35-74-9,1,,1,1,,,1,,1,40.186573702532,141.79475888095,
1025,E0320700130201,諏訪神社,岩手県久慈市長内町35-98-3,1,1,1,1,1,,1,,,40.1875712,141.7983398,
1026,E0320700131201,諏訪公園,岩手県久慈市長内町35-98-7,1,1,1,1,1,,1,,,40.18820368,141.7987811,
1027,E0320700132201,元木沢公民館,岩手県久慈市長内町36-12-3,1,1,,1,,,1,,1,40.18925762,141.796974,
1028,E0320700133201,西坪公葬地,岩手県久慈市長内町43-132-174,1,1,1,1,1,,1,,,40.178947606049,141.81093374244,
1029,E0320700134201,久慈東高等学校長内校舎,岩手県久慈市長内町43-81-2,1,1,1,1,1,,1,,1,40.181420014202,141.80531837249,
1030,E0320700135201,二子集会所,岩手県久慈市長内町44-121,1,1,1,1,1,,1,,1,40.182028462575,141.80930551232,
1031,E0320700136201,山の神神社,岩手県久慈市長内町44-125,1,1,1,1,1,,1,,,40.18148951991,141.80811192931,
1032,E0320700137201,大尻地区漁村センター,岩手県久慈市長内町45-135-139,1,,1,1,1,,1,,1,40.17396002,141.8246632,
1033,E0320700138201,元久慈老人福祉センター,岩手県久慈市長内町9-67-2,1,,,1,1,,1,,,40.18232878,141.7641881,
1034,E0320700139201,萩ヶ丘児童公園,岩手県久慈市天神堂34-35-2,1,1,,1,1,,,,,40.199631,141.752331,
1035,E0320700140201,天満天神神社境内,岩手県久慈市天神堂35-83,1,,,1,1,,,,,40.200401275258,141.7560964717,
1036,E0320700141201,天神堂公民館（コミュニティーセンター）,岩手県久慈市天神堂36-120-4,1,,,1,,,1,,1,40.199413,141.75684,
1037,E0320700142201,田屋町子供会館,岩手県久慈市田屋町1-30-4,,1,,1,,,,,1,40.195674,141.77291,
1038,E0320700143201,羽黒山神社,岩手県久慈市畑田20-37-1,1,1,,1,,,1,,,40.19419413,141.7270178,
1039,E0320700144201,畑田・沢里公民館,岩手県久慈市畑田24-52-2,1,1,,1,1,,1,,,40.19382737,141.736412,
1040,E0320700145201,久慈高等学校,岩手県久慈市畑田26-96,1,1,,1,1,,1,,1,40.19279935,141.7425758,
1041,E0320700166201,久慈地区合同庁舎,岩手県久慈市八日町1-1,1,1,,1,1,,1,,,40.19211,141.763684,「洪水」、「津波」は建物３階以上
1042,E0320700146201,秋葉館,岩手県久慈市八日町2-25,1,1,,1,,,1,,1,40.19125867,141.7627619,
1043,E0320700147201,大神宮,岩手県久慈市八日町2-73,1,,,1,,,1,,,40.191052604672,141.76155081902,
1044,E0320700148201,長寿庵,岩手県久慈市湊町13-75,1,,1,1,,,1,,,40.20329501,141.7925229,
1045,E0320700149201,金刀比羅神社,岩手県久慈市湊町13-90,1,,1,1,1,,1,,,40.20319306,141.7913524,
1046,E0320700150201,久慈湊小学校,岩手県久慈市湊町15-10-1,,1,,1,,,,,1,40.19666034,141.7853275,
1047,E0320700151201,久慈市中央市民センター久慈湊分館,岩手県久慈市湊町19-8-1,,1,1,1,,,,,1,40.201783166579,141.79080544048,
1048,E0320700152201,湊地区防災センター,岩手県久慈市湊町21-15-4,1,1,1,1,,,1,,1,40.20482127238,141.79189365211,
1049,E0320700153201,湊地区避難タワー,岩手県久慈市湊町23-22-2,1,1,1,,,,1,,,40.20360604825,141.79502757074,
1050,E0320700154201,長泉寺,岩手県久慈市門前1-111,1,1,,1,,,1,,,40.20094387,141.7670644,
1051,E0320700155201,門前子供会館,岩手県久慈市門前1-115-1,1,1,,1,,,1,,1,40.20002448,141.7675443,
1052,E0320700156201,旧北リアス病院,岩手県久慈市門前1-151-1,1,,,1,1,,,,,40.201634,141.769666,
1053,E0320700157201,久慈東高等学校,岩手県久慈市門前36-10,1,1,,1,1,,1,,1,40.20105213,141.7629577,
1054,E0320200001201,旧愛宕小学校（東棟）高台,岩手県宮古市愛宕1-4-5,,,,,1,,,,1,39.643368,141.962326,
1055,E0320200002201,本照寺高台,岩手県宮古市愛宕2-67-1,,,1,,1,,,,,39.64471101,141.9633285,
1056,E0320200003201,磯鶏西・石崎高台,岩手県宮古市磯鶏,,,1,,1,,,,,39.631999254674,141.96045668801,
1057,E0320200004201,宮古商工高等学校商業校舎高台,岩手県宮古市磯鶏3-5-1,,,1,,1,,,,,39.617859256882,141.95965947496,
1058,E0320200199201,宮古港インター高台,岩手県宮古市磯鶏石崎1,,,,,1,,,,,39.633282,141.962189,
1059,E0320200200201,三陸北部森林管理署宮古宿舎（津波避難ビル）,岩手県宮古市磯鶏石崎4-33,,,,,1,,,,,39.631142,141.963165,
1060,E0320200005201,越田山高台,岩手県宮古市磯鶏第４地割100-3,,,1,,1,,,,,39.62580381,141.9635752,
1061,E0320200006201,越田山熊野神社高台,岩手県宮古市磯鶏第４地割89,,,1,,1,,,,,39.62487558,141.9636085,
1062,E0320200007201,横町高台,岩手県宮古市横町118-1,,,1,,1,,,,,39.64468457,141.9514313,
1063,E0320200008201,宮古小学校（校舎棟）,岩手県宮古市横町5-1,1,1,,,,,,,1,39.644357331736,141.94987588091,
1064,E0320200010201,笹見内地区会館高台,岩手県宮古市音部第３地割88-2,,,1,,1,,,,,39.59023612,142.0227044,
1065,E0320200011201,音部神社高台,岩手県宮古市音部第６地割33-2,,,1,,1,,,,,39.59596085,142.0225121,
1066,E0320200012201,夏屋集会所,岩手県宮古市夏屋第２地割95,,1,,,,,,,,39.666556172192,141.59368839418,
1067,E0320200013201,河南中学校高台,岩手県宮古市河南1-1-1,,,1,,1,,,,1,39.622603082335,141.95390124663,
1068,E0320200014201,県立宮古短期大学高台,岩手県宮古市河南1-5-1,,,1,,1,,,,,39.61877694,141.9513964,
1069,E0320200018201,鴨崎高台,岩手県宮古市鴨崎町5-46-1,,,1,,1,,,,,39.643440299237,141.93986754973,
1070,E0320200022201,舘合近隣公園高台,岩手県宮古市舘合町4,,,1,,1,,,,,39.642494,141.9419696,
1071,E0320200023201,市民交流センター（２階）,岩手県宮古市宮町1-1-30,1,1,1,,1,,,,,39.639825170053,141.94605587314,
1072,E0320200196201,岩手県立宮古高等学校（津波避難ビル）,岩手県宮古市宮町2-1-1,,,,,1,,,,,39.637024,141.947784,
1073,E0320200024201,横山八幡宮高台,岩手県宮古市宮町2-5-4,,,1,,1,,,,,39.63795258,141.9437581,
1074,E0320200197201,宮町三丁目高台,岩手県宮古市宮町3-6-40,,,,,1,,,,,39.640766,141.942062,
1075,E0320200028201,金浜稲荷神社高台,岩手県宮古市金浜第１地割13,,,1,,1,,,,,39.598192978948,141.94161354769,
1076,E0320200029201,金浜老人福祉センター高台,岩手県宮古市金浜第１地割7,,,1,,1,,,,,39.5979972,141.9440847,
1077,E0320200032201,区界団地集会所,岩手県宮古市区界第１地割272-1,,1,,,,,,,,39.645093633843,141.36493728517,
1078,E0320200033201,熊野神社高台（熊野町）,岩手県宮古市熊野町3-1-138,,,1,,1,,,,,39.65062867,141.9683543,
1079,E0320200035201,鍬ヶ崎小学校裏高台,岩手県宮古市熊野町76-2,,,1,,1,,,,,39.65006597,141.9666463,
1080,E0320200036201,常安寺分院高台,岩手県宮古市鍬ケ崎上町2-20,,,1,,1,,,,,39.64325629,141.9657306,
1081,E0320200037201,古田コミュニティ消防センター,岩手県宮古市古田1-110-7,,1,,,,,,,,39.60018401866,141.7297732584,
1082,E0320200038201,宮古漁協ビル駐車場高台,岩手県宮古市光岸地4-40,,,1,,1,,,,,39.64072225,141.9667118,
1083,E0320200039201,大杉神社高台,岩手県宮古市光岸地5,,,1,,1,,,,,39.64147611,141.9653853,
1084,E0320200040201,善林寺高台,岩手県宮古市光岸地6-40,,,1,,1,,,,,39.64165039,141.9644631,
1085,E0320200193201,介護施設あお空（津波避難ビル）,岩手県宮古市向町2-34,,,,,1,,,,,39.641651,141.954276,
1086,E0320200042201,赤沢集会所,岩手県宮古市江繋第１地割50-1,,1,,,,,,,,39.533325319136,141.65996530004,
1087,E0320200044201,高浜稲荷神社高台,岩手県宮古市高浜1-7,,,1,,1,,,,,39.60855623,141.9546529,
1088,E0320200045201,コープケミカル高浜住宅高台,岩手県宮古市高浜3,,,1,,1,,,,,39.60589878,141.9521794,
1089,E0320200046201,姉ヶ崎地区センター高台,岩手県宮古市崎鍬ケ崎１６地割240-2,,,1,,1,,,,,39.6810105,141.9728407,
1090,E0320200047201,大付月山神社高台,岩手県宮古市崎鍬ヶ崎第１５地割44-1,,,1,,1,,,,,39.672649,141.9742275,
1091,E0320200048201,大沢若宮神社高台,岩手県宮古市崎鍬ヶ崎第８地割85-1,,,1,,1,,,,,39.66163593,141.9675709,
1092,E0320200049201,女遊戸海水浴場高台,岩手県宮古市崎山,,,1,,1,,,,,39.689458219258,141.96526925465,
1093,E0320200051201,宿高台,岩手県宮古市崎山第３地割,,,1,,1,,,,,39.68466068779,141.97055858668,
1094,E0320200052201,女遊戸高台,岩手県宮古市崎山第５地割50-3,,,1,,1,,,,,39.69309344,141.95256,
1095,E0320200053201,はまゆり学園高台,岩手県宮古市崎山第５地割88,,,1,,1,,,,,39.69729353,141.9505646,
1096,E0320200055201,もみじヶ丘公園高台,岩手県宮古市山口3-5-16,,,1,,1,,,,,39.64698276,141.9333599,
1097,E0320200056202,姉吉キャンプ場高台,岩手県宮古市重茂,,,1,,1,,,,,39.53230748585,142.04965446823,
1098,E0320200056201,石浜神社付近高台,岩手県宮古市重茂,,,1,,1,,,,,39.523893954379,142.02880499377,
1099,E0320200058201,林道鵜磯線高台,岩手県宮古市重茂２６地割19-1,,,1,,1,,,,,39.61283172,142.0223519,
1100,E0320200059201,旧千鶏小学校裏高台,岩手県宮古市重茂第１１地割,,,1,,1,,,,,39.531743052703,142.03365449065,
1101,E0320200060201,千鶏神社高台,岩手県宮古市重茂第１１地割88-4,,,1,,1,,,,,39.53218107,142.0321488,
1102,E0320200061201,千鶏コミュニティ消防センター高台,岩手県宮古市重茂第１５地割,,,1,,1,,,,,39.528809139018,142.03206600199,
