NO,共通ID,施設・場所名,住所,指定緊急避難場所との住所同一,その他市町村長が必要と認める事項,受入対象者,緯度,経度,備考
1,E0632100003111,西里小学校,山形県河北町西里562,1,,,38.414847537116,140.28514043334,
2,E0632100004111,両所活性化センター,山形県河北町西里6346,1,,,38.420210667417,140.2792461363,
3,E0632100006111,西里農村環境改善センター,山形県河北町西里750-7,1,,,38.417859658799,140.28786331229,
4,E0632100011111,北谷地小学校,山形県河北町大字吉田367,1,,,38.444567321073,140.31461220034,
5,E0632100012111,北谷地構造改善センター,山形県河北町大字吉田字馬場261,1,,,38.445354312071,140.31396809063,
6,E0632100014111,溝延小学校,山形県河北町大字溝延字小堤312-1,1,,,38.396489732247,140.31750121366,
7,E0632100015111,溝延研修センター,山形県河北町大字溝延字小堤40,1,,,38.396429837405,140.31512976464,
8,E0632100028111,総合福祉センター,山形県河北町谷地甲2325-3,1,,,38.424565473255,140.31599651691,
9,E0632100030111,谷地南部小学校,山形県河北町谷地荒町東1-7-1,1,,,38.421606613694,140.31761570795,
10,E0632100035111,べに花温泉ひなの湯,山形県河北町谷地字下野269,1,,,38.417730441077,140.32151449429,
11,E0632100040111,河北町職業訓練センター,山形県河北町谷地字所岡142-2,1,,,38.429551749064,140.31026336683,
12,E0632100041111,谷地中部小学校,山形県河北町谷地字所岡73,1,,,38.428615443925,140.3107766407,
13,E0632100042111,河北町民体育館,山形県河北町谷地字所岡77,1,,,38.429598645883,140.31113488172,
14,E0632100045111,県立谷地高等学校,山形県河北町谷地字田中170,1,,,38.422034500483,140.30889440379,
15,E0632100048111,谷地西部小学校,山形県河北町谷地字布田55,1,,,38.43799137237,140.3021224643,
16,E0632100051111,総合交流センターサハトべに花,山形県河北町谷地所岡3-1-10,1,,,38.43146260152,140.30925835968,
17,E0632100055111,河北中学校,山形県河北町谷地中央4-12-1,1,,,38.418890871836,140.31030898696,
18,E0620600003111,寒河江小学校,山形県寒河江市丸内1-3-8,1,,,38.37647812594,140.27961140547,
19,E0620600005111,寒河江中部小学校,山形県寒河江市元町2-19,1,,,38.370726622523,140.27180443592,
20,E0620600011111,三泉小学校,山形県寒河江市字中河原191-1,1,,,38.405623235781,140.28539875197,
21,E0620600018111,旧幸生小学校,山形県寒河江市大字幸生550,1,,,38.452422052548,140.20220119991,
22,E0620600019111,南部小学校,山形県寒河江市大字高屋字北江11,1,洪水時は校舎2階以上に避難すること,,38.358187276199,140.28205130984,
23,E0620600020111,柴橋小学校,山形県寒河江市大字柴橋1923,1,,,38.369377005367,140.24100716916,
24,E0620600022111,柴橋地区コミュニティセンター,山形県寒河江市大字柴橋1988-6,1,,,38.370112130694,140.24217627337,
25,E0620600023111,西部地区公民館,山形県寒河江市大字清助新田930,1,,,38.405401659726,140.23578445524,
26,E0620600025111,西根小学校,山形県寒河江市大字西根170,1,,,38.383366905191,140.28998340782,
27,E0620600026111,陵東中学校,山形県寒河江市大字西根430,1,,,38.39297276057,140.27841476714,
28,E0620600028111,勤労青少年ホーム,山形県寒河江市大字西根字石川西333,1,,,38.389048959899,140.27592506562,
29,E0620600028112,中央公民館,山形県寒河江市大字西根字石川西333,1,,,38.389217147548,140.27590897236,
30,E0620600029111,市民体育館,山形県寒河江市大字西根字石川西365,1,,,38.390501159511,140.27544194823,
31,E0620600030111,南部地区公民館,山形県寒河江市大字島225,1,,,38.355111440748,140.27900657791,
32,E0620600033111,醍醐小学校,山形県寒河江市大字日和田6-1,1,,,38.4061257942,140.253365007,
33,E0620600035111,しらいわ保育所,山形県寒河江市大字白岩1296-2,1,,,38.408242,140.228424,
34,E0620600036111,白岩小学校,山形県寒河江市大字白岩1848,1,,,38.410959404169,140.22892659518,
35,E0620600037111,老人福祉センター,山形県寒河江市大字白岩字大江寺415,,,,38.409665892292,140.22153117077,
36,E0620600038111,さくらんぼ会館,山形県寒河江市大字八鍬字川原919-6,1,,,38.398828588344,140.27221469047,
37,E0620600039111,陵西中学校,山形県寒河江市大字八鍬字富沢836,1,,,38.404741427201,140.24005997874,
38,E0620600040112,高松小学校,山形県寒河江市大字米沢643-2,1,,,38.401392384811,140.2420846504,
39,E0620600040111,たかまつ保育所,山形県寒河江市大字米沢643-2,1,,,38.4006820603,140.242901168,
40,E0620600052111,寒河江市立図書館,山形県寒河江市中央1-7-14,1,,,38.380778,140.2779,
41,E0620600051111,技術交流プラザ,山形県寒河江市中央工業団地153-1,1,,,38.387127,140.254486,
42,E0620600043111,陵南中学校,山形県寒河江市内の袋1-11-1,1,,,38.372440921118,140.26130081004,
43,E0620600046111,なか保育所,山形県寒河江市八幡町1-10,1,,,38.379493412952,140.27510569548,
44,E0620600049111,県立寒河江工業高等学校,山形県寒河江市緑町148,1,,,38.385162,140.25884,
45,E0620600050111,県立寒河江高等学校,山形県寒河江市六供町2-3-9,1,,,38.38070270607,140.2698379527,
46,E0636100001111,旧明安小学校体育館,山形県金山町大字下野明1696-1,1,,,38.8628167280729,140.350493052669,
47,E0636100002112,金山小学校体育館,山形県金山町大字金山108-2,1,,,38.883525,140.341977,
48,E0636100004111,勤労者体育センター,山形県金山町大字金山556-4,1,,,38.8778699428416,140.332028884998,
49,E0636100005111,地域福祉センターやくし苑,山形県金山町大字金山561,1,,,38.8779532501247,140.332807234821,
50,E0636100006111,金山町中央公民館（農村環境改善センター）,山形県金山町大字金山571,1,,,38.8773340377424,140.332513624792,
51,E0636100007111,金山中学校体育館,山形県金山町大字金山641,1,,,38.883306503853,140.333778880148,
52,E0636100010111,旧中田小学校体育館,山形県金山町大字中田637-2,1,,,38.9220007871657,140.3360285581,
53,E0636100012111,旧有屋小学校体育館,山形県金山町大字有屋484-11,1,,,38.9044031435655,140.377213747273,
54,E0636700010111,角川保育所,山形県戸沢村大字角川452-1,1,,,38.697751136138,140.15076678339,
55,E0636700012111,農村環境改善センター,山形県戸沢村大字角川481-1,1,,,38.697108052598,140.15084011743,
56,E0636700013111,角川中学校,山形県戸沢村大字角川582,1,,,38.693583720123,140.15097622265,
57,E0636700019111,古口保育所,山形県戸沢村大字古口199-3,1,,,38.737855338214,140.1462836877,
58,E0636700021111,保健センター,山形県戸沢村大字古口2664-1,1,,,38.737559159993,140.14228988964,
59,E0636700027111,ぽんぽ館,山形県戸沢村大字松坂155,1,,,38.783400490196,140.18369205207,
60,E0636700032111,神田保育所,山形県戸沢村大字神田3645-1,1,,,38.766372166069,140.17759882042,
61,E0636700037121,まごころ荘,山形県戸沢村大字蔵岡2759,,,要配慮者,38.734839300028,140.173832978,
62,E0636700038111,戸沢中学校,山形県戸沢村大字蔵岡2905-7,1,,,38.731303013902,140.17364667078,
63,E0636700040121,清流園,山形県戸沢村大字蔵岡3718,,,要配慮者,38.733431745864,140.17482483306,
64,E0636700041111,若者センター,山形県戸沢村大字蔵岡3718-1,1,,,38.734546827183,140.17575960699,
65,E0636700045111,戸沢小学校,山形県戸沢村大字名高1592,1,,,38.749943017373,140.17950439193,
66,E0636700046111,戸沢保育所,山形県戸沢村大字名高1593-393,1,,,38.747068134023,140.17853403161,
67,E0636700047111,中央公民館,山形県戸沢村大字名高1593-86,1,,,38.747559535617,140.1783506209,
68,E0638100001111,県立考古資料館,山形県高畠町大字安久津2117,1,,,38.007937290201,140.21451367431,
69,E0638100003111,県立高畠高等学校,山形県高畠町大字一本柳2788,1,,,37.994814776755,140.15741533285,
70,E0638100004111,亀岡地区公民館,山形県高畠町大字亀岡2843-2,1,,,37.978337652292,140.17389955899,
71,E0638100005111,亀岡小学校,山形県高畠町大字亀岡2916,1,,,37.977939801734,140.1731834815,
72,E0638100006111,和田小学校,山形県高畠町大字元和田1306,1,,,37.957946918603,140.19212192041,
73,E0638100007111,和田地区公民館,山形県高畠町大字元和田1315-10,1,,,37.957632336523,140.19078252274,
74,E0638100008111,町営第二体育館,山形県高畠町大字元和田650,1,,,37.963195701266,140.18449720491,
75,E0638100010111,高畠小学校,山形県高畠町大字高畠3547,1,,,38.001351213264,140.20176065133,
76,E0638100011111,高畠町武道館,山形県高畠町大字高畠430-1,1,,,38.002037574334,140.19084106199,
77,E0638100012111,高畠町営体育館,山形県高畠町大字高畠435,1,,,38.002825924553,140.19089738838,
78,E0638100013111,高畠町総合交流プラザ,山形県高畠町大字高畠906,1,,,38.001622788585,140.19727543677,
79,E0638100015111,旧時沢小学校,山形県高畠町大字時沢1256-1,1,,,38.043696314487,140.21718362297,
80,E0638100016111,糠野目小学校,山形県高畠町大字上平柳2070,1,,,37.992299811958,140.14252063724,
81,E0638100017111,上和田交流館,山形県高畠町大字上和田72-2,1,,,37.950212236404,140.21209037581,
82,E0638100018111,屋代小学校,山形県高畠町大字深沼30,1,,,38.012696714168,140.17526054281,
83,E0638100019111,高畠中学校,山形県高畠町大字相森550,1,,,37.998429186847,140.17900209984,
84,E0638100020111,屋代地区公民館,山形県高畠町大字竹森58-2,1,,,38.013648524781,140.17825439016,
85,E0638100021111,二井宿小学校,山形県高畠町大字二井宿2750,1,,,38.018929555401,140.25734265167,
86,E0638100022111,二井宿地区公民館,山形県高畠町大字二井宿2796,1,,,38.019948944976,140.25772898815,
87,E0638100023111,高畠町屋内遊戯場,山形県高畠町大字福沢196,1,,,37.990109830603,140.14829982283,
88,E0638100024111,糠野目生涯学習センター,山形県高畠町福沢南9-2,1,,,37.990971680098,140.14899074576,
89,E0636200001111,旧月楯小学校体育館,山形県最上町大字月楯145-5,1,,,38.752570039699,140.49688738358,
90,E0636200010111,最上町中央公民館,山形県最上町大字向町674,1,,,38.759285553422,140.51951694852,
91,E0636200012121,特別養護老人ホーム紅梅荘,山形県最上町大字向町73-3,,左記のうち、町が特定し、環境調整を行った者,高齢者（要介護3程度）,38.7523291347016,140.515499174437,
92,E0636200013111,最上町立最上中学校　体育館,山形県最上町大字向町760,1,,,38.760099427175,140.52192185824,
93,E0636200015111,最上町立向町小学校　体育館,山形県最上町大字向町869-1,1,,,38.761442168604,140.52572523063,
94,E0636200019111,最上町立大堀小学校　体育館,山形県最上町大字志茂127,1,,,38.767960920363,140.47678607186,
95,E0636200029111,旧瀬見小学校体育館,山形県最上町大字大堀742,1,,,38.754172237583,140.42110871672,
96,E0636200030111,旧東法田小学校体育館,山形県最上町大字東法田397,1,,,38.793250612208,140.50813336995,
97,E0636200032111,旧富沢小学校体育館,山形県最上町大字富沢1168,1,,,38.730501956805,140.55081491997,
98,E0636200040121,障害者支援施設最上ふれあい学園,山形県最上町大字富沢4467,,左記のうち、町が特定し、環境調整を行った者,原則は知的障害者、他は要調整,38.720876368154,140.553617820576,
99,E0636200042111,旧赤倉小学校体育館,山形県最上町大字富沢981,1,,,38.713501431656,140.55341129047,
100,E0636600008111,鮭川小学校,山形県鮭川村大字佐渡2000-2,,,,38.7944904424972,140.217606774465,
101,E0636600009111,農村交流センター,山形県鮭川村大字佐渡2003-7,,,,38.796172,140.222602,
102,E0636600013121,特別養護老人ホーム　ひめゆり荘,山形県鮭川村大字石名坂589-7,,,,38.8350843799501,140.287203916482,
103,E0636600021111,鮭川村中央公民館,山形県鮭川村大字庭月1324-2,,,,38.817105619673,140.233903058944,
104,E0636600023111,鮭川中学校,山形県鮭川村大字庭月2510-1,,,,38.8311277758486,140.229371322306,
105,E0642600001111,押切小学校,山形県三川町押切新田字高前1,1,,,38.8060106544756,139.855417070437,
106,E0642600002111,テオトル,山形県三川町押切新田字桜木8-1,1,,,38.7967301247736,139.849294308456,
107,E0642600004111,みかわ保育園・幼稚園,山形県三川町押切新田字豊秋100,1,,,38.8074282430834,139.853408417429,
108,E0642600006111,三川町社会福祉センター,山形県三川町横山字西田85-2,1,,,38.7936963611001,139.848340247121,
109,E0642600008111,横山小学校,山形県三川町横山字大正140,1,,,38.777104027881,139.852884288047,
110,E0642600009111,三川中学校,山形県三川町横山字堤105,1,,,38.7864055041516,139.846821224164,
111,E0642600010111,三川町民体育館,山形県三川町横山字堤105-5,1,,,38.7851499934495,139.845891108079,
112,E0642600011111,なの花ホール,山形県三川町横山字堤172-1,1,,,38.7826863019029,139.846458956931,
113,E0642600012111,アスレなの花,山形県三川町横山字堤215,1,,,38.7861400407997,139.848145720144,
114,E0642600014111,東郷小学校,山形県三川町神花字六瀬297-1,1,,,38.8036258564924,139.842733439862,
115,E0642600016121,特別養護老人ホームなの花荘,山形県三川町大字横山字堤189-2,,,高齢者、要介護者,38.782035,139.848747,
116,E0642600017121,ふれあい館,山形県三川町大字横山字堤189-3,,,高齢者、要介護者,38.781745,139.848629,
117,E0620100003111,商業高等学校（体育館）,山形県山形市あかねケ丘1-9-1,1,,,38.250600260316,140.31098159739,
118,E0620100005111,山形刑務所（鍛錬場）,山形県山形市あけぼの2-1-1,,,,38.312268935273,140.35890368794,
119,E0620100011121,特別養護老人ホーム　菅沢荘,山形県山形市すげさわの丘46,,,要配慮者,38.22655467493,140.26778687709,
120,E0620100012121,介護老人保健施設　サニーヒル菅沢,山形県山形市すげさわの丘727-20,,,要配慮者,38.223328126422,140.268396754519,
121,E0620100355121,障がい者支援施設すげさわの丘,山形県山形市すげさわの丘727-47,,,要配慮者,38.2224672,140.2675085,
122,E0620100017111,みはらしの丘小学校（体育館）,山形県山形市みはらしの丘3-4,1,,,38.188386084228,140.2873070555,
123,E0620100019121,特別養護老人ホーム　みはらしの丘,山形県山形市みはらしの丘4-15-3,,,要配慮者,38.182163125478,140.2898594985,
124,E0620100021111,第十小学校（体育館）,山形県山形市やよい2-6-1,1,,,38.25633871518,140.30897823996,
125,E0620100024111,飯塚コミュニティセンター,山形県山形市横道7,1,,,38.255902198352,140.29422862475,
126,E0620100030111,第四中学校（体育館）,山形県山形市花楯2-10-48,1,,,38.273658180041,140.34952507852,
127,E0620100036121,特別養護老人ホーム　なごみの里,山形県山形市吉原3-10-8,,,要配慮者,38.230441842165,140.30685050617,
128,E0620100039121,小規模特別養護老人ホーム　あっぷるの里久保田,山形県山形市久保田1-7-7,,,要配慮者,38.248381009877,140.3187672246,
129,E0620100042111,宮浦小学校（体育館）,山形県山形市宮浦17-3,1,,,38.259536532174,140.29650682888,
130,E0620100045121,介護付有料老人ホーム　ベル宮町,山形県山形市宮町1-7-18,,,要配慮者,38.264341146541,140.33405827534,
131,E0620100049111,北部公民館,山形県山形市宮町4-17-13,1,,,38.267586616484,140.3411956797,
132,E0620100050111,第三小学校（体育館）,山形県山形市宮町5-7-58,1,,,38.262699924358,140.33866482102,
133,E0620100051111,椹沢コミュニティセンター,山形県山形市金石田8-2,1,,,38.267233852697,140.29216640971,
134,E0620100054111,元木公民館,山形県山形市元木3-4-8,1,,,38.222635968399,140.31893750303,
135,E0620100058111,江南体育館,山形県山形市江南1-1-27,1,,,38.268396522834,140.32274469198,
136,E0620100058112,江南公民館,山形県山形市江南1-1-27,1,,,38.268356511657,140.32346352401,
137,E0620100066121,ホテルメトロポリタン,山形県山形市香澄町1-1-1,,,要配慮者,38.2482800611517,140.327699013144,
138,E0620100068121,ユトリアケアセンターかすみ,山形県山形市香澄町2-3-32,,,要配慮者,38.246853228693,140.33256752251,
139,E0620100069111,山形市民会館,山形県山形市香澄町2-9-45,,,,38.2486842026785,140.332908616663,
140,E0620100070121,山形国際ホテル,山形県山形市香澄町3-4-5,,,要配慮者,38.2458533765458,140.331388079327,
141,E0620100071111,第二小学校（体育館）,山形県山形市香澄町3-9-38,1,,,38.245249943983,140.33054325795,
142,E0620100077111,桜田小学校（体育館）,山形県山形市桜田東1-1-30,1,,,38.22173533005,140.32055311835,
143,E0620100081121,ニチイケアセンター山形三日町　有料老人ホームきらめき,山形県山形市三日町1-3-48,,,要配慮者,38.240634134692,140.33831204374,
144,E0620100083111,鈴川コミュニティセンター,山形県山形市山家町2-4-48,,,,38.265205872405,140.36087371432,
145,E0620100084121,山形七日町ワシントンホテル,山形県山形市七日町1-4-31,,,要配慮者,38.2535855993285,140.339001563991,
146,E0620100085121,介護付有料老人ホーム　ときめき七日町,山形県山形市七日町3-3-27,,,要配慮者,38.254252079415,140.34209549006,
147,E0620100086121,特別養護老人ホーム　七日町こまくさ園,山形県山形市七日町4-5-20,,,要配慮者,38.252895429119,140.34492689102,
148,E0620100087111,第十中学校（体育館）,山形県山形市若宮1-10-12,1,,,38.22735516877,140.30930379959,
149,E0620100090121,介護付有料老人ホーム　ソーレ吉原,山形県山形市若宮2-8-3,,,要配慮者,38.223970401692,140.31113822796,
150,E0620100094121,介護福祉施設　燦燦,山形県山形市十文字字大原848-1,,,要配慮者,38.309960716547,140.37767811482,
151,E0620100098121,小規模特別養護老人ホーム　福寿草小荷駄町,山形県山形市小荷駄町12-46,,,要配慮者,38.238053400529,140.34285398302,
152,E0620100099112,南部公民館,山形県山形市小荷駄町7-110,1,,,38.240404052664,140.34079067031,
153,E0620100099111,南部体育館,山形県山形市小荷駄町7-110,1,,,38.240526238971,140.34116886179,
154,E0620100102111,山形大学（体育館）,山形県山形市小白川町1-4-12,1,,,38.245658326672,140.34881963825,
155,E0620100104111,福祉体育館,山形県山形市小白川町2-3-33,1,,,38.249955396466,140.35159317373,
156,E0620100105111,東部公民館及び福祉文化センター,山形県山形市小白川町2-3-47,1,,,38.249413886293,140.35158101638,
157,E0620100106111,第八小学校（体育館）,山形県山形市小白川町2-8-36,1,,,38.248629465328,140.35355671576,
158,E0620100117111,滝山小学校（体育館）,山形県山形市小立4-13-86,1,,,38.226911075404,140.34523771726,
159,E0620100124111,山形大学附属小学校（体育館）,山形県山形市松波2-7-2,1,,,38.24097423752,140.35942353715,
160,E0620100125111,山形大学附属中学校（体育館）,山形県山形市松波2-7-3,1,,,38.240312088007,140.36019371054,
161,E0620100126111,第一中学校（体育館）,山形県山形市松波3-1-15,1,,,38.241480121988,140.36718168851,
162,E0620100127121,小規模特別養護老人ホーム　東部の郷,山形県山形市松波3-4-5,,,要配慮者,38.242395904046,140.36747298913,
163,E0620100130111,滝山コミュニティセンター,山形県山形市上桜田1-17-26,,,,38.221475494384,140.34048251303,
164,E0620100356121,有料老人ホーム　多機能ホーム樫の木,山形県山形市上町4-6-24,,,要配慮者,38.24442,140.31324,
165,E0620100138111,霞城公民館及び総合学習センター,山形県山形市城西町2-2-15,1,,,38.254214841546,140.32185943353,
166,E0620100143121,山形駅西口ワシントンホテル,山形県山形市城南町1-1-1,,,要配慮者,38.2496595790836,140.32701176689,
167,E0620100148111,第七小学校（体育館）,山形県山形市城北町2-9-37,1,,,38.26035783265,140.3268615297,
168,E0620100151111,金井中学校（体育館）,山形県山形市陣場3-12-25,1,,,38.279749723409,140.30409455065,
169,E0620100152111,金井小学校（体育館）,山形県山形市陣場3-7-60,1,,,38.278622751544,140.30114263804,
170,E0620100154121,介護付有料老人ホーム　せなみ米喜家,山形県山形市瀬波1-11-11,,,要配慮者,38.281049011863,140.30821159596,
171,E0620100159121,ユトリアケアセンターなりさわ,山形県山形市成沢西4-2-20,,,要配慮者,38.2069539968718,140.317075245432,
172,E0620100160111,蔵王第一小学校（体育館）,山形県山形市成沢西4-3-17,1,,,38.206719126264,140.31782639286,
173,E0620100163121,株式会社ケアネット徳洲会　スマイルコート清住,山形県山形市清住町2-3-70,,,要配慮者,38.256145956985,140.31242334653,
174,E0620100165111,第二中学校（体育館）,山形県山形市西崎62,1,,,38.262163941082,140.30799644423,
175,E0620100167111,西小学校（体育館）,山形県山形市西田3-2-1,1,,,38.266117431717,140.31568944129,
176,E0620100171111,南小学校（体育館）,山形県山形市青田2-1-1,1,,,38.225636454267,140.33155726713,
177,E0620100176111,東小学校（体育館）,山形県山形市泉町19-31,1,,,38.273339599973,140.3450384275,
178,E0620100179121,介護付有料老人ホーム　ソーレ前田,山形県山形市前田町14-5,,,要配慮者,38.238845147714,140.35114895044,
179,E0620100181111,山形テルサ,山形県山形市双葉町1-2-3,,,,38.2470264123596,140.324703899066,
180,E0620100183111,第三中学校（体育館）,山形県山形市双葉町2-1-10,1,,,38.249446147824,140.32158642755,
181,E0620100185111,第四小学校（体育館）,山形県山形市相生町4-37,1,,,38.258491985418,140.33657620206,
182,E0620100189111,蔵王体育館,山形県山形市蔵王温泉字上の台103,,,,38.169636661775,140.39527832999,
183,E0620100190111,蔵王第三小学校・蔵王第二中学校（体育館）,山形県山形市蔵王温泉字丈二田727,1,,,38.170267992249,140.39221556177,
184,E0620100193121,特別養護老人ホーム　蔵王やすらぎの里,山形県山形市蔵王上野920,,,要配慮者,38.175933038699,140.31674342457,
185,E0620100194111,蔵王第二小学校（体育館）,山形県山形市蔵王上野字南坂2116,1,,,38.177664570252,140.31885412586,
186,E0620100197111,蔵王第一中学校（体育館）,山形県山形市蔵王南成沢34,1,,,38.196474,140.315999,
187,E0620100198111,蔵王コミュニティセンター,山形県山形市蔵王半郷1028,1,,,38.193216053731,140.31919493193,
188,E0620100199121,まんさくの丘,山形県山形市蔵王半郷1366-2,,,要配慮者,38.1919508572835,140.319918838182,
189,E0620100200111,高瀬小学校（体育館）,山形県山形市大字下東山1264,1,,,38.295695248788,140.40077809661,
190,E0620100201111,高瀬コミュニティセンター,山形県山形市大字下東山1360,1,,,38.291996491392,140.40295659572,
191,E0620100202111,明治小学校（体育館）,山形県山形市大字灰塚454,1,,,38.330554875665,140.32102910539,
192,E0620100203121,山形市養護老人ホーム　あたご荘,山形県山形市大字岩波5,,,要配慮者,38.223100811912,140.35001233943,
193,E0620100204111,山寺小学校・中学校（体育館）,山形県山形市大字山寺1650,1,,,38.309818873475,140.42663791656,
194,E0620100205121,介護老人保健施設　サニーヒル山寺,山形県山形市大字山寺1973-335,,,要配慮者,38.3118038954943,140.412576113063,
195,E0620100206111,山寺コミュニティセンター,山形県山形市大字山寺517-1,1,,,38.312415757941,140.4246708052,
196,E0620100361111,山寺芭蕉記念館,山形県山形市大字山寺字南院4223,,,,38.309666,140.439022,
197,E0620100207111,出羽小学校（体育館）,山形県山形市大字漆山3169,1,,,38.312476944947,140.34111008171,
198,E0620100209121,特別養護老人ホーム　せん寿ノ杜,山形県山形市大字漆山字住吉715,,,要配慮者,38.3098489897103,140.352419379105,
199,E0620100211111,明治コミュニティセンター,山形県山形市大字渋江979,1,,,38.325557379894,140.31936891545,
200,E0620100212111,南山形コミュニティセンター,山形県山形市大字松原203-1,1,,,38.199937026031,140.30589370343,
201,E0620100213121,小規模特別養護老人ホーム　みこころの園南山形,山形県山形市大字松原字横手779-1,,,要配慮者,38.207318172118,140.30180876044,
202,E0620100215111,南山形小学校（体育館）,山形県山形市大字松原字東河原188,1,,,38.201385859162,140.30750235267,
203,E0620100216121,特別養護老人ホーム　沼木敬寿園,山形県山形市大字沼木68-1,,,要配慮者,38.244450893326,140.2915158098,
204,E0620100218121,指定介護老人福祉施設　みこころの園,山形県山形市大字沼木字下河原1129-1,,,要配慮者,38.250822914204,140.28507234356,
205,E0620100219121,特別養護老人ホーム　山静寿,山形県山形市大字沼木字下河原1133-1,,,要配慮者,38.25163094881,140.2866272462,
206,E0620100223111,大曽根小学校（体育館）,山形県山形市大字上反田278,1,,,38.269793615484,140.25743873199,
207,E0620100224121,小規模特別養護老人ホーム　大曽根,山形県山形市大字上反田811-1,,,要配慮者,38.268804968682,140.25642459676,
208,E0620100225111,大曽根コミュニティセンター,山形県山形市大字上反田811-2,1,,,38.269341274235,140.25637249973,
209,E0620100226111,金井コミュニティセンター,山形県山形市大字陣場903,1,,,38.282320975204,140.30552992765,
210,E0620100227121,特別養護老人ホーム　いきいきの郷,山形県山形市大字成安425-2,,,要配慮者,38.323197469449,140.31110581081,
211,E0620100228111,楯山小学校（体育館）,山形県山形市大字青柳字一本木64,1,,,38.302293804578,140.36651587116,
212,E0620100229111,出羽コミュニティセンター,山形県山形市大字千手堂404-1,1,,,38.311016766923,140.33925713253,
213,E0620100230111,村木沢コミュニティセンター,山形県山形市大字村木沢1672-1,1,,,38.250649199305,140.26635407308,
214,E0620100231111,村木沢小学校（体育館）,山形県山形市大字村木沢6046,1,,,38.252953386539,140.26170673799,
215,E0620100232111,第八中学校（体育館）,山形県山形市大字村木沢字河原田1620-2,1,,,38.249664488577,140.26739744817,
216,E0620100233121,特別養護老人ホーム　サンシャイン大森,山形県山形市大字大森2139-1,,,要配慮者,38.306695388765,140.38629291606,
217,E0620100234121,山形県リハビリセンター,山形県山形市大字大森385,,,要配慮者,38.3123644186613,140.38997653077,
218,E0620100235121,特別養護老人ホーム　べにはなノ杜,山形県山形市大字大森853,,,要配慮者,38.311015682229,140.38648601113,
219,E0620100236111,大郷小学校（体育館）,山形県山形市大字中野506,1,,,38.305738086652,140.30357767332,
220,E0620100237111,大郷コミュニティセンター,山形県山形市大字中野543,1,,,38.307373641325,140.30650232838,
221,E0620100239111,高楯中学校（体育館）,山形県山形市大字中里38,1,,,38.302722264138,140.38209348064,
222,E0620100240111,本沢コミュニティセンター,山形県山形市大字長谷堂1070-1,1,,,38.21697565133,140.27883382865,
223,E0620100241111,本沢小学校（体育館）,山形県山形市大字長谷堂1111-1,1,,,38.216355768061,140.28007106539,
224,E0620100242111,第九中学校（体育館）,山形県山形市大字津金沢字中谷地657,1,,,38.209830424046,140.29795277891,
225,E0620100353111,西山形小学校（体育館）,山形県山形市大字柏倉3774-1,1,,,38.235917,140.272453,
226,E0620100243111,西山形コミュニティセンター,山形県山形市大字柏倉3776-3,1,,,38.235783,140.271445,
227,E0620100245111,楯山コミュニティセンター,山形県山形市大字風間1181-1,1,,,38.300082293796,140.36899775454,
228,E0620100246111,東北文教大学（体育館）,山形県山形市大字片谷地515,,,,38.2104798553908,140.303208555843,
229,E0620100247111,東沢コミュニティセンター,山形県山形市大字妙見寺4,1,,,38.2408338673,140.38157285947,
230,E0620100247121,特別養護老人ホーム　愛日荘,山形県山形市大字妙見寺4,1,,要配慮者,38.240484162596,140.38121880789,
231,E0620100248121,軽費老人ホームケアハウス　敬寿園,山形県山形市大字妙見寺500-1,,,要配慮者,38.236971386682,140.37781525941,
232,E0620100249111,元双葉小学校（体育館）,山形県山形市大字門伝字荻の窪2836,1,,,38.235977665732,140.23208025524,
233,E0620100250121,特別養護老人ホーム　鈴川敬寿園,山形県山形市大野目2-2-67,,,要配慮者,38.277627629731,140.3566325175,
234,E0620100252121,介護付有料老人ホーム　ソーレ中桜田,山形県山形市中桜田2-12-7,,,要配慮者,38.218053363988,140.33385090513,
235,E0620100259121,特別養護老人ホーム　ながまち荘,山形県山形市長町751,,,要配慮者,38.290722519191,140.33391937792,
236,E0620100261111,山形西高等学校（体育館）,山形県山形市鉄砲町1-15-64,1,,,38.237569587304,140.32845535132,
237,E0620100262111,山形中央高等学校（体育館）,山形県山形市鉄砲町2-10-73,1,,,38.237666315448,140.33523511847,
238,E0620100263111,第六小学校（体育館）,山形県山形市鉄砲町2-9-55,1,,,38.237860590535,140.33251260497,
239,E0620100264111,第七中学校（体育館）,山形県山形市天神町2520,1,,,38.310123013506,140.32720808604,
240,E0620100267121,山形小木医科器械株式会社　介護付有料老人ホーム　フォーリーフ嶋,山形県山形市嶋北1-16-35,,,要配慮者,38.288104698587,140.32428339044,
241,E0620100270121,特別養護老人ホーム　さくらホーム山形,山形県山形市嶋北3-14-24,,,要配慮者,38.290842000091,140.31964646531,
242,E0620100358121,サービス付き高齢者向け住宅　清永の里,山形県山形市嶋北4-4-13,,,要配慮者,38.288979,140.317627,
243,E0620100272111,第五小学校（体育館）,山形県山形市東原町1-1-9,1,,,38.247589720218,140.34533377036,
244,E0620100274111,山形南高等学校（体育館）,山形県山形市東原町4-6-16,1,,,38.240917877417,140.34709724284,
245,E0620100278121,特別養護老人ホーム　滝山なごみの里,山形県山形市東青田2-6-4,,,要配慮者,38.225553943437,140.34121983925,
246,E0620100282121,特別養護老人ホーム　やすらぎの里金井,山形県山形市内表東1,,,要配慮者,38.2871941337,140.3072519893,
247,E0620100286111,南沼原コミュニティセンター,山形県山形市南館西19-11,1,,,38.236340858177,140.3003181198,
248,E0620100288111,第六中学校（体育館）,山形県山形市南原町2-3-55,1,,,38.236415521357,140.33980028149,
249,E0620100294111,第九小学校（体育館）,山形県山形市馬見ケ崎2-5-1,1,,,38.279897944223,140.32958853624,
250,E0620100354111,南沼原小学校（体育館）,山形県山形市飯沢59-2,1,,,38.239292,140.305155,
251,E0620100299121,特別養護老人ホーム　飯塚なごみの里,山形県山形市飯塚町1447-4,,,要配慮者,38.255507187899,140.30052071157,
252,E0620100302121,特別養護老人ホーム　福寿乃郷,山形県山形市飯田2-7-30,,,要配慮者,38.216628299575,140.32684515778,
253,E0620100307111,べにっこひろば,山形県山形市樋越22,,,,38.286113,140.327189,
254,E0620100357121,サービス付き高齢者向け住宅　グランドホーム樫の木,山形県山形市桧町1-10-10,,,要配慮者,38.274996,140.337668,
255,E0620100310121,特別養護老人ホーム　あかしや共生苑,山形県山形市桧町3-4-17,,,要配慮者,38.2755046225825,140.328231416388,
256,E0620100311121,ニチイケアセンター山形桧町　有料老人ホームきらめき,山形県山形市桧町4-3-48,,,要配慮者,38.274727033874,140.32572596024,
257,E0620100359111,道の駅やまがた蔵王,山形県山形市表蔵王79-1,1,,,38.18924,140.312744,
258,E0620100314121,特別養護老人ホーム　とかみ共生苑,山形県山形市富神前6,,,要配慮者,38.237095979804,140.26300858529,
259,E0620100316111,東沢小学校（体育館）,山形県山形市防原町4-15,1,,,38.239663026936,140.39459889253,
260,E0620100322121,介護付有料老人ホーム　ベル北町,山形県山形市北町4-11-13,,,要配慮者,38.273183138258,140.33275986193,
261,E0620100360111,やまがたクリエイティブシティセンターＱ１,山形県山形市本町1-5-19,,,,38.250507,140.335968,
262,E0620100324111,第一小学校（体育館）,山形県山形市本町1-5-24,1,,,38.249901581009,140.335954587,
263,E0620100325121,山形グランドホテル,山形県山形市本町1-7-42,,,要配慮者,38.2505922424561,140.337189173622,
264,E0620100329111,第五中学校（体育館）,山形県山形市薬師町1-14-10,1,,,38.263440107098,140.34328534119,
265,E0620100333111,山形市総合スポーツセンター,山形県山形市落合町1,,,,38.2820696263751,140.347835269598,
266,E0620100334111,千歳コミュニティセンター,山形県山形市落合町1087-1,1,,,38.287463719204,140.34383000659,
267,E0620100335111,千歳小学校（体育館）,山形県山形市落合町1359,1,,,38.285066685875,140.34477093739,
268,E0620100336121,特別養護老人ホーム　ちとせノ杜,山形県山形市落合町205,,,要配慮者,38.283815568875,140.35039477168,
269,E0620100341121,サービス付き高齢者向け住宅　グランドホームはたごまち,山形県山形市旅篭町1-7-23,,,要配慮者,38.255068497754,140.33477413278,
270,E0620100342111,山形工業高等学校（体育館）,山形県山形市緑町1-5-12,1,,,38.2589203911029,140.347161906799,
271,E0620100343111,山形東高等学校（体育館）,山形県山形市緑町1-5-87,1,,,38.257903153296,140.34657765537,
272,E0620100344111,山形北高等学校（体育館）,山形県山形市緑町2-2-7,1,,,38.254548578908,140.34949614151,
273,E0620100348111,鈴川小学校（体育館）,山形県山形市鈴川町3-7-10,1,,,38.268285134468,140.3577217639,
274,E0620100349111,西部公民館,山形県山形市篭田1-2-23,1,,,38.241206492534,140.32100380375,
275,E0620100352121,六日町あいあい　特別養護老人ホーム,山形県山形市六日町2-7,,,要配慮者,38.260480834755,140.3407988372,
276,E0630100002112,近江公民館,山形県山辺町近江3-37,1,,,38.2815386161,140.27139828852,
277,E0630100004111,山辺中学校体育館,山形県山辺町清水1-1,1,,,38.286605357198,140.26313224853,
278,E0630100005111,相模公民館,山形県山辺町大字根際2279-1,1,,,38.281078737599,140.25364499774,
279,E0630100006111,相模小学校体育館,山形県山辺町大字根際2283,1,,,38.280463257086,140.25225509636,
280,E0630100007111,山辺町中央公民館,山形県山辺町大字山辺1,1,,,38.296566565059,140.26699163,
281,E0630100008111,山辺南部公民館,山形県山辺町大字山辺1420,1,,,38.290340447087,140.26871143534,
282,E0630100011111,山辺東部公民館,山形県山辺町大字山辺2805-2,1,,,38.296175545441,140.27653376774,
283,E0630100012111,県立山辺高等学校体育館,山形県山辺町大字山辺3028,1,,,38.288076704696,140.27050949533,
284,E0630100014111,山辺小学校体育館,山形県山辺町大字山辺55,1,,,38.297302470225,140.26475670697,
285,E0630100016111,山辺北部公民館,山形県山辺町大字山辺975,1,,,38.300042038302,140.26506468944,
286,E0630100017111,旧大寺小学校体育館,山形県山辺町大字大寺1150,1,,,38.307037606952,140.26345086267,
287,E0630100018111,大寺公民館,山形県山辺町大字大寺1751,1,,,38.304620484384,140.26100422702,
288,E0630100021111,保健福祉センター,山形県山辺町大字大塚836-1,1,,,38.279719149452,140.27593335147,
289,E0630100023111,役場中支所・公民館,山形県山辺町大字大蕨1173-1,1,,,38.288839285969,140.20021943873,
290,E0630100025111,役場作谷沢支所・公民館,山形県山辺町大字簗沢3102-1,1,,,38.262251815626,140.19055777229,
291,E0630100026111,旧作谷沢小・中学校体育館,山形県山辺町大字簗沢636,1,,,38.261503312976,140.18977983984,
292,E0630100027111,町武道館,山形県山辺町緑ケ丘1,1,,,38.287903119135,140.26161280255,
293,E0630100027112,町民総合体育館,山形県山辺町緑ケ丘1,1,,,38.287789433645,140.26080009322,
294,E0620400013111,松原コミュニティ防災センター,山形県酒田市みずほ2-8-7,1,,,38.903651,139.851109,
295,E0620400016111,泉学区コミュニティ防災センター,山形県酒田市ゆたか2-2-11,1,,,38.936667,139.844661,
296,E0620400024111,琢成小学校,山形県酒田市栄町10-8,1,,,38.922588,139.837745,
297,E0620400029111,平田小学校,山形県酒田市荻島字面桜8,1,,,38.91854605,139.8902742,
298,E0620400031111,第六中学校,山形県酒田市下安町13-1,1,,,38.928303118572,139.85525330911,
299,E0620400036111,八幡小学校,山形県酒田市観音寺字古楯1-1,1,,,38.973973,139.943845,
300,E0620400037111,八幡タウンセンター,山形県酒田市観音寺字寺ノ下41,1,,,38.971091974108,139.94253414656,
301,E0620400038112,八幡体育館,山形県酒田市観音寺字町後15,1,,,38.970296,139.943551,
302,E0620400043111,酒田東高等学校体育館,山形県酒田市亀ケ崎1-3-60,1,,,38.9099193772418,139.842208814367,
303,E0620400044111,亀ケ崎小学校,山形県酒田市亀ケ崎2-3-55,1,,,38.906105373369,139.84283024162,
304,E0620400045111,亀ケ崎コミュニティ防災センター,山形県酒田市亀ケ崎3-13-25,1,,,38.902894397219,139.84807082209,
305,E0620400049111,松原小学校,山形県酒田市亀ケ崎5-8-25,1,,,38.901169557065,139.85037279629,
306,E0620400358121,酒田子育て支援センター,山形県酒田市亀ケ崎6-10-1,,,妊婦や乳児世帯,38.897776,139.845636,
307,E0620400059111,酒田特別支援学校体育館,山形県酒田市宮海字新林307,1,,,38.9538671653991,139.844062892027,
308,E0620400061111,西荒瀬コミュニティ防災センター,山形県酒田市宮海字新林660,1,,,38.9621020881,139.85109321535,
309,E0620400061112,西荒瀬小学校,山形県酒田市宮海字新林660,1,,,38.96234401,139.8511563,
310,E0620400066112,旧南遊佐小学校,山形県酒田市宮内字小楯62-1,1,,,38.983427106753,139.88983651654,
311,E0620400066111,南遊佐コミュニティセンター,山形県酒田市宮内字小楯62-1,1,,,38.98290882,139.8902538,
312,E0620400067111,宮野浦小学校,山形県酒田市宮野浦1-11-1,1,,,38.907033,139.816081,
313,E0620400069111,宮野浦学区コミュニティ防災センター,山形県酒田市宮野浦2-3-3,1,,,38.904681,139.814595,
314,E0620400359121,特別養護老人ホーム芙蓉荘,山形県酒田市宮野浦3-20-1,,,要配慮者等で施設が認めたもの,38.914269,139.811084,
315,E0620400360121,障がい者支援施設光風園,山形県酒田市宮野浦3-21-28,,,要配慮者等で施設が認めたもの,38.913142,139.813117,
316,E0620400080111,第四中学校,山形県酒田市錦町1-32-1,1,,,38.882178767441,139.83480792148,
317,E0620400086111,中平田コミュニティセンター,山形県酒田市熊手島字中福島66,1,,,38.90617798,139.8943591,
318,E0620400087111,郡鏡・山谷コミュニティセンター,山形県酒田市郡山字上台134-1,1,,,38.90300173,139.9239853,
319,E0620400094111,松陵学区コミュニティ防災センター,山形県酒田市光ケ丘3-1-1,1,,,38.931795,139.832473,
320,E0620400104111,酒田農村環境改善センター（広野コミュニティセンター）,山形県酒田市広野字上通232,1,,,38.843120075553,139.85254694974,
321,E0620400105111,広野小学校,山形県酒田市広野字中通53,1,,,38.84641667,139.8520076,
322,E0620400361121,特別養護老人ホームさくらホーム広野,山形県酒田市広野字末広102-1,,,要配慮者等で施設が認めたもの,38.848887,139.847406,
323,E0620400111111,黒森小学校,山形県酒田市黒森字一の木450,1,,,38.851207,139.822749,
324,E0620400112111,黒森コミュニティセンター,山形県酒田市黒森字草刈谷地57-2,,,,38.851135,139.817902,
325,E0620400362121,特別養護老人ホームライフケア黒森,山形県酒田市黒森字葭葉山54-10,,,要配慮者等で施設が認めたもの,38.853065,139.817124,
326,E0620400115111,砂越・砂越緑町コミュニティセンター,山形県酒田市砂越字楯之内60-1,1,,,38.891442227279,139.91098163558,
327,E0620400119111,十坂小学校,山形県酒田市坂野辺新田字地続山987-1,1,,,38.8772065,139.8164354,
328,E0620400125111,やまもと農村交流センター,山形県酒田市山元字中峯1,1,,,38.847688803266,140.00821029696,
329,E0620400126111,松山小学校（改築中）,山形県酒田市山寺字見初沢157-1,1,,,38.84900609,139.9622707,
330,E0620400127111,山寺コミュニティセンター,山形県酒田市山寺字見初沢165,1,,,38.84900295375,139.9616720029,
331,E0620400132111,一條コミュニティセンター,山形県酒田市市条字村ノ前25-3,1,,,38.963478,139.933974,
332,E0620400134111,松嶺コミュニティセンター,山形県酒田市字山田20-1,1,,,38.858192,139.954668,
333,E0620400135111,松山農村環境改善センター,山形県酒田市字山田28,1,,,38.857426,139.953833,
334,E0620400138111,松山体育館,山形県酒田市字内町6-2,1,,,38.85870563,139.9622022,
335,E0620400139111,一條小学校,山形県酒田市寺田字沖1-1,1,,,38.9568808,139.9277464,
336,E0620400142111,北平田コミュニティセンター,山形県酒田市漆曽根字千刈13,1,,,38.931496114921,139.88919006071,
337,E0620400154111,若浜小学校,山形県酒田市若浜町1-1,1,,,38.914533,139.849689,
338,E0620400156111,若浜学区コミュニティ防災センター,山形県酒田市若浜町1-48,1,,,38.913653,139.84817,
339,E0620400161111,第一中学校,山形県酒田市住吉町10-70,1,,,38.92927131,139.8354742,
340,E0620400163111,松陵小学校,山形県酒田市住吉町9-36,1,,,38.931469243617,139.83430029696,
341,E0620400164111,十坂コミュニティセンター,山形県酒田市十里塚字村東山112-4,1,,,38.878083232775,139.81658055093,
342,E0620400363121,老人保健施設明日葉,山形県酒田市曙町2-18-6,,,要配慮者等で施設が認めたもの,38.920087,139.86424,
343,E0620400364121,特別養護老人ホームサン・シティ,山形県酒田市曙町2-26-1,,,要配慮者等で施設が認めたもの,38.919453,139.864166,
344,E0620400365121,地域密着型特別養護老人ホームサン・シティⅡ,山形県酒田市曙町2-28-5,,,要配慮者等で施設が認めたもの,38.919019,139.863017,
345,E0620400169111,富士見学区コミュニティ防災センター,山形県酒田市曙町2-68-3,1,,,38.919075,139.86383,
346,E0620400171111,滝の里ふれあい館,山形県酒田市升田字大西11-1,1,,,38.998472,140.040335,
347,E0620400366121,特別養護老人ホーム幸楽荘,山形県酒田市小泉字前田50,,,要配慮者等で施設が認めたもの,38.969248,139.935232,
348,E0620400173111,鳥海八幡中学校,山形県酒田市小泉字前田91-1,1,,,38.968514643955,139.93624728109,
349,E0620400174111,小林温泉,山形県酒田市小林字杉沢117-1,1,,,38.833372859808,140.01031327117,
350,E0620400176111,第三中学校,山形県酒田市松原南13-1,1,,,38.90105023,139.8522951,
351,E0620400180111,日向コミュニティセンター,山形県酒田市上黒川字家ノ東19-2,1,,,38.993238504394,140.00031279653,
352,E0620400181111,曙自治会館,山形県酒田市上青沢字向芦沢154-5,1,,,38.96994196,140.0331602,
353,E0620400184111,上田コミュニティ防災センター,山形県酒田市上野曽根字上中割49,1,,,38.944100780231,139.88889803254,
354,E0620400193111,第二中学校,山形県酒田市新橋4-19-3,1,,,38.91558333854,139.85341588505,
355,E0620400196111,酒田市武道館,山形県酒田市新町光ケ丘33-26,1,,,38.933062,139.83314,
356,E0620400367121,地域密着型特別養護老人ホームあずま,山形県酒田市生石字奥山155-1,,,要配慮者等で施設が認めたもの,38.922505,139.939856,
357,E0620400198111,東平田コミュニティ防災センター,山形県酒田市生石字登路田8-1,1,,,38.923155,139.937567,
358,E0620400211111,内郷コミュニティセンター,山形県酒田市相沢字鶴牧56,1,,,38.87522249,139.9517901,
359,E0620400212111,松山小学校（旧内郷小学校）,山形県酒田市相沢字鶴牧6,1,,,38.8751354,139.9510387,
360,E0620400368121,医療法人徳洲会介護老人保健施設徳田山,山形県酒田市相沢字道脇7,,,要配慮者等で施設が認めたもの,38.876246,139.939342,
361,E0620400369121,障がい者支援施設和光園,山形県酒田市相沢字北森155,,,要配慮者等で施設が認めたもの,38.878447,139.947442,
362,E0620400214111,鳥海高原家族旅行村,山形県酒田市草津字湯ノ台149,1,,,39.03440908,140.0349836,
363,E0620400215111,湯ノ台温泉鳥海山荘,山形県酒田市草津字湯ノ台66-1,1,,,39.03080822,140.03297,
364,E0620400222111,大沢コミュニティセンター,山形県酒田市大蕨字二タ子213,1,,,38.964630252313,139.99724772751,
365,E0620400223111,南部コミュニティセンター（旧地見興屋小学校）,山形県酒田市地見興屋字前割9-1,1,,,38.812887304518,139.99535743188,
366,E0620400225111,酒田市総合文化センター,山形県酒田市中央西町2-59,1,,,38.92118837,139.8371344,
367,E0620400232121,介護老人保健施設ひだまり,山形県酒田市中町3-5-23,1,,要配慮者等で施設が認めたもの,38.916949,139.834231,
368,E0620400370121,特別養護老人ホームさくらホーム,山形県酒田市中牧田字丸福171,,,要配慮者等で施設が認めたもの,38.87511,139.939535,
369,E0620400239111,旧田沢小学校,山形県酒田市田沢字小平34-2,1,,,38.87366341,139.9913185,
370,E0620400240111,田沢コミュニティセンター,山形県酒田市田沢字道の外105,1,,,38.872596755179,139.9924793611,
371,E0620400248111,泉小学校,山形県酒田市東泉町4-4-1,1,,,38.931754,139.851355,
372,E0620400251111,酒田西高等学校体育館,山形県酒田市東泉町5-9-5,1,,,38.933688911148,139.851144718429,
373,E0620400371121,特別養護老人ホーム寿康園,山形県酒田市楢橋字大柳3-1,,,要配慮者等で施設が認めたもの,38.892219,139.949942,
374,E0620400274111,港南コミュニティ防災センター,山形県酒田市入船町3-15,,,,38.907261,139.831949,
375,E0620400353111,国体記念体育館,山形県酒田市飯森山2-296-1,,,,38.893133,139.822258,
376,E0620400278111,酒田市公益研修センター,山形県酒田市飯森山3-5-1,1,,,38.892318144049,139.8195632037,
377,E0620400296111,浜田学区コミュニティ防災センター,山形県酒田市浜田1-10-3,1,,,38.916991,139.845468,
378,E0620400297111,酒田南高等学校体育館,山形県酒田市浜田1-3-47,1,,,38.91766375005,139.84839893263,
379,E0620400298111,浜田小学校,山形県酒田市浜田1-5-46,1,,,38.916996038327,139.84652438067,
380,E0620400301111,富士見小学校,山形県酒田市富士見町2-10-1,1,,,38.924489893291,139.86247638711,
381,E0620400315111,酒田西高等学校定時制校舎体育館,山形県酒田市北新町1-1-57,1,,,38.923483375059,139.83291322601,
382,E0620400316111,琢成学区コミュニティ防災センター,山形県酒田市北新町1-1-60,1,,,38.92289951043,139.83361310185,
383,E0620400318111,青沢克雪管理センター,山形県酒田市北青沢字家ノ前280,1,,,38.96754154,140.0470966,
384,E0620400372121,特定施設かたばみの家,山形県酒田市北千日堂前字松境16,,,要配慮者等で施設が認めたもの,38.935716,139.834532,
385,E0620400322121,特別養護老人ホームかたばみ荘,山形県酒田市北千日堂前字松境18-1,1,,要配慮者等で施設が認めたもの,38.935375,139.835281,
386,E0620400323111,酒田光陵高等学校体育館,山形県酒田市北千日堂前字松境7-3,1,,,38.9329257327957,139.8337540592,
387,E0620400326111,ひらた生涯学習センター,山形県酒田市北俣字仁助新田31-1,1,,,38.894275,139.980008,
388,E0620400328111,北部農民センター（本楯コミュニティセンター）,山形県酒田市本楯字新田目87-1,1,,,38.967818,139.88754,
389,E0620400373121,老人保健施設うらら,山形県酒田市本楯字前田127-2,,,要配慮者等で施設が認めたもの,38.964564,139.889023,
390,E0620400329111,鳥海小学校,山形県酒田市本楯字前田94-1,1,,,38.96290545,139.8882528,
391,E0620400337111,新堀コミュニティ防災センター,山形県酒田市木川字アラコウヤ34,1,,,38.86829849,139.877156,
392,E0620400374121,地域密着型介護老人福祉施設あおい,山形県酒田市緑ケ丘2-16-1,,,要配慮者等で施設が認めたもの,38.896603,139.808594,
393,E0620400348121,介護老人保健施設シェ・モワ,山形県酒田市緑町13-37,1,,要配慮者等で施設が認めたもの,38.910613,139.852663,
394,E0620400349111,勤労者福祉センター,山形県酒田市緑町19-10,1,,,38.9106789991,139.851798,
395,E0620400350111,勤労者体育センター,山形県酒田市緑町19-15,,,,38.91020932036,139.8515274535,
396,E0636300001111,舟形町中央公民館,山形県舟形町舟形126,1,,,38.69222899,140.3203668,
397,E0636300006121,ほなみ,山形県舟形町舟形42-1,,左記のうち、事前に町が特定し、環境調整を事前に行った者,高齢者,38.69057094,140.3221192,
398,E0636300007111,ほほえみ保育園,山形県舟形町舟形4545,1,,,38.69396962,140.3286335,
399,E0636300008121,舟形町福祉避難所,山形県舟形町舟形4550-1,,,乳幼児（0~1歳）、障がい者（手帳2級）、高齢者（要介護3）、療育手帳保持者（手帳B）,38.692864,140.328922,
400,E0636300009111,舟形小学校,山形県舟形町舟形4560,1,,,38.69441894,140.3297146,
401,E0636300010121,光生園,山形県舟形町舟形4733,,左記のうち、事前に町が特定し、環境調整を事前に行った者,障害者,38.69689408,140.3178818,
402,E0636300012111,舟形中学校,山形県舟形町舟形555-4,1,,,38.68911909,140.3108167,
403,E0636300013121,えんじゅ荘,山形県舟形町長者原1712-1,,左記のうち、事前に町が特定し、環境調整を事前に行った者,高齢者,38.70028383,140.2995501,
404,E0636300016111,長沢交流センター,山形県舟形町長沢1072,1,,,38.71012935,140.3733915,
405,E0636300020111,舟形町生涯学習センター,山形県舟形町長沢3798,1,,,38.71042797,140.37454,
406,E0636300024111,舟形若あゆ温泉,山形県舟形町長沢8067,1,,,38.71102518,140.3399665,
407,E0636300025111,農村環境改善センター,山形県舟形町富田1265,1,,,38.66781204,140.2739781,
408,E0636300026121,舟形徳州苑,山形県舟形町富田135-1,,左記のうち、事前に町が特定し、環境調整を事前に行った者,高齢者,38.66991235,140.2746698,
409,E0636300028111,富長交流センター,山形県舟形町富田1945,1,,,38.68774052,140.2799866,
410,E0640100005111,叶水小中学校体育館,山形県小国町大字叶水301,1,,,37.98912706,139.8018031,
411,E0640100007111,小国小学校アリーナ（体育館）,山形県小国町大字岩井沢673,1,,,38.05483737,139.7481548,
412,E0640100008111,町民総合体育館,山形県小国町大字岩井沢683-1,1,,,38.05524008,139.7474687,
413,E0640100009111,小国中学校体育館,山形県小国町大字岩井沢719,1,,,38.05544289,139.7493769,
414,E0640100017111,旧沖庭小学校体育館,山形県小国町大字若山225,,,,38.1036323824283,139.74804422881,
415,E0640100024111,旧小玉川小中学校,山形県小国町大字小玉川511,1,,,37.9685665068203,139.676992855347,
416,E0640100031111,旧北部小中学校体育館,山形県小国町大字太鼓沢39,1,,,38.1633028562946,139.767579049707,
417,E0642800017121,立谷沢まちづくりセンター,山形県庄内町肝煎字福地山本53-1,1,,,38.714294,140.012162,
418,E0642800017111,立谷沢まちづくりセンター,山形県庄内町肝煎字福地山本53-1,1,福祉避難所,,38.71437524,140.0121026,
419,E0642800018111,立谷沢体育館,山形県庄内町肝煎字福地山本65,,予備施設,,38.715105982428,140.01227694827,
420,E0642800019111,旧立谷沢小学校体育館,山形県庄内町肝煎字福地山本72-1,,予備施設,,38.716097979454,140.01231449919,
421,E0642800019112,旧立谷沢小学校,山形県庄内町肝煎字福地山本72-1,,予備施設,,38.716294702967,140.01256662684,
422,E0642800029111,余目第一幼稚園,山形県庄内町高田麦字北裏8,,予備施設,,38.840930335719,139.88470907443,
423,E0642800031112,余目第四小学校体育館,山形県庄内町主殿新田字赤渕21-1,1,,,38.81045997,139.9379456,
424,E0642800031111,余目第四幼稚園,山形県庄内町主殿新田字赤渕21-1,1,,,38.8094611,139.938604,
425,E0642800031113,余目第四小学校,山形県庄内町主殿新田字赤渕21-1,1,救護所,,38.81035034,139.9386803,
426,E0642800036111,旧商工会立川支所,山形県庄内町狩川字阿古屋67,1,予備施設,,38.789403132199,139.97146723486,
427,E0642800037111,農林漁業体験実習館,山形県庄内町狩川字笠山146,,予備施設,,38.785005520359,139.97457077964,
428,E0642800038111,ウインドーム,山形県庄内町狩川字笠山444-9,,予備施設 停電時,,38.784783896584,139.97365346415,
429,E0642800044111,コミュニティ防災センター,山形県庄内町狩川字楯下97-1,1,,,38.790784837789,139.97281080948,
430,E0642800045111,庄内ゴルフ倶楽部クラブハウス,山形県庄内町狩川字小堤8,,予備施設,,38.767872794125,139.96889342168,
431,E0642800049111,庄内たがわ農業協同組合立川基幹支所,山形県庄内町狩川字小野里54,,予備施設,,38.791728058321,139.97306318388,
432,E0642800051112,立川中学校,山形県庄内町狩川字松葉1-1,1,救護所,,38.78853586,139.966298,
433,E0642800051111,立川中学校体育館,山形県庄内町狩川字松葉1-1,1,,,38.7880752,139.9670615,
434,E0642800052111,立川小学校体育館,山形県庄内町狩川字松葉5-1,1,,,38.788294055321,139.9643891419,
435,E0642800052112,立川小学校,山形県庄内町狩川字松葉5-1,1,,,38.788080804556,139.9648665751,
436,E0642800056111,狩川まちづくりセンター,山形県庄内町狩川字大釜11-1,1,,,38.78920561707,139.9643448294,
437,E0642800056121,狩川まちづくりセンター,山形県庄内町狩川字大釜11-1,1,,,38.789037,139.964433,
438,E0642800057111,立川複合拠点施設,山形県庄内町狩川字大釜22,,,,38.789876639622,139.96452644851,
439,E0642800058111,立川老人福祉センター,山形県庄内町狩川字大釜23-1,,予備施設,,38.790257289401,139.96571110179,
440,E0642800058121,立川老人福祉センター,山形県庄内町狩川字大釜23-1,,,,38.790268,139.965828,
441,E0642800064111,道の駅しょうない,山形県庄内町庄内町狩川字北割97-1,,停電時 道路災害時,,38.794574059832,139.98483565459,
442,E0642800071111,ふれあいホーム,山形県庄内町清川字下川原29-1,,予備施設,,38.789927222204,140.02316104784,
443,E0642800073111,清川体育館,山形県庄内町清川字花崎1-1,1,,,38.78597233,140.0266309,
444,E0642800074111,清川まちづくりセンター,山形県庄内町清川字花崎1-2,1,福祉避難所,,38.78565106,140.0260892,
445,E0642800074121,清川まちづくりセンター,山形県庄内町清川字花崎1-2,1,,,38.785679,140.026052,
446,E0642800075111,旧清川保育園,山形県庄内町清川字花崎57-2,1,,,38.78769229,140.025929,
447,E0642800100121,余目第四まちづくりセンター,山形県庄内町南野字十八軒21-1,1,,,38.810293,139.94008,
448,E0642800100111,余目第四まちづくりセンター,山形県庄内町南野字十八軒21-1,1,福祉避難所,,38.81039259,139.9401409,
449,E0642800103111,県立庄内総合高校体育館,山形県庄内町廿六木字三ツ車8,1,,,38.8560612,139.9107239,
450,E0642800104111,余目第三幼稚園,山形県庄内町廿六木字三百地6-1,1,予備施設,,38.854397957762,139.91212259934,
451,E0642800104112,余目第三小学校体育館,山形県庄内町廿六木字三百地6-1,1,予備施設,,38.854607,139.912814,
452,E0642800104113,余目第三小学校,山形県庄内町廿六木字三百地6-1,1,,,38.85444154,139.9133317,
453,E0642800107121,余目第二まちづくりセンター,山形県庄内町払田字サビ40,1,,,38.837758,139.905993,
454,E0642800107111,余目第二まちづくりセンター,山形県庄内町払田字サビ40,1,福祉避難所,,38.83775129,139.9059878,
455,E0642800108111,余目第二小学校体育館,山形県庄内町払田字村東68,1,,,38.83856526,139.9088373,
456,E0642800108112,余目第二小学校,山形県庄内町払田字村東68,1,,,38.8385121,139.9080083,
457,E0642800116112,余目中学校西体育館,山形県庄内町余目字猿田30,1,,,38.846922751448,139.9018622261,
458,E0642800116113,余目中学校,山形県庄内町余目字猿田30,1,救護所,,38.846764,139.90302,
459,E0642800116111,余目中学校東体育館,山形県庄内町余目字猿田30,1,,,38.84673056593,139.90357883987,
460,E0642800120111,商工会商工ふれあい会館,山形県庄内町余目字三人谷地13-1,,予備施設,,38.846811224613,139.90680617836,
461,E0642800121111,余目町農業協同組合及び生活センターホール,山形県庄内町余目字三人谷地172,,予備施設,,38.847820751513,139.90580009594,
462,E0642800123111,最上川土地改良区,山形県庄内町余目字上梵天塚15,,予備施設,,38.839532032019,139.90664178592,
463,E0642800125111,総合体育館,山形県庄内町余目字大塚5-1,1,救護所,,38.85484068,139.9037323,
464,E0642800126111,ほたるドーム,山形県庄内町余目字大塚66-1,,酒田市一時避難所 県指定一次集積施設,,38.854246,139.9033683,
465,E0642800130111,文化創造館,山形県庄内町余目字仲谷地280,1,予備施設,,38.840137844886,139.89789057616,
466,E0642800131111,庄内町役場,山形県庄内町余目字町132-1,1,防災拠点 予備施設,,38.84955261563,139.90401832725,
467,E0642800136111,庄内たがわ農業協同組合新余目基幹支所,山形県庄内町余目字土堤下36-1,,予備施設,,38.842409622037,139.9047347011,
468,E0642800137111,余目第三まちづくりセンター,山形県庄内町余目字藤原野3-1,,予備施設,,38.852343,139.910566,
469,E0642800137121,余目第三まちづくりセンター,山形県庄内町余目字藤原野3-1,,,,38.852335,139.910487,
470,E0642800139111,余目第一小学校体育館,山形県庄内町余目字南田105-1,1,,,38.842047614309,139.88419202848,
471,E0642800139112,余目第一小学校,山形県庄内町余目字南田105-1,1,,,38.84179183,139.8847006,
472,E0642800140111,余目第一まちづくりセンター,山形県庄内町余目字南田94-1,1,福祉避難所,,38.841038971236,139.88576050037,
473,E0642800140121,余目第一まちづくりセンター,山形県庄内町余目字南田94-1,1,,,38.840993,139.885787,
474,E0642800142111,余目第二幼稚園,山形県庄内町余目字矢口35-1,1,,,38.83778058,139.9091191,
475,E0642800149111,北月山荘,山形県庄内町立谷沢字西山1-48,,停電時防災拠点 町外広域避難者受入用 町内長期避難者受入用,,38.634881920667,140.00620388798,
476,E0642800150112,大中島自然ふれあい館,山形県庄内町立谷沢字大谷1-3,1,,,38.64963938,140.0010354,
477,E0642800150111,大中島自然ふれあい館体育館,山形県庄内町立谷沢字大谷1-3,1,予備施設,,38.649974219175,140.00076478444,
478,E0620700001111,南小学校（体育館）,山形県上山市けやきの森1-1,1,,,38.14804216,140.2732113,
479,E0620700003111,三友エンジニア体育文化センター,山形県上山市けやきの森2-1,1,,,38.146225808897,140.27120808228,
480,E0620700004111,旧西郷第一小学校（体育館）,山形県上山市阿弥陀地字上原906-1,1,,,38.12168614,140.2736543,
481,E0620700007111,宮生地区公民館,山形県上山市下生居字屋敷前288,1,,,38.12627823,140.298549,
482,E0620700009111,南部地区公民館,山形県上山市河崎1-1-23,1,,,38.15027174,140.2686644,
483,E0620700011111,本庄地区公民館,山形県上山市皆沢字鶴巻1247-1,1,,,38.11198769,140.2868219,
484,E0620700012111,旧本庄小学校（体育館）,山形県上山市皆沢字宝126-1,1,,,38.11105912,140.2854812,
485,E0620700015111,県立上山高等養護学校（体育館）,山形県上山市宮脇600,1,,,38.13945898,140.2815971,
486,E0620700016111,中川小学校（体育館）,山形県上山市金谷字水神河原1189-2,1,,,38.1617317,140.3141841,
487,E0620700017121,養護老人ホーム蔵王長寿園,山形県上山市金谷字土矢倉307-1,,,指定避難所での生活に支障があると認められる要配慮者及び当該要配慮者を介助する者,38.16293428,140.2997015,
488,E0620700057121,特別養護老人ホーム蓬仙園,山形県上山市金谷字藤木2401,,,指定避難所での生活に支障があると認められる要配慮者及び当該要配慮者を介助する者,38.161788,140.297911,
489,E0620700020111,上山小学校（体育館）,山形県上山市元城内5-5,1,,,38.15849561,140.2753182,
490,E0620700023111,中川農業者等トレーニングセンター,山形県上山市高野字念仏壇127-3,1,,,38.16101252,140.3134316,
491,E0620700024111,中川地区公民館,山形県上山市高野字念仏壇66-3,1,,,38.16064608,140.3132443,
492,E0620700026111,中部地区公民館,山形県上山市十日町4-11,1,,,38.1570901,140.2775375,
493,E0620700028111,東地区公民館,山形県上山市須田板字原際742-2,1,,,38.10576134,140.3110578,
494,E0620700029111,宮川小学校（体育館）,山形県上山市須田板字原際784-1,1,,,38.10558347,140.3092884,
495,E0620700030111,県立上山明新館高等学校（体育館）,山形県上山市仙石650,1,,,38.15602562,140.2891353,
496,E0620700033111,北中学校（体育館）,山形県上山市泉川字松の木110,,,,38.1599544,140.2912684,
497,E0620700035111,ＺＡＯたいらぐら,山形県上山市蔵王坊平国有林２４１林班,1,,,38.12417432,140.3930273,
498,E0620700037111,山元地区公民館,山形県上山市狸森字久々取511-1,1,,,38.18555917,140.2257808,
499,E0620700058111,山元体育館,山形県上山市狸森字久々取511-4,1,,,38.18554253,140.2254395,
500,E0620700039111,中山地区公民館,山形県上山市中山字上町弐3156,1,,,38.12425367,140.2165483,
501,E0620700041111,中山体育館,山形県上山市中山字壁屋敷5612,1,,,38.1179875,140.2127108,
502,E0620700043121,地域密着型特別養護老人ホームながすずの里,山形県上山市長清水2-5-19,,,指定避難所での生活に支障があると認められる要配慮者及び当該要配慮者を介助する者,38.14103632,140.2739235,
503,E0620700044111,南中学校（体育館）,山形県上山市長清水3-7-1,1,,,38.14145934,140.2785937,
504,E0620700046111,上山市生涯学習センター,山形県上山市東町3-61,1,,,38.15512721,140.2851839,
505,E0620700047112,西郷地区公民館,山形県上山市藤吾字下原412-3,1,,,38.12996817,140.2692658,
506,E0620700047111,南部体育館,山形県上山市藤吾字下原412-3,1,,,38.13013461,140.2695571,
507,E0620700050111,北部地区公民館,山形県上山市弁天1-6-8,1,,,38.16865142,140.2915191,
508,E0620700052121,特別養護老人ホームみずほの里,山形県上山市牧野字清水21-1,,,指定避難所での生活に支障があると認められる要配慮者及び当該要配慮者を介助する者,38.1156893,140.3017146,
509,E0620700053111,上山南部地区農業者等トレーニングセンター,山形県上山市牧野字中原1912,1,,,38.11037288,140.3008816,
510,E0620700054111,宮川中学校（体育館）,山形県上山市牧野字中原1945-2,1,,,38.11265915,140.3007593,
511,E0620500002111,わくわく新庄,山形県新庄市下金沢町15-11,,,,38.75476597,140.300006,
512,E0620500003111,日新小学校体育館,山形県新庄市下金沢町16-4,1,,,38.75422874,140.3006932,
513,E0620500005111,山屋セミナーハウス,山形県新庄市金沢3036-2,,,,38.76786929,140.333574,
514,E0620500007111,新庄市武道館,山形県新庄市金沢字金沢山3070-8,1,,,38.75891292,140.3178364,
515,E0620500008111,新庄市体育館,山形県新庄市金沢字金沢山3072-2,,,,38.75842718,140.319713,
516,E0620500009111,新庄市農村環境改善センター,山形県新庄市金沢字西の山3025-8,,,,38.77004355,140.3371957,
517,E0620500053111,明倫学園体育館,山形県新庄市十日町2675-3,1,,,38.773571,140.295316,
518,E0620500015111,北辰屋内運動場,山形県新庄市十日町812,1,,,38.78402039,140.3089643,
519,E0620500016111,新庄市立図書館,山形県新庄市小田島町4-21,,,,38.76554115,140.2984494,
520,E0620500056111,山形県立新庄神室産業高等学校体育館,山形県新庄市松本370,1,,,38.748326,140.300162,
521,E0620500057111,新庄学園新庄東高等学校体育館,山形県新庄市松本596,1,,,38.744342,140.291013,
522,E0620500019111,新庄小学校体育館,山形県新庄市城西町6-24,1,,,38.76441179,140.2887308,
523,E0620500055111,山形県立新庄南高等学校体育館,山形県新庄市城南町5-5,1,,,38.76429,140.292468,
524,E0620500021111,雪の里情報館,山形県新庄市石川町4-15,,,,38.77088634,140.2972441,
525,E0620500025111,八向中学校体育館,山形県新庄市大字升形1649,1,,,38.74069136,140.2399478,
526,E0620500026111,升形小学校体育館,山形県新庄市大字升形800-9,1,,,38.75317858,140.2382847,
527,E0620500027111,升形児童館,山形県新庄市大字升形字谷地向797-6,,,,38.7522578,140.2383029,
528,E0620500028111,新庄市昭和活性化センター,山形県新庄市大字昭和659,,,,38.83642086,140.3107042,
529,E0620500029111,日新中学校体育館,山形県新庄市大字松本136,1,,,38.75402064,140.2967588,
530,E0620500030111,萩野学園体育館,山形県新庄市大字泉田字往還東398,1,,,38.812137590072,140.33072037116,
531,E0620500031111,泉田保育所,山形県新庄市大字泉田字往還東460,,,,38.81160164,140.3263376,
532,E0620500033111,萩野地区公民館,山形県新庄市大字泉田字泉田2,,,,38.81085023,140.3225788,
533,E0620500035111,萩野児童センター,山形県新庄市大字萩野2652,,,,38.81364853,140.3613335,
534,E0620500037111,本合海小学校体育館,山形県新庄市大字本合海128,1,,,38.73001024,140.2312153,
535,E0620500038111,八向地区公民館,山形県新庄市大字本合海185,,,,38.728928,140.229004,
536,E0620500039111,新庄市民プラザ,山形県新庄市大手町1-60,,,,38.76610742,140.2997051,
537,E0620500040111,中部保育所,山形県新庄市大手町2-76,,,,38.7666053,140.2985641,
538,E0620500054111,山形県立新庄北高等学校,山形県新庄市飛田61,1,,,38.764889,140.285235,
539,E0620500047111,新庄市保健センター,山形県新庄市堀端町3-33,,,,38.76606625,140.2959463,
540,E0620500048111,新庄市民文化会館,山形県新庄市堀端町4-67,,,,38.76784009,140.2964551,
541,E0620500049111,新庄ふるさと歴史センター,山形県新庄市堀端町4-74,,,,38.76702871,140.2965387,
542,E0620500050111,新庄中学校体育館,山形県新庄市堀端町5-81,1,,,38.76830463,140.295193,
543,E0632200001111,西川小学校体育館,山形県西川町大字海味1234,1,,,38.42635574257,140.14279590661,
544,E0632200002111,海味公民館,山形県西川町大字海味1274-8,,,,38.424958486555,140.14871267182,
545,E0632200005111,交流センターあいべ,山形県西川町大字間沢280,,,,38.431839423523,140.13164512154,
546,E0632200006111,町民体育館岩根沢分館,山形県西川町大字岩根沢523-2,1,,,38.453108420606,140.10358462286,
547,E0632200007111,西川中学校体育館,山形県西川町大字吉川227-28,1,,,38.42031818479,140.1596900022,
548,E0632200008111,吉川研修センター,山形県西川町大字吉川664-10,,,,38.412134978194,140.16542210764,
549,E0632200011111,綱取公民館,山形県西川町大字綱取619,1,,,38.436557423207,140.11296950927,
550,E0632200012111,弓張平公園パークプラザ,山形県西川町大字志津172-3,1,,,38.476190999829,140.00370242748,
551,E0632200013111,県立自然博物園,山形県西川町大字志津字姥ケ嶽159,1,,,38.504533154073,139.99774343674,
552,E0632200015111,沼山地区多目的集会センター,山形県西川町大字沼山334-13,,,,38.4260984635928,140.130674347807,
553,E0632200017111,水沢温泉館,山形県西川町大字水沢2304,,,,38.4362252605974,140.099662977872,
554,E0632200018111,大井沢温泉館,山形県西川町大字大井沢1177,,,,38.3922339008612,139.994912796166,
555,E0632200021111,入間公民館,山形県西川町大字入間3022-1,,,,38.4315647496215,140.089456580799,
556,E0632200022111,町民体育館小山分館,山形県西川町大字入間803-2,1,,,38.408411922333,140.0624231303,
557,E0632200023111,睦合公民館,山形県西川町大字睦合乙40,,,,38.4186646067121,140.179682976217,
558,E0632200025111,梅沢会館,山形県西川町大字睦合丙148-1,,,,38.419385127512,140.17263827206,
559,E0632200027111,本道寺地区集会センター,山形県西川町大字本道寺362-2,,,,38.4513099991,140.055953,
560,E0638200002111,川西町交流館,山形県川西町大字吉田4690,1,,,37.9984241090249,140.087220529805,
561,E0638200004111,玉庭小学校体育館,山形県川西町大字玉庭5255,1,,,37.9440018849949,139.980829118269,
562,E0638200007111,吉島小学校体育館,山形県川西町大字洲島2381,1,,,38.0109113752153,140.108830994387,
563,E0638200009111,犬川小学校体育館,山形県川西町大字小松823,1,,,38.0239771614879,140.061844710307,
564,E0638200011111,小松小学校体育館,山形県川西町大字上小松1486,1,,,38.0061635918868,140.046955211827,
565,E0638200017111,旧東沢小学校体育館,山形県川西町大字大舟988-4,1,,,37.9558155974741,140.027094010888,
566,E0638200018111,大塚小学校体育館,山形県川西町大字大塚3030,1,,,38.0439666385485,140.067744494651,
567,E0638200019111,川西町総合運動公園（町民総合体育館・クラブハウスＡＩＫ）,山形県川西町大字中小松2240-1,1,,,38.008648534269,140.055481377049,
568,E0638200023111,川西町農村環境改善センター,山形県川西町大字中小松2240-2,1,,,38.0083939,140.0564251,
569,E0638200020111,川西中学校体育館,山形県川西町大字中小松2493,1,,,38.0116861177955,140.054813261246,
570,E0638200022111,中郡小学校体育館,山形県川西町大字莅239,1,,,37.9915763112231,140.072951039443,
571,E0620800136111,Ｌｉｎｋ　ＭＵＲＡＹＡＭＡ,山形県村山市楯岡荒町2-1-1,,,,38.476495,140.392061,
572,E0620800012111,楯岡小学校,山形県村山市楯岡楯18-1,1,,,38.48253731,140.3953256,
573,E0620800013111,楯岡中学校,山形県村山市楯岡新高田11-3,1,,,38.486544,140.386882,
574,E0620800022121,村山光ホーム,山形県村山市楯岡笛田2-19-40,,,要配慮者,38.47927902,140.4027758,
575,E0620800023121,特養ひがしざわ,山形県村山市楯岡笛田2-19-57,,,要配慮者,38.47963725,140.4037631,
576,E0620800029121,グループホーム香紅の里,山形県村山市楯岡俵町20-19,,,要配慮者,38.47535642,140.3854734,
577,E0620800031121,楯岡特別支援学校,山形県村山市楯岡北町1-8-1,,,要配慮者,38.50026726,140.3937939,
578,E0620800036111,葉山中学校,山形県村山市大字稲下1757,,,,38.48202389,140.3309238,
579,E0620800046111,やまばと,山形県村山市大字山の内120,1,,,38.56015867,140.3059508,
580,E0620800050111,大久保小学校,山形県村山市大字大久保甲1-1,1,,,38.46849933,140.3297555,
581,E0620800069111,戸沢小学校,山形県村山市大字長善寺293-2,1,,,38.49465492,140.3241205,
582,E0620800076121,特養袖崎,山形県村山市大字土生田260-4,,,要配慮者,38.54346742,140.4008693,
583,E0620800077111,袖崎小学校,山形県村山市大字土生田263,1,,,38.543759,140.400489,
584,E0620800089121,はやまホーム,山形県村山市大字湯野沢1881-6,,,要配慮者,38.47170767,140.3184906,
585,E0620800089111,はやまホーム,山形県村山市大字湯野沢1881-6,,,,38.47192621,140.3182669,
586,E0620800093121,特養ふもと,山形県村山市大字湯野沢956-3,1,,要配慮者,38.46259691,140.3070656,
587,E0620800093111,特養ふもと,山形県村山市大字湯野沢956-3,1,,,38.46222942,140.3070594,
588,E0620800099121,グループホーム村山,山形県村山市大字富並1469-9,,,要配慮者,38.54846437,140.336086,
589,E0620800102111,富並小学校,山形県村山市大字富並2169,1,,,38.545703,140.346327,
590,E0620800109121,ローズむらやま,山形県村山市大字本飯田2486-65,,,要配慮者,38.51926095,140.3914825,
591,E0620800114111,西郷小学校,山形県村山市大字名取1217,,,,38.497653,140.364106,
592,E0620800130111,旧大倉小学校,山形県村山市大字櫤山48-7,,,,38.50636,140.403486,
593,E0620800132121,特養むらやま,山形県村山市中央2-3-46,,,要配慮者,38.48271939,140.3751252,
594,E0632400001111,西地区体育館,山形県大江町大字貫見468-2,,,,38.3705319,140.0975577,
595,E0632400002111,旧七軒東小学校,山形県大江町大字貫見693-2,1,,,38.371270637704,140.09653849953,
596,E0632400003111,町民ふれあい会館,山形県大江町大字左沢306,1,,,38.3775489991,140.209043,
597,E0632400004111,左沢小学校,山形県大江町大字左沢816-2,1,,,38.382122820397,140.20530710185,
598,E0632400005111,県立楯岡特別支援学校大江校（旧三郷小学校）,山形県大江町大字三郷丙1403,1,,,38.353009941436,140.21126117954,
599,E0632400006111,旧本郷西小学校,山形県大江町大字十八才甲117-1,1,,,38.384112735811,140.13730666845,
600,E0632400007111,県立左沢高等学校,山形県大江町大字藤田816-3,1,,,38.365023289,140.208456529,
601,E0632400008111,大江中学校,山形県大江町大字本郷己605,1,,,38.373537486905,140.19171276057,
602,E0632400010112,中央公民館,山形県大江町大字本郷丁373-1,1,,,38.379286031062,140.19627915502,
603,E0632400010111,体育センター,山形県大江町大字本郷丁373-1,1,,,38.379874765581,140.19606994271,
604,E0632400011111,本郷東小学校,山形県大江町大字本郷丙275-2,1,,,38.374343353479,140.1832528754,
605,E0634100001111,南通公民館,山形県大石田町駅前通り2-16,1,,,38.59288471876,140.37661779989,
606,E0634100002111,来迎寺公民館,山形県大石田町大字横山1180-1,1,,,38.576909138108,140.38276414116,
607,E0634100003111,里公民館,山形県大石田町大字横山3223,1,,,38.572109583119,140.36102564932,
608,E0634100004111,上ノ原公民館,山形県大石田町大字横山366-2,1,,,38.583345341061,140.37263324457,
609,E0634100006111,横山地区総合センター,山形県大石田町大字横山98,1,,,38.583986130031,140.37498763646,
610,E0634100008111,海谷公民館,山形県大石田町大字海谷1105-81,1,,,38.617419803918,140.37145808932,
611,E0634100009111,大石田北小学校体育館,山形県大石田町大字岩ケ袋338-5,1,,,38.611968053988,140.36806209478,
612,E0634100010111,岩ヶ袋公民館,山形県大石田町大字岩ケ袋436,1,,,38.608453809567,140.37101037113,
613,E0634100011121,地域密着型特別養護老人ホームソーレ大石田,山形県大石田町大字駒籠413,,,高齢者、障がい者等及びその介助者1名,38.626131,140.337979,
614,E0634100012111,駒籠公民館,山形県大石田町大字駒籠66,1,,,38.62623966302,140.33875509325,
615,E0634100013111,今宿公民館,山形県大石田町大字今宿337-1,1,,,38.578591208809,140.38688601193,
616,E0634100014111,ふるさと自然館次年子,山形県大石田町大字次年子1748,1,,,38.596839651231,140.29021755691,
617,E0634100015111,川前公民館,山形県大石田町大字川前55-5,1,,,38.613472439123,140.35017215243,
618,E0634100016111,大浦公民館,山形県大石田町大字大浦200,1,,,38.626824467201,140.32991650943,
619,E0634100017111,白鷺公民館,山形県大石田町大字大浦字白鷺原1599-1,1,,,38.64345307447,140.33815589096,
620,E0634100018111,大石田小学校体育館,山形県大石田町大字大石田乙105-1,1,,,38.590470606677,140.37011861743,
621,E0634100019111,旧最北高等技術専門学校体育館,山形県大石田町大字大石田乙510-1,1,,,38.596059621302,140.37159314242,
622,E0634100021121,特別養護老人ホーム仁風荘,山形県大石田町大字大石田甲574,,,高齢者、障がい者等及びその介助者1名,38.600348,140.374618,
623,E0634100022111,八幡町公民館,山形県大石田町大字大石田甲616-31,1,,,38.597178910314,140.37201777189,
624,E0634100023111,庚申町公民館,山形県大石田町大字大石田甲623-161,1,,,38.598810582312,140.37586222771,
625,E0634100024111,東町公民館,山形県大石田町大字大石田字上ノ原丙527-1,,,,38.589959200925,140.37914955876,
626,E0634100025111,井出公民館,山形県大石田町大字大石田字樋ノ口100,1,,,38.595919239649,140.36938609224,
627,E0634100026111,朝日町公民館,山形県大石田町大字大石田丁202-25,1,,,38.595761113223,140.37895271849,
628,E0634100028111,大石田中学校体育館,山形県大石田町大字大石田丁218-1,1,,,38.592306887221,140.37719612509,
629,E0634100029111,本町公民館,山形県大石田町大字大石田丁71,1,,,38.588131738738,140.37380504419,
630,E0634100030111,愛宕町公民館,山形県大石田町大字大石田丁92-10,1,,,38.589056175709,140.37459684014,
631,E0634100031111,曙町公民館,山形県大石田町大字大石田丙415-22,1,,,38.591964578021,140.3786580556,
632,E0634100032111,栄町公民館,山形県大石田町大字大石田丙470-20,1,,,38.596521992691,140.37739624247,
633,E0634100034111,大石田保育園,山形県大石田町大字鷹巣字楯ノ内91-1,1,,,38.621695677766,140.36918784842,
634,E0634100035111,鷹巣公民館,山形県大石田町大字鷹巣字上北原179,1,,,38.631953648829,140.36534114037,
635,E0634100036111,大石田南小学校体育館,山形県大石田町大字田沢1544-3,1,,,38.559786990956,140.37041096965,
636,E0634100037111,新山寺公民館,山形県大石田町大字田沢1908-122,1,,,38.547627832261,140.37761936233,
637,E0634100038111,小菅公民館,山形県大石田町大字田沢2283-24,1,,,38.56291051969,140.38148316254,
638,E0634100039111,田沢公民館,山形県大石田町大字田沢40-1,1,,,38.561412234593,140.36310817595,
639,E0634100040111,豊田公民館,山形県大石田町大字豊田789-4,1,,,38.602269600462,140.35766062044,
640,E0634100041111,あったまりランド深堀,山形県大石田町大字豊田884-1,1,,,38.599648425149,140.35674979774,
641,E0634100043111,町民交流センター,山形県大石田町緑町28,1,,,38.593223,140.372829,
642,E0634100045111,クロスカルチャープラザ,山形県大石田町緑町8,1,,,38.59261753,140.3728273,
643,E0636500005111,大蔵村保育所,山形県大蔵村大字清水1475-2,,,,38.69725412,140.2369607,
644,E0636500009111,大蔵村中央公民館,山形県大蔵村大字清水2620,,,,38.7058567,140.2311274,
645,E0636500010111,大蔵小学校,山形県大蔵村大字清水2688,,,,38.70734925,140.2313088,
646,E0636500011111,大蔵中学校,山形県大蔵村大字清水2722,,,,38.70645434,140.2329544,
647,E0636500038121,特別養護老人ホーム翠明荘,山形県大蔵村大字清水3137-60,,,高齢者,38.694215,140.233056,
648,E0636500018111,赤松生涯学習センター,山形県大蔵村大字赤松986-1,,,,38.67952166,140.2409807,
649,E0636500021111,沼の台防災センター,山形県大蔵村大字南山1447-1,,,,38.62831468,140.2198065,
650,E0636500024111,肘折防災センター,山形県大蔵村大字南山2126-213,,,,38.60721278,140.1631275,
651,E0636500025111,カルデラ温泉館,山形県大蔵村大字南山2127-79,,,,38.60771767,140.1517265,
652,E0636500026111,肘折保育所,山形県大蔵村大字南山3405-5,,,,38.60953263,140.1693687,
653,E0636500028111,肘折いでゆ館,山形県大蔵村大字南山451-2,,,,38.61126898,140.1694737,
654,E0636500032111,南山交流センター,山形県大蔵村大字南山64-5,,,,38.66824426,140.2085456,
655,E0636500035111,ふるさと味来館,山形県大蔵村大字南山967-9,,,,38.62401285,140.218315,
656,E0630200002111,総合体育館（アリーナ）,山形県中山町いずみ2,1,,,38.33951124,140.2749788,
657,E0630200003111,長崎小学校（体育館）,山形県中山町大字長崎1092,1,,,38.33338035,140.2847007,
658,E0630200006111,中山中学校（体育館）,山形県中山町大字長崎4880,1,,,38.338828322751,140.27113422733,
659,E0630200009111,中央公民館（大ホール）,山形県中山町大字長崎6010,1,,,38.33685147,140.2762816,
660,E0630200011111,豊田小学校（体育館）,山形県中山町大字土橋645,1,,,38.33104395,140.254503,
661,E0632300001111,宮宿小学校,山形県朝日町大字宮宿1021,1,,,38.30127,140.152427,
662,E0632300002111,朝日中学校,山形県朝日町大字宮宿108,1,,,38.304445947651,140.15947275975,
663,E0632300003111,朝日町民体育館,山形県朝日町大字宮宿1115,1,,,38.299276066636,140.14656996816,
664,E0632300004111,健康増進センター,山形県朝日町大字常盤518-2,1,,,38.285773529399,140.1272561235,
665,E0632300005111,西五百川小学校,山形県朝日町大字常盤い181-1,1,,,38.293469226859,140.12263482225,
666,E0632300006111,西部公民館,山形県朝日町大字常盤に519-7,1,,,38.285965383785,140.12676533139,
667,E0632300007111,秋葉山交遊館,山形県朝日町大字大谷1135-1,1,,,38.344452778423,140.17058317505,
668,E0632300008111,大谷小学校,山形県朝日町大字大谷1147,1,,,38.343249127435,140.17244710486,
669,E0632300011111,和合地域交流センター友和館,山形県朝日町大字和合2728,1,,,38.32771437053,140.16845548281,
670,E0620900001111,長井小学校,山形県長井市ままの上5-2,1,,,38.10779356,140.0423416,
671,E0620900002111,長井市役所,山形県長井市栄町1-1,1,,,38.1061004827066,140.033936321867,
672,E0620900004111,豊田小学校,山形県長井市歌丸976,1,,,38.06902206,140.0422809,
673,E0620900006111,置賜生涯学習プラザ,山形県長井市九野本1235-1,1,,,38.09025591,140.0204037,
674,E0620900007111,平野小学校,山形県長井市九野本3118,1,,,38.09203471,140.0063877,
675,E0620900008111,平野コミュニティセンター,山形県長井市九野本3174-1,1,,,38.0903353,140.008028,
676,E0620900010111,致芳小学校,山形県長井市五十川1091,1,,,38.13506952,140.0398872,
677,E0620900011111,致芳コミュニティセンター,山形県長井市五十川2316,1,,,38.13567734,140.0446903,
678,E0620900013111,ケミコンデバイス㈱長井工場体育館,山形県長井市幸町1-1,1,,,38.111581895531,140.03077314484,
679,E0620900014111,長井工業高等学校体育館,山形県長井市幸町9-17,1,,,38.11516799,140.0301695,
680,E0620900015111,長井高等学校体育館,山形県長井市四ツ谷2-5-1,1,,,38.09711715,140.0388498,
681,E0620900018111,豊田コミュニティセンター,山形県長井市時庭254,1,,,38.0742553,140.0368111,
682,E0620900020111,伊佐沢小学校,山形県長井市上伊佐沢2027,1,,,38.09458239,140.0669501,
683,E0620900022111,伊佐沢コミュニティセンター,山形県長井市上伊佐沢7312,1,,,38.09513709,140.0655364,
684,E0620900023111,長井北中学校,山形県長井市成田2883,1,,,38.1208936,140.0269858,
685,E0620900025111,長井南中学校,山形県長井市泉1819-1,1,,,38.08777668,140.0347528,
686,E0620900027111,西根コミュニティセンター,山形県長井市草岡322,1,,,38.133926514191,140.00805685093,
687,E0620900028111,西根小学校,山形県長井市草岡375,1,,,38.13393206,140.0058712,
688,E0620900030111,向山荘,山形県長井市中伊佐沢1256-8,1,,,38.08021015,140.0732989,
689,E0620300002111,ほのかたらのき代,山形県鶴岡市たらのき代字西野469-1,,,,38.6552985742714,139.912670913691,
690,E0620300010111,上郷コミュニティセンター,山形県鶴岡市みずほ49-1,1,,,38.7113750347,139.73704155308,
691,E0620300011111,第六学区コミュニティ防災センター,山形県鶴岡市みどり町22-28,,,,38.73141,139.806785,
692,E0620300012111,中央公民館,山形県鶴岡市みどり町22-36,,,,38.7323162690881,139.806914274219,
693,E0620300013111,中央公民館女性センター,山形県鶴岡市みどり町22-43,,,,38.7324167009176,139.807638470651,
694,E0620300021111,出羽庄内国際村,山形県鶴岡市伊勢原町8-32,,,,38.719204,139.849332,
695,E0620300022111,鶴岡工業高等専門学校体育館,山形県鶴岡市井岡字沢田104,1,,,38.708926169917,139.79720757295,
696,E0620300025111,一霞公民館,山形県鶴岡市一霞字宮之前68,,,,38.5999151295,139.646923754,
697,E0620300027111,第四学区コミュニティセンター,山形県鶴岡市稲生1-10-80,,,,38.718448,139.814746,
698,E0620300028111,鶴岡高等養護学校体育館,山形県鶴岡市稲生1-20-33,1,,,38.7138274232019,139.807181435188,
699,E0620300033111,広瀬地区地域活動センター,山形県鶴岡市羽黒町後田字下田元237,,,,38.715333,139.874613,
700,E0620300034112,広瀬小学校,山形県鶴岡市羽黒町後田字下田元9,1,,,38.7154779341641,139.873188748172,
701,E0620300034111,旧広瀬幼稚園,山形県鶴岡市羽黒町後田字下田元9,1,,,38.71524775037,139.87249891479,
702,E0620300035111,貴船保育園,山形県鶴岡市羽黒町後田字谷地堰186-1,,,,38.7159293078,139.882742898,
703,E0620300036111,やまぶし温泉・ゆぽか,山形県鶴岡市羽黒町後田字谷地堰188,,,,38.7153667097,139.882064855,
704,E0620300039111,羽黒小学校,山形県鶴岡市羽黒町荒川字花沢4,1,,,38.715947,139.91219,
705,E0620300040111,羽黒中学校,山形県鶴岡市羽黒町荒川字宮東28-1,1,,,38.7194752029,139.905876129,
706,E0620300043111,羽黒体育センター,山形県鶴岡市羽黒町荒川字前田元67-2,,,,38.718890941,139.902626711,
707,E0620300044111,泉地区地域活動センター,山形県鶴岡市羽黒町荒川字谷地堰11-1,1,,,38.71580242,139.900738477,
708,E0620300045111,羽黒コミュニティセンター,山形県鶴岡市羽黒町荒川字谷地堰28,,,,38.717364,139.900347,
709,E0620300046111,羽黒体育館,山形県鶴岡市羽黒町荒川字谷地堰29-1,,,,38.717308,139.899569,
710,E0620300047111,羽黒老人福祉センター,山形県鶴岡市羽黒町荒川字白山56-1,,,,38.7155099991,139.900516,
711,E0620300049111,いずみ保育園,山形県鶴岡市羽黒町市野山字山王林11,,,,38.715851579942,139.9239618891,
712,E0620300050111,いでは文化記念館,山形県鶴岡市羽黒町手向字院主南72,,,,38.704283,139.964408,
713,E0620300051111,手向地区地域活動センター,山形県鶴岡市羽黒町手向字黒沢31-1,,,,38.714733,139.959201,
714,E0620300052111,大東保育園,山形県鶴岡市羽黒町手向字手向139-1,,,,38.714716945901,139.9547105344,
715,E0620300053112,旧羽黒第一小学校,山形県鶴岡市羽黒町手向字手向179-1,1,,,38.711782,139.957464,
716,E0620300053111,旧大東幼稚園,山形県鶴岡市羽黒町手向字手向179-1,1,,,38.711504442129,139.95754359401,
717,E0620300054111,羽黒高等学校総合体育館,山形県鶴岡市羽黒町手向字薬師沢198,,,,38.718332762688,139.93843910185,
718,E0620300007121,特別養護老人ホームかみじ荘,山形県鶴岡市羽黒町手向薬師沢198-3,,,指定避難所での生活に支障があると認められる要配慮者及び当該要配慮者を介助する者,38.718329803107,139.94080845828,
719,E0620300059111,羽黒第四地区地域活動センター,山形県鶴岡市羽黒町上野新田字弐反割1-2,1,,,38.678896352015,139.91336547608,
720,E0620300060111,創造の森,山形県鶴岡市羽黒町川代字向山628,,,,38.681812695607,139.92885190287,
721,E0620300062111,越沢センター,山形県鶴岡市越沢字黒坪沢48-2,,,,38.5464296816619,139.69032740559,
722,E0620300063111,まやのやかた,山形県鶴岡市越沢字蛇喰111-1,1,,,38.5453304444475,139.688414990554,
723,E0620300069111,谷口公民館,山形県鶴岡市越中山字谷口83,1,,,38.6181062901,139.846329057,
724,E0620300070111,中入公民館,山形県鶴岡市越中山字中入163-2,1,,,38.611856082931,139.84694807789,
725,E0620300071111,立岩公民館,山形県鶴岡市越中山字立岩77-1,1,,,38.608372334938,139.84178076354,
726,E0620300074111,岡山公民館,山形県鶴岡市岡山字六供141,,,,38.707085118043,139.788373009664,
727,E0620300079111,あつみ保育園,山形県鶴岡市温海字荻田177-1,,,,38.616043274535,139.59450875616,
728,E0620300080111,あつみ小学校,山形県鶴岡市温海字荻田240-1,1,,,38.618172,139.592771,
729,E0620300082111,温海公民館,山形県鶴岡市温海字温海17,,,,38.628477,139.58918,
730,E0620300086111,鶴岡市温海ふれあいセンター,山形県鶴岡市温海字温海577-1,1,,,38.6211863063,139.586908856,
731,E0620300094111,泉徳寺,山形県鶴岡市温海字米子71-1,1,,,38.638760624416,139.59635052535,
732,E0620300096111,暮坪公民館,山形県鶴岡市温海字暮坪27,,,,38.6454488507,139.596859711,
733,E0620300098111,東傳寺,山形県鶴岡市温海川乙162,1,,,38.592035078016,139.70766865721,
734,E0620300099111,温海川集落センター,山形県鶴岡市温海川字越沢3-1,,,,38.594672738971,139.708182806866,
735,E0620300109111,西郷小学校,山形県鶴岡市下川字樋渡100,,,,38.780922863701,139.78600895372,
736,E0620300111111,西郷地区農林活性化センター,山形県鶴岡市下川字龍花1-1,,,,38.782288587966,139.787571136,
737,E0620300114111,松並公民館,山形県鶴岡市下川龍花崎36-545,,,,38.786275628012,139.767920307673,
738,E0620300117111,大平公民館,山形県鶴岡市下田沢字東34-2,1,,,38.53310926912,139.81870294392,
739,E0620300118111,下名川公民館,山形県鶴岡市下名川字村東64,1,,,38.597378690449,139.8443978256,
740,E0620300119111,あさひ小学校,山形県鶴岡市下名川字落合2,1,,,38.611234,139.835534,
741,E0620300120111,朝日中央コミュニティセンター,山形県鶴岡市下名川字落合220,1,,,38.612046968754,139.83555511421,
742,E0620300653111,加茂コミュニティ防災センター,山形県鶴岡市加茂字坂ノ下166,,,,38.759815,139.735177,
743,E0620300129111,加茂水産高等学校体育館,山形県鶴岡市加茂字大崩595,,,,38.762646464874,139.72952861044,
744,E0620300131111,旧加茂小学校,山形県鶴岡市加茂字弁慶沢200,,,,38.763993,139.735537,
745,E0620300132111,鶴岡工業高等学校体育館,山形県鶴岡市家中新町8-1,1,,,38.7301607184478,139.822870082599,
746,E0620300654111,斎コミュニティ防災センター,山形県鶴岡市我老林字野中川原35-2,,,,38.70502,139.848535,
747,E0620300135111,斎小学校,山形県鶴岡市我老林字野中川原51,,,,38.7053782301,139.84763619118,
748,E0620300138111,釜谷坂公民館,山形県鶴岡市釜谷坂38-1,,,,38.6188859992,139.583840304,
749,E0620300631121,特別養護老人ホーム永寿荘,山形県鶴岡市茅原町28-10,,,指定避難所での生活に支障があると認められる要配慮者及び当該要配慮者を介助する者,38.752618445683,139.84235765213,
750,E0620300146111,関川しな織の里ぬくもり館,山形県鶴岡市関川字向222,,,,38.5176503414,139.67751331,
751,E0620300150111,宮沢公民館（７．０ｍ）,山形県鶴岡市宮沢字小沢67,,,,38.7748992640148,139.748368766038,
752,E0620300154111,熊野神社,山形県鶴岡市金沢字向山76,1,,,38.771153780313,139.74110654707,
753,E0620300155111,金沢公民館,山形県鶴岡市金沢字向山98-1,,,,38.7713837445856,139.740517272937,
754,E0620300157111,熊出下自治会公民館,山形県鶴岡市熊出字下村172-3,1,,,38.636154002431,139.84318722845,
755,E0620300158111,熊出中自治会公民館,山形県鶴岡市熊出字長表25,1,,,38.629520359982,139.84325176044,
756,E0620300159111,熊出上自治会公民館,山形県鶴岡市熊出字日鑓209,1,,,38.618430876928,139.83735696682,
757,E0620300172111,小堅コミュニティセンター,山形県鶴岡市堅苔沢字淵ノ上334,,,,38.683058023746,139.6396187147,
758,E0620300175111,堅苔沢公民館,山形県鶴岡市堅苔沢字淵ノ上533,1,,,38.6858999956459,139.638115626075,
759,E0620300179111,強龍寺,山形県鶴岡市戸沢字滝野本279,,,,38.636744018426,139.69098346832,
760,E0620300180111,戸沢自治公民館,山形県鶴岡市戸沢字東俣168-1,,,,38.6382541781727,139.68359774289,
761,E0620300184111,安土公民館,山形県鶴岡市五十川字安土46-1,,,,38.6677407211,139.633689232,
762,E0620300187111,鈴公民館,山形県鶴岡市五十川字黒滝34,1,,,38.6590757363,139.606202825,
763,E0620300191111,旧五十川小学校,山形県鶴岡市五十川字山之脇183-2,1,,,38.6698863516,139.621755271,
764,E0620300198111,五十川公民館,山形県鶴岡市五十川字浜千鳥14,,,,38.6720662790087,139.617694373689,
765,E0620300200111,遭龍寺,山形県鶴岡市五十川字浜千鳥35,,,,38.670847317802,139.61758770573,
766,E0620300204111,鱒淵公民館,山形県鶴岡市荒沢字鱒淵119,1,,,38.501958979382,139.80173210457,
767,E0620300210111,京田小学校,山形県鶴岡市高田字下村104,,,,38.752607,139.807198,
768,E0620300212111,京田コミュニティ防災センター,山形県鶴岡市高田字下村336-1,,,,38.751806,139.808816,
769,E0620300214111,櫛引東小学校,山形県鶴岡市黒川字小在家90,,,,38.6708774155215,139.865991632247,
770,E0620300219111,今泉公民館,山形県鶴岡市今泉字真台239,,,,38.759219055376,139.72493736153,
771,E0620300234111,豊浦中学校,山形県鶴岡市三瀬字横町33-2,1,,,38.701903144407,139.66492655422,
772,E0620300236111,三瀬コミュニティセンター,山形県鶴岡市三瀬字堅田138-8,,,,38.700789,139.671319,
773,E0620300239111,豊浦小学校,山形県鶴岡市三瀬字菖蒲田88-1,1,,,38.7014285316927,139.674315945869,
774,E0620300243111,櫛引スポーツセンター,山形県鶴岡市三千刈字清和158-1,,,,38.680429463562,139.857086590713,
775,E0620300247111,佐藤診療所山戸出張所,山形県鶴岡市山五十川乙225-2,1,,,38.6480132221143,139.656582444638,
776,E0620300248111,山五十川古典芸能収蔵館,山形県鶴岡市山五十川甲475-1,,,,38.6532086862863,139.655610581443,
777,E0620300249111,旧山戸小学校,山形県鶴岡市山五十川字山崎1,1,,,38.6477871573,139.66043731,
778,E0620300251111,山五十川公民館,山形県鶴岡市山五十川字木ノ下475-1,,,,38.652130272876,139.65465419361,
779,E0620300252111,山戸保育園,山形県鶴岡市山五十川字木ノ下475-2,,,,38.6516506861,139.654872172,
780,E0620300258111,朝暘第三小学校,山形県鶴岡市若葉町1-32,,,,38.7358009663,139.826388738,
781,E0620300259111,鶴岡北高等学校体育館,山形県鶴岡市若葉町16-5,1,,,38.733004263855,139.82676242626,
782,E0620300260112,鶴岡南高等学校柔道場,山形県鶴岡市若葉町26-31,1,,,38.7303189634,139.82459477115,
783,E0620300260111,鶴岡南高等学校鶴翔会館,山形県鶴岡市若葉町26-31,1,,,38.7305700497293,139.824648415329,
784,E0620300628111,小岩川公民館,山形県鶴岡市小岩川163-1,,,,38.59116,139.565599,
785,E0620300629111,西光寺,山形県鶴岡市小岩川240,,,,38.589609,139.565509,
786,E0620300269111,峠ノ山集会センター,山形県鶴岡市小国字西山57-18,,,,38.5897231584921,139.617743914977,
787,E0620300271111,交流促進センター,山形県鶴岡市小国字沢田51-1,1,,,38.566994422778,139.63653038984,
788,E0620300273111,小国山村振興センター,山形県鶴岡市小国字町尻2-6,1,,,38.572431776278,139.63658124733,
789,E0620300274112,朝暘武道館,山形県鶴岡市小真木原町2-1,,,,38.712112675,139.814207204,
790,E0620300276111,鶴岡第四中学校,山形県鶴岡市小真木原町3-1,,,,38.714001,139.812199,
791,E0620300278111,小菅野代公民館,山形県鶴岡市小菅野代字宮野沢158,,,,38.645093,139.621913,
792,E0620300280111,東福寺（２３．８ｍ）,山形県鶴岡市小波渡字甘木台408,,,,38.6910294212515,139.64830038956,
793,E0620300282111,皇大神社（３２．０ｍ）,山形県鶴岡市小波渡字宮林45,,,,38.6915779266323,139.649448375013,
794,E0620300283111,小波渡自治会館,山形県鶴岡市小波渡字浜田53-1,,,,38.6937334749011,139.650510065703,
795,E0620300288111,小名部公民館,山形県鶴岡市小名部字上浜田137-3,1,,,38.535972,139.615131,
796,E0620300289111,平沢公民館,山形県鶴岡市小名部字平沢176,,,,38.5368029014,139.630326696,
797,E0620300293111,第二学区コミュニティ防災センター,山形県鶴岡市昭和町11-22,,,,38.724742,139.834191,
798,E0620300298111,櫛引西小学校,山形県鶴岡市上山添字文栄1,1,,,38.6803706492097,139.84471203639,
799,E0620300299111,鶴岡南高等学校山添校体育館,山形県鶴岡市上山添字文栄38,1,,,38.678565085073,139.8455780157,
800,E0620300300111,櫛引中学校,山形県鶴岡市上山添字文栄86,1,,,38.6805815700525,139.8500535151,
801,E0620300301111,櫛引生涯学習センターホール,山形県鶴岡市上山添字文栄90,,,,38.6788818509771,139.849359500993,
802,E0620300304111,朝日庁舎南出張所,山形県鶴岡市上田沢字下中島25,1,,,38.518802794569,139.78808882512,
803,E0620300305111,朝日南部コミュニティセンター,山形県鶴岡市上田沢字船渡3-14,1,,,38.524789,139.787035,
804,E0620300306111,旧朝日大泉小学校,山形県鶴岡市上田沢字中明64,1,,,38.525133,139.787762,
805,E0620300310111,駅前町内会館,山形県鶴岡市上藤島備中下3-2,,,,38.767328508941,139.89469757884,
806,E0620300314111,鶴岡第三中学校,山形県鶴岡市城南町25-1,1,,,38.712778807867,139.83033060762,
807,E0620300320111,山形大学農学部体育館,山形県鶴岡市新形町1-23,1,,,38.736647863201,139.82699885612,
808,E0620300321111,山形大学農学部農学部会館,山形県鶴岡市新形町17-23,,,,38.7361802356793,139.828719865448,
809,E0620300334111,鶴岡市リサイクルプラザ,山形県鶴岡市水沢字水京68-1,,,,38.7088781251169,139.733867059773,
810,E0620300337112,菅野代公民館,山形県鶴岡市菅野代字宮野下3-1,,,,38.626859355823,139.720818925564,
811,E0620300337111,旧菅野代小中学校,山形県鶴岡市菅野代字宮野下3-1,,,,38.6267587757562,139.720824289988,
812,E0620300349111,草井谷公民館,山形県鶴岡市西目字水上沢15,,,,38.737736960893,139.73528711683,
813,E0620300656111,竹野浦公民館,山形県鶴岡市西目字竹野浦107-1,1,,,38.732042,139.724788,
814,E0620300359111,青龍寺公民館,山形県鶴岡市青龍寺字村下103-12,,,,38.69058869573,139.81654623672,
815,E0620300361111,黄金コミュニティ防災センター,山形県鶴岡市青龍寺字北内203-1,,,,38.691274,139.815292,
816,E0620300362111,黄金小学校,山形県鶴岡市青龍寺字北内48,1,,,38.689667173396,139.81417259032,
817,E0620300364111,朝暘第五小学校,山形県鶴岡市切添町15-4,,,,38.730388,139.844417,
818,E0620300365111,学校法人齋藤学園鶴岡東高等学校体育館,山形県鶴岡市切添町22-30,,,,38.7297641236157,139.840936229755,
819,E0620300367111,東栄小学校,山形県鶴岡市川尻字町上14,1,,,38.748762778849,139.93466063396,
820,E0620300368111,勤労者会館,山形県鶴岡市泉町8-57,,,,38.731032521413,139.83040056134,
821,E0620300371111,鼠ヶ関小学校,山形県鶴岡市鼠ケ関字横路497-2,1,,,38.5560709991,139.555649,
822,E0620300372111,鼠ヶ関保育園,山形県鶴岡市鼠ケ関字横路806,,,,38.560585,139.549342,
823,E0620300375111,興屋公民館,山形県鶴岡市鼠ケ関字興屋2-1,,,,38.558334931604,139.5482088928,
824,E0620300377111,鼠ヶ関公民館,山形県鶴岡市鼠ケ関字原海150,1,,,38.5555839169,139.545426464,
825,E0620300378111,原海公民館,山形県鶴岡市鼠ケ関字原海34,,,,38.5537507272212,139.547433619761,
826,E0620300381111,鍋倉集会センター,山形県鶴岡市鼠ケ関字鍋倉82,1,,,38.549121,139.591232,
827,E0620300388111,皇大神社,山形県鶴岡市早田字上ノ山126,,,,38.5736673290544,139.557241362828,
828,E0620300389111,早田公民館,山形県鶴岡市早田字上ノ山162-1,,,,38.572745,139.555118,
829,E0620300390111,諏訪神社,山形県鶴岡市早田字上ノ山173,1,,,38.571821971662,139.55552206685,
830,E0620300393111,大龍寺,山形県鶴岡市早田丙151,1,,,38.572803372176,139.55641256023,
831,E0620300397111,温海中学校,山形県鶴岡市大岩川字黒岩35,1,,,38.602897,139.591661,
832,E0620300399111,浜中公民館,山形県鶴岡市大岩川字沢山509-3,,,,38.6043391372,139.5762361,
833,E0620300403111,宮名公民館,山形県鶴岡市大岩川字白岩410-43,,,,38.6102737109,139.576495448,
834,E0620300408111,上郷小学校,山形県鶴岡市大広字山崎61,,,,38.711069871454,139.7333983578,
835,E0620300414111,大山小学校,山形県鶴岡市大山2-20-1,1,,,38.7498746025,139.764427078,
836,E0620300005121,特別養護老人ホームおおやま,山形県鶴岡市大山3-34-1,,,指定避難所での生活に支障があると認められる要配慮者及び当該要配慮者を介助する者,38.751200286139,139.76418695041,
837,E0620300416111,鶴岡第五中学校,山形県鶴岡市大山字若柳271,1,,,38.755384,139.769979,
838,E0620300424111,大鳥自然の家,山形県鶴岡市大鳥字寿岡112,1,,,38.4701141391,139.761203911,
839,E0620300425111,旧大鳥防雪センター,山形県鶴岡市大鳥字寿岡219,1,,,38.46827143755,139.76035837007,
840,E0620300429111,鶴岡養護学校体育館,山形県鶴岡市大塚町5-44,1,,,38.7385801995491,139.810826320887,
841,E0620300433111,鶴岡中央高等学校体育館,山形県鶴岡市大宝寺字日本国410,1,,,38.744992594728,139.82541455656,
842,E0620300437111,大網地区地域交流センター,山形県鶴岡市大網字興屋38-6,1,,,38.5930343507155,139.896725983155,
843,E0620300438111,下村公民館,山形県鶴岡市大網字西大石90-1,1,,,38.592096588013,139.89443067454,
844,E0620300439111,上村公民館,山形県鶴岡市大網字大網149,1,,,38.592034828359,139.9016333984,
845,E0620300440111,中村公民館,山形県鶴岡市大網字中田122,1,,,38.598535294646,139.89628509483,
846,E0620300442111,滝沢集会所,山形県鶴岡市滝沢字村内31-2,,,,38.6741655426071,139.817776994255,
847,E0620300444111,東栄地区地域活動センター,山形県鶴岡市蛸井興屋字水尻26-2,,,,38.74765,139.934098,
848,E0620300460111,中野新田公民館,山形県鶴岡市中野新田字居村25,1,,,38.624193875483,139.84693384408,
849,E0620300466112,長沼地区地域活動センター,山形県鶴岡市長沼字宮前164,1,,,38.8087884898402,139.8750293857373,
850,E0620300471111,藤島農村環境改善センター,山形県鶴岡市添川字新地315,,,,38.736649,139.960403,
851,E0620300472111,添川集落センター,山形県鶴岡市添川字池苗代66,,,,38.742055981933,139.96285511464,
852,E0620300475111,田川コミュニティセンター,山形県鶴岡市田川字高田9,,,,38.6855839412128,139.748051191966,
853,E0620300481111,旧田麦俣分校体育館,山形県鶴岡市田麦俣字七ツ滝91-2,1,,,38.5698552915,139.919741364,
854,E0620300482111,田麦俣公民館,山形県鶴岡市田麦俣字七ツ滝94-6,1,,,38.569338742727,139.92077361391,
855,E0620300483111,渡前小学校,山形県鶴岡市渡前字中屋敷1,1,,,38.751932485937,139.88658471757,
856,E0620300484111,渡前地区地域活動センター,山形県鶴岡市渡前字中屋敷28,,,,38.7530526567,139.886889145,
857,E0620300485111,沖田公民館,山形県鶴岡市東岩本字沖田109-1,1,,,38.631243253502,139.85355981164,
858,E0620300487111,北野公民館,山形県鶴岡市東岩本字北野66,1,,,38.631831639555,139.85853283155,
859,E0620300488111,朝日スポーツセンター,山形県鶴岡市東岩本字野中143,1,,,38.625404,139.852275,
860,E0620300489111,野中公民館,山形県鶴岡市東岩本字野中51,1,,,38.626867176971,139.85039106789,
861,E0620300490111,朝暘第二小学校,山形県鶴岡市東原町25-1,1,,,38.720119604159,139.84323698528,
862,E0620300493111,櫛引南小学校,山形県鶴岡市東荒屋字竹の内212,1,,,38.6499922187404,139.852177558152,
863,E0620300497111,湯之里公民館,山形県鶴岡市湯温海字紅葉岡123-5,,,,38.6131203724181,139.598593950117,
864,E0620300503111,温海温泉林業センター,山形県鶴岡市湯温海字湯之里88-7,,,,38.6145239902396,139.603941442418,
865,E0620300511111,湯野浜コミュニティセンター,山形県鶴岡市湯野浜1-1-7,,,,38.779822,139.751683,
866,E0620300510111,湯野浜小学校,山形県鶴岡市湯野浜1-16-38,,,,38.785952989103,139.75593379329,
867,E0620300004121,特別養護老人ホームしおん荘,山形県鶴岡市湯野浜1-17-35,,,指定避難所での生活に支障があると認められる要配慮者及び当該要配慮者を介助する者,38.785965667332,139.75735928775,
868,E0620300519111,藤島体育館,山形県鶴岡市藤の花1-1-1,,,,38.770515,139.907811,
869,E0620300636121,特別養護老人ホームふじの花荘,山形県鶴岡市藤の花1-18-1,,,指定避難所での生活に支障があると認められる要配慮者及び当該要配慮者を介助する者,38.772813391466,139.90843482742,
870,E0620300520111,藤島小学校,山形県鶴岡市藤の花2-1-1,1,,,38.770143948531,139.90561212106,
871,E0620300521111,障害者支援施設鶴岡市愛光園ワークセンター軽井沢,山形県鶴岡市藤沢字軽井沢68,,,,38.7022632632962,139.787537499599,
872,E0620300521112,障害者支援施設鶴岡市愛光園体育館,山形県鶴岡市藤沢字軽井沢68,,,,38.7022967546682,139.787129803824,
873,E0620300522111,湯田川コミュニティセンター,山形県鶴岡市藤沢字西側174-1,,,,38.69444,139.773194,
874,E0620300525111,藤島ふれあいセンター,山形県鶴岡市藤島字古楯跡94-1,,,,38.7673129991,139.90089,
875,E0620300528111,藤島地区地域活動センター,山形県鶴岡市藤島字笹花73,,,,38.768291,139.904789,
876,E0620300529111,藤島中学校,山形県鶴岡市藤島字笹花86-1,1,,,38.768904554232,139.90654976055,
877,E0620300532111,鶴岡第一中学校,山形県鶴岡市道田町1-82,,,,38.727332,139.804421,
878,E0620300539111,旧栄小学校,山形県鶴岡市播磨字若松51-1,1,,,38.77044697285,139.82447112316,
879,E0620300540111,栄コミュニティ防災センター,山形県鶴岡市播磨字若松95-1,,,,38.771789,139.823996,
880,E0620300544111,大泉小学校,山形県鶴岡市白山字西野148,,,,38.7270539991,139.780812,
881,E0620300548111,八栄島地区地域活動センター,山形県鶴岡市八色木字西野102-4,,,,38.787914,139.899156155,
882,E0620300632121,特別養護老人ホーム池幸園,山形県鶴岡市美原町4-40,,,指定避難所での生活に支障があると認められる要配慮者及び当該要配慮者を介助する者,38.721971770331,139.82149872244,
883,E0620300555111,菱津公民館,山形県鶴岡市菱津字川内173,,,,38.7414590457961,139.743278445089,
884,E0620300561111,第一学区コミュニティ防災センター,山形県鶴岡市文園町1-63,,,,38.718612,139.827709,
885,E0620300562111,朝暘第一小学校,山形県鶴岡市文園町2-1,1,,,38.71765107422,139.82696040759,
886,E0620300566111,ふるさとむら宝谷,山形県鶴岡市宝谷字舞台170,,,,38.6420267341837,139.898599583874,
887,E0620300568111,第五学区コミュニティ防災センター,山形県鶴岡市宝町18-77,,,,38.735408,139.841437,
888,E0620300571111,鶴岡第二中学校,山形県鶴岡市宝田2-8-34,,,,38.74739138455,139.83862265238,
889,E0620300578111,下本郷公民館,山形県鶴岡市本郷字細越72-1,1,,,38.609765299987,139.83137682118,
890,E0620300579111,朝日中学校,山形県鶴岡市本郷字笹目50,,,,38.60429,139.831923,
891,E0620300580111,上本郷公民館,山形県鶴岡市本郷字平沢下10,1,,,38.596696172061,139.82893346432,
892,E0620300584111,槙代公民館,山形県鶴岡市槙代字内沢98-2,,,,38.59086,139.60423,
893,E0620300587111,マリカ３Ｆ,山形県鶴岡市末広町3-22,,,,38.7390225011173,139.836435173718,
894,E0620300003121,特別養護老人ホームかけはし,山形県鶴岡市民田字代家田100-1,,,指定避難所での生活に支障があると認められる要配慮者及び当該要配慮者を介助する者,38.703546143734,139.82634645831,
895,E0620300592111,福栄保育園,山形県鶴岡市木野俣字前川原7-1,,,,38.562588,139.687743,
896,E0620300593111,旧福栄小学校,山形県鶴岡市木野俣字不動滝11-1,1,,,38.55846,139.688322,
897,E0620300594111,木野俣集落センター,山形県鶴岡市木野俣字木野俣241-1,,,,38.5669300639,139.690645484,
898,E0620300596111,農村センター,山形県鶴岡市矢馳字上矢馳258,,,,38.726725938,139.778632237,
899,E0620300598111,朝暘第四小学校,山形県鶴岡市柳田字田中28-1,1,,,38.722003035461,139.80978561211,
900,E0620300655111,油戸公民館,山形県鶴岡市油戸字中田361-1,,,,38.744662,139.711931,
901,E0620300604111,大山コミュニティセンター,山形県鶴岡市友江町23-71,1,,,38.7497319991,139.770088,
902,E0620300611111,旧由良小学校（由良小学校跡地）,山形県鶴岡市由良1-21-70,1,,,38.717332,139.686375,
903,E0620300627111,由良コミュニティセンター,山形県鶴岡市由良2-14-53,,,,38.721102,139.685488,
904,E0620300624111,朝暘第六小学校,山形県鶴岡市淀川町9-70,1,,,38.729554,139.802477,
905,E0621000002111,天童南部公民館,山形県天童市一日町1-13-1,1,,,38.3492706,140.3678727,
906,E0621000018111,山形県総合運動公園（屋内施設）,山形県天童市山王1-1,1,,,38.33628443,140.3755212,
907,E0621000019111,山形県教育センター（宿泊棟）,山形県天童市山元字犬倉津2515,,,,38.35809028,140.3909489,
908,E0621000028112,干布小学校（屋内運動場）,山形県天童市大字干布580,1,,,38.33483035,140.393519,
909,E0621000028111,干布公民館,山形県天童市大字干布580,1,,,38.33447666,140.393415,
910,E0621000031111,津山公民館,山形県天童市大字貫津2434,1,,,38.35600388,140.3917965,
911,E0621000032111,津山小学校（屋内運動場）,山形県天童市大字貫津591,1,,,38.35482559,140.3908052,
912,E0621000034111,第二中学校（屋内運動場）,山形県天童市大字久野本1674,1,,,38.37346954,140.3863656,
913,E0621000035111,第一中学校（屋内運動場）,山形県天童市大字原町10-1,1,,,38.343164433507,140.38335038553,
914,E0621000036121,特別養護老人ホームあこがれ,山形県天童市大字荒谷1973-1345,,,要配慮者,38.32720633,140.3872034,
915,E0621000037121,介護老人保健施設あこがれ,山形県天童市大字荒谷1973-884,,,要配慮者,38.32690893,140.3878492,
916,E0621000038111,荒谷小学校（屋内運動場）,山形県天童市大字荒谷7857,1,,,38.31919128,140.3920702,
917,E0621000039111,荒谷公民館,山形県天童市大字荒谷8445-1,1,,,38.31773156,140.3896655,
918,E0621000044111,成生公民館,山形県天童市大字高木735,1,,,38.37859585,140.3609985,
919,E0621000045111,成生小学校（屋内運動場）,山形県天童市大字高木836,1,,,38.37923283,140.361115,
920,E0621000050111,高擶小学校（屋内運動場）,山形県天童市大字高擶北239,1,,,38.33479189,140.3480826,
921,E0621000051111,山形県立天童高等学校（屋内運動場）,山形県天童市大字山元850,1,,,38.37173114,140.3885067,
922,E0621000053111,山口小学校（屋内運動場）,山形県天童市大字山口1919,1,,,38.38796966,140.4091926,
923,E0621000054111,山口公民館,山形県天童市大字山口1969-1,1,,,38.38600257,140.4088731,
924,E0621000055121,社会福祉法人みらい　きらめきの里,山形県天童市大字山口4540-1,,,要配慮者・高齢者,38.3814306559402,140.414667577463,
925,E0621000059111,寺津小学校（屋内運動場）,山形県天童市大字寺津1350,1,,,38.34830168,140.3156222,
926,E0621000061111,天童市スポーツセンター（体育館）,山形県天童市大字小関1230,1,,,38.36539744,140.3594997,
927,E0621000062121,救護施設紅花ホーム,山形県天童市大字成生1971-26,,,要配慮者,38.394909794786,140.36649022646,
928,E0621000063111,高擶公民館,山形県天童市大字清池151-1,1,,,38.333554,140.348829,
929,E0621000064111,羽陽学園短期大学（屋内運動場）,山形県天童市大字清池1559,1,,,38.33017396,140.3536175,
930,E0621000065121,地域密着型特別養護老人ホームたかだま,山形県天童市大字清池1559-1,,,要配慮者,38.329612992708,140.35252127693,
931,E0621000069111,蔵増小学校（屋内運動場）,山形県天童市大字蔵増676,1,,,38.36784547,140.3423261,
932,E0621000072111,蔵増公民館,山形県天童市大字蔵増南672,1,,,38.366808861672,140.34132350005,
933,E0621000073122,特別養護老人ホーム清幸園,山形県天童市大字大清水491-1,,,要配慮者,38.38746757,140.3529854,
934,E0621000073121,地域密着型特別養護老人ホーム清幸園,山形県天童市大字大清水491-1,,,要配慮者,38.38755911,140.3529895,
935,E0621000074111,天童市農業者トレーニングセンター,山形県天童市大字長岡1731-2,1,,,38.3347003,140.3501141,
936,E0621000075111,高原の里交流施設ぽんぽこ（屋内運動場）,山形県天童市大字田麦野381,1,,,38.36296416,140.4632196,
937,E0621000077111,寺津公民館,山形県天童市大字藤内新田1656,1,,,38.350272342203,140.31804334418,
938,E0621000079121,介護老人保健施設ラ・フォーレ天童,山形県天童市大字道満193-1,,,要配慮者,38.391174180361,140.38889061709,
939,E0621000081111,第三中学校（屋内運動場）,山形県天童市大字矢野目1285,1,,,38.35774475,140.3540098,
940,E0621000082121,障害福祉サービス事業所天童ひまわり園,山形県天童市大字矢野目129-2,,,障害者（児）,38.352598102883,140.349572817647,
941,E0621000083121,特別養護老人ホーム明幸園,山形県天童市大字矢野目150,,,要配慮者,38.352957652726,140.35078180704,
942,E0621000084121,のぞみハウス,山形県天童市大字矢野目2195,,,障害者（児）,38.3526439086359,140.350211424584,
943,E0621000085121,障害福祉サービス事業所きらり,山形県天童市大字矢野目2215,,,障害者（児）,38.3526688079089,140.350694547275,
944,E0621000086121,共同生活援助事業所あかり,山形県天童市大字矢野目319-2,,,障害者,38.3522841062701,140.349474664494,
945,E0621000101111,天童南部小学校（屋内運動場）,山形県天童市田鶴町4-2-10,1,,,38.35747971,140.3657012,
946,E0621000104111,長岡小学校（屋内運動場）,山形県天童市東長岡3-3-1,1,,,38.33043789,140.3657317,
947,E0621000105111,長岡公民館,山形県天童市東長岡3-4-1,1,,,38.33136935,140.3661314,
948,E0621000117111,第四中学校（屋内運動場）,山形県天童市柏木町1-3-1,1,,,38.36778339,140.3706557,
949,E0621000122121,特別養護老人ホームさくらホーム天童,山形県天童市芳賀タウン南4-8-3,,,要配慮者,38.3406331803171,140.35895516387,
950,E0621000134111,天童北部小学校（屋内運動場）,山形県天童市乱川4-2-25,1,,,38.38349865,140.3801864,
951,E0621000136111,天童北部公民館,山形県天童市乱川4-3-2,1,,,38.38234674,140.3798502,
952,E0621000137111,天童市市民文化会館,山形県天童市老野森1-1-1,1,,,38.36210728,140.3792305,
953,E0621000140111,天童中部公民館,山形県天童市老野森2-6-1,1,,,38.36315895,140.3737809,
954,E0621000141111,天童市勤労青少年ホーム,山形県天童市老野森2-6-2,1,,,38.3634673,140.3739698,
955,E0621000142111,天童市総合福祉センター,山形県天童市老野森2-6-3,1,,,38.3637587,140.3740451,
956,E0621000143111,天童中部小学校（屋内運動場）,山形県天童市老野森2-6-4,1,,,38.36428421,140.3741141,
957,E0621100007111,第一中学校,山形県東根市鷺の宿1-1,1,,,38.450186969533,140.39163356795,
958,E0621100011111,神町防災センター,山形県東根市神町東4-4-8,1,,,38.406704818954,140.38522838578,
959,E0621100012111,神町小学校,山形県東根市神町南3-2-3,1,,,38.402277409329,140.38343426655,
960,E0621100013111,大森小学校,山形県東根市神町北2-1-1,1,,,38.418608030082,140.38436340368,
961,E0621100018111,神町中学校,山形県東根市神町北5-11-1,1,,,38.413792257027,140.38745247493,
962,E0621100020111,大富公民館,山形県東根市大字羽入723,1,,,38.405247051765,140.35304676527,
963,E0621100021111,大富小学校,山形県東根市大字羽入841,1,,,38.408299113893,140.35046149188,
964,E0621100053111,西部防災センター,山形県東根市大字蟹沢1156-4,1,,,38.437359,140.366653,
965,E0632100060113,西部防災センター,山形県東根市大字蟹沢1156-4,,,,38.437359,140.366653,
966,E0621100023111,第二中学校,山形県東根市大字蟹沢950-15,1,,,38.446275806424,140.3700056843,
967,E0621100025111,高崎小学校,山形県東根市大字観音寺2162,1,,,38.415596878848,140.45504051544,
968,E0621100026111,高崎公民館,山形県東根市大字観音寺2167-2,1,,,38.416365827976,140.45434463558,
969,E0621100027111,小田島小学校,山形県東根市大字郡山411-1,1,,,38.433112355592,140.35882030153,
970,E0632100058111,東根市立小田島小学校,山形県東根市大字郡山411-1,1,,,38.433112355592,140.35882030153,
971,E0621100028111,小田島公民館,山形県東根市大字郡山672,1,,,38.432285653597,140.36032486178,
972,E0621100029111,第三中学校,山形県東根市大字泉郷乙1922,1,,,38.420701046537,140.43746219495,
973,E0621100029112,東郷小学校,山形県東根市大字泉郷乙1922,1,,,38.420490903474,140.43533520321,
974,E0621100030111,長瀞公民館,山形県東根市大字長瀞1259,1,,,38.458125603711,140.377211925,
975,E0621100031111,長瀞小学校,山形県東根市大字長瀞188-1,1,,,38.454043038727,140.3754960207,
976,E0621100036111,東郷公民館,山形県東根市大字野川1184-1,1,,,38.415756235678,140.4353751621,
977,E0621100039111,さくらんぼタントクルセンター,山形県東根市中央1-5-1,1,,,38.430418267608,140.39320725397,
978,E0621100042111,東根中部小学校,山形県東根市中央2-5-1,1,,,38.432837205899,140.3874765477,
979,E0621100046111,東根中央運動公園体育館,山形県東根市中央西1-1,1,,,38.436964727581,140.38799214811,
980,E0632100061113,東根市民体育館,山形県東根市東根乙1119-1,,,,38.423489752227,140.40640904618,
981,E0621100048111,東根市民体育館,山形県東根市東根乙1119-1,1,,,38.423489752227,140.40640904618,
982,E0632100059111,東根市立大富中学校,山形県東根市柏原3-1-1,1,,,38.404335806214,140.36307663238,
983,E0621100049111,大富中学校,山形県東根市柏原3-1-1,1,,,38.404335806214,140.36307663238,
984,E0621100051111,東根小学校,山形県東根市本丸南1-1-1,1,,,38.441683214019,140.40307222832,
985,E0621100052111,東根公民館,山形県東根市本町6-1,1,,,38.440277172449,140.39896890325,
986,E0621300002121,特別養護老人ホーム　太陽の里ふたば,山形県南陽市宮内2381,,,,38.0724451020105,140.145173433866,
987,E0621300030121,介護老人保健施設　ほなみ荘,山形県南陽市宮内3750-1,,,,38.0773143497501,140.135298102024,
988,E0621300014111,南陽市民体育館,山形県南陽市三間通1096,1,,,38.062824087516,140.1519106444,
989,E0621300034121,特別養護老人ホーム　つばさノ杜,山形県南陽市若狭郷屋811-1,,,,38.0521329314084,140.146142698477,
990,E0621300033121,特別養護老人ホーム　こぶし荘,山形県南陽市川樋508,,,,38.0953349558683,140.194366747328,
991,E0621300003121,介護老人保健施設　ドミール南陽,山形県南陽市椚塚948-1,,,,38.043541938524,140.172627455459,
992,E0640200002111,鮎貝地区コミュニティセンター,山形県白鷹町大字鮎貝3994-7,,,,38.197141412512,140.07634978791,
993,E0640200003111,白鷹町立鮎貝小学校,山形県白鷹町大字鮎貝5215,1,,,38.19905538481,140.07745218088,
994,E0640200004111,白鷹町子育て支援センター,山形県白鷹町大字鮎貝7002,,,,38.184845139381,140.07289859025,
995,E0640200005111,文化交流センター,山形県白鷹町大字鮎貝7331,1,,,38.187418916756,140.07876227738,
996,E0640200006111,白鷹町立蚕桑小学校,山形県白鷹町大字横田尻3584-1,1,,,38.1794270289,140.0520147396,
997,E0640200007111,蚕桑地区コミュニティセンター,山形県白鷹町大字横田尻3610-1,,,,38.177713367962,140.0565347494,
998,E0640200009111,白鷹町立荒砥小学校,山形県白鷹町大字荒砥乙540-1,1,,,38.182308928307,140.1066136409,
999,E0640200010111,白鷹町産業センター,山形県白鷹町大字荒砥乙555-1,,,,38.18348587144,140.10438957112,
1000,E0640200011111,荒砥地区コミュニティセンター,山形県白鷹町大字荒砥甲1099-2,,,,38.185711122922,140.09845938289,
1001,E0640200012111,県立荒砥高等学校,山形県白鷹町大字荒砥甲367,1,,,38.181158406614,140.09578658401,
1002,E0640200013111,山峡の里交流施設,山形県白鷹町大字十王4068-2,1,,,38.190620001189,140.11393962945,
1003,E0640200014111,旧鷹山小学校スポーツ交流広場,山形県白鷹町大字滝野3116-7,1,,,38.203505674694,140.13197184524,
1004,E0640200015111,白鷹町スキーセンター,山形県白鷹町大字中山2812,1,,,38.235922768684,140.15422485367,
1005,E0640200016111,白鷹町立東根小学校,山形県白鷹町大字畔藤5031,1,,,38.164789230658,140.08428471242,
1006,E0640200017111,東根地区コミュニティセンター,山形県白鷹町大字畔藤6804,1,,,38.161528464245,140.08022428279,
1007,E0640300004111,手ノ子スキー場（ロッジ）,山形県飯豊町大字手ノ子2555,,,,38.008284431177,139.97051337677,
1008,E0640300007111,めざみの里観光物産館（ホール）,山形県飯豊町大字松原1898,,,,38.026051324538,139.99373184039,
1009,E0640300015121,飯豊町社会福祉協議会短期入所生活介護センター福祉の里めざみ,山形県飯豊町大字椿3642,,,要配慮者,38.04453,139.995669,
1010,E0640300016121,飯豊町介護老人保健施設美の里,山形県飯豊町大字椿3654-1,,,要配慮者,38.045548,139.993849,
1011,E0640300017111,白川荘・白川ダム湖岸公園（宿泊棟）,山形県飯豊町大字椿数馬218-1,,,,37.929379,139.900293,
1012,E0640300021121,いいで福祉会特別養護老人ホームひめさゆり荘,山形県飯豊町大字添川3514-82,,,要配慮者,38.029936,140.02918,
1013,E0640300022111,飯豊少年自然の家（研修棟）,山形県飯豊町大字添川3535-33,,,,38.024716,139.99854,
1014,E0640300023111,どんでん平ゆり園（管理施設）,山形県飯豊町大字萩生3341,,,,38.06631288493,139.97910953817,
1015,E0621200001111,尾花沢中学校,山形県尾花沢市横町2-2-80,1,,,38.608681217288,140.409166411,
1016,E0621200042111,尾花沢市共同福祉施設,山形県尾花沢市若葉町1-2-20,1,,,38.600746696455,140.40728187367,
1017,E0621200003111,尾花沢市役所,山形県尾花沢市若葉町1-2-3,1,,,38.6010415211168,140.406774053914,
1018,E0621200004111,尾花沢市文化体育施設,山形県尾花沢市若葉町1-4-27,1,,,38.599175205191,140.40684906147,
1019,E0621200005111,尾花沢市学習情報センター,山形県尾花沢市若葉町1-8-25,1,,,38.598366002813,140.40771107676,
1020,E0621200006111,尾花沢幼稚園,山形県尾花沢市上町4-6-16,1,,,38.599902,140.399615,
1021,E0621200007111,おもだか保育園,山形県尾花沢市上町5-6-15,1,,,38.604684348906,140.40173189044,
1022,E0621200009111,尾花沢市中心商店街活性化センター,山形県尾花沢市新町1-16-1,1,,,38.604268090108,140.40746397112,
1023,E0621200010111,老人福祉センター東光館,山形県尾花沢市新町3-2-5,1,,,38.603663344211,140.41264247042,
1024,E0621200011111,尾花沢市体育館,山形県尾花沢市新町3-5-35,1,,,38.60352,140.41533,
1025,E0621200012111,ひまわり保育園,山形県尾花沢市新町4-4-17,1,,,38.608494133178,140.41419465775,
1026,E0621200013111,ＪＡみちのく村山尾花沢営農センター,山形県尾花沢市新町5-7-39,1,,,38.611729539625,140.42190299282,
1027,E0621200014111,道の駅「ねまる」,山形県尾花沢市大字芦沢1195-1,1,,,38.656914597745,140.36370165879,
1028,E0621200015112,基幹集落センター,山形県尾花沢市大字延沢3636-14,1,,,38.594366089569,140.44552467324,
1029,E0621200015111,自然研修センター,山形県尾花沢市大字延沢3636-14,1,,,38.59462184574,140.44506333328,
1030,E0621200017111,常盤小学校,山形県尾花沢市大字延沢783,1,,,38.566651850858,140.46420679915,
1031,E0621200018111,常盤地区公民館,山形県尾花沢市大字延沢887,1,,,38.566282709405,140.46318640531,
1032,E0621200020111,宮沢地区公民館,山形県尾花沢市大字押切1,1,,,38.623309146232,140.47893681887,
1033,E0621200021111,よつばこども園,山形県尾花沢市大字荻袋1287-17,1,,,38.625842550927,140.38249800272,
1034,E0621200022111,障害者支援施設新生園,山形県尾花沢市大字荻袋911-1,,,,38.622891424225,140.40384834156,
1035,E0621200023111,ほたるの里郷土資料館,山形県尾花沢市大字牛房野635,1,,,38.650444057537,140.44075396005,
1036,E0621200024111,尾花沢市地域交流センター,山形県尾花沢市大字高橋115-4,1,,,38.630250453974,140.48550436062,
1037,E0621200041111,市野々公民館,山形県尾花沢市大字市野々335,1,,,38.656385,140.497295,
1038,E0621200025111,福原小学校,山形県尾花沢市大字寺内1170,1,,,38.65238685746,140.40511065249,
1039,E0621200027111,さくら保育園,山形県尾花沢市大字丹生180-5,1,,,38.623610816912,140.44654914108,
1040,E0621200028111,宮沢小学校,山形県尾花沢市大字丹生1933,1,,,38.62460342637,140.4687795443,
1041,E0621200029111,玉野保育園,山形県尾花沢市大字鶴巻田504-1,1,,,38.598961912015,140.48330713766,
1042,E0621200030111,玉野小学校,山形県尾花沢市大字鶴巻田580,1,,,38.603671328602,140.48039840186,
1043,E0621200031112,玉野地区公民館,山形県尾花沢市大字鶴巻田866,1,,,38.598580396855,140.48713196771,
1044,E0621200032111,鶴子交流施設,山形県尾花沢市大字鶴子667,1,,,38.547089352793,140.49798962341,
1045,E0621200033111,環境衛生センター,山形県尾花沢市大字毒沢,1,,,38.663157740634,140.31895514884,
1046,E0621200034111,北村山高等学校,山形県尾花沢市大字尾花沢1593,1,,,38.596801245153,140.39113823522,
1047,E0621200035111,徳良湖温泉　花笠の湯,山形県尾花沢市大字尾花沢5151-67,1,,,38.596295777473,140.43651277369,
1048,E0621200036111,名木沢生涯スポーツ交流センター,山形県尾花沢市大字名木沢855-1,1,,,38.663642,140.342542,
1049,E0621200037111,名木沢地区コミュニティセンター,山形県尾花沢市大字名木沢862-4,1,,,38.663682724929,140.34356308809,
1050,E0621200038111,福原中学校,山形県尾花沢市大字野黒沢208,1,,,38.638507207748,140.37728313522,
1051,E0621200039111,福原地区公民館,山形県尾花沢市大字野黒沢255,1,,,38.635097072756,140.37897331726,
1052,E0621200043111,六沢地区生涯学習推進センター,山形県尾花沢市大字六沢171,1,,,38.57166,140.47874,
1053,E0621200040111,尾花沢小学校,山形県尾花沢市梺町3-3-1,1,,,38.608592811315,140.40199018815,
1054,E0620200002111,第一中学校,山形県米沢市駅前4-3-51,1,,,37.912424123014,140.11949683927,
1055,E0620200004111,塩井コミュニティセンター,山形県米沢市塩井町塩野2068-1,,,,37.936058677363,140.10037574848,対象となる異常な現象の種類は　土砂災害・火山現象
1056,E0620200006111,塩井小学校,山形県米沢市塩井町塩野3760,1,,,37.934464353558,140.09903813228,
1057,E0620200007111,東部コミュニティセンター,山形県米沢市花沢町1-2-38-6,,,,37.915486835719,140.12447095443,
1058,E0620200008111,第三中学校,山形県米沢市舘山2-4-58,1,,,37.913843089714,140.07480899174,
1059,E0620200010111,児童会館,山形県米沢市丸の内1-3-47,,,,37.907984234257,140.10413113096,
1060,E0620200012111,中部コミュニティセンター,山形県米沢市丸の内2-1-35,,,,37.912652151646,140.10633056572,
1061,E0620200013111,興譲小学校,山形県米沢市丸の内2-1-58,1,,,37.91235422936,140.10649766972,
1062,E0620200014111,米沢東高校,山形県米沢市丸の内2-5-63,1,,,37.91259405129,140.1054094287,
1063,E0620200017111,市営体育館,山形県米沢市金池3-1-62,,,,37.920641697129,140.11655198551,対象となる異常な現象の種類　土砂災害・地震・火山現象
1064,E0620200023111,窪田コミュニティセンター,山形県米沢市窪田町窪田598-2,,,,37.958141986245,140.12323703168,
1065,E0620200024111,窪田小学校,山形県米沢市窪田町窪田655-3,1,,,37.958948671591,140.12158758672,
1066,E0620200025111,愛宕コミュニティセンター,山形県米沢市古志田町76-3,,,,37.898209406209,140.08988314753,
1067,E0620200027111,愛宕小学校,山形県米沢市御廟3-10-1,1,,,37.905075202725,140.09453884288,
1068,E0620200029111,広幡コミュニティセンター,山形県米沢市広幡町上小菅1394-7,,,,37.94743745551,140.06953291332,対象となる異常な現象の種類は　洪水・土砂災害・火山現象
1069,E0620200030111,広幡小学校,山形県米沢市広幡町上小菅1396,1,,,37.947829936697,140.0696268845,
1070,E0620200035111,第四中学校,山形県米沢市春日4-2-69,1,,,37.930504759668,140.11633683857,
1071,E0620200038111,山形大学工学部,山形県米沢市城南4-3-16,1,,,37.900288587329,140.1042565633,
1072,E0620200039111,アクティー米沢,山形県米沢市西大通1-5-5,,,,37.918016721944,140.10118964716,
1073,E0620200040111,すこやかセンター,山形県米沢市西大通1-5-60,,,,37.917652683833,140.10004729715,
1074,E0620200042111,米沢養護学校,山形県米沢市太田町4-1-102,1,,,37.892744062489,140.10910546901,
1075,E0620200043111,上郷コミュニティセンター,山形県米沢市大字梓川681-1,,,,37.927013857444,140.14865589185,
1076,E0620200044111,南原コミュニティセンター関分館,山形県米沢市大字関402-6,,,,37.839788370271,140.09213224835,対象となる異常な現象の種類は　地震・火山現象
1077,E0620200047111,旧関根小学校,山形県米沢市大字関根13541,1,,,37.864825645268,140.148463136,
1078,E0620200048111,山上コミュニティセンター,山形県米沢市大字関根531-1,,,,37.867743875721,140.14458471393,
1079,E0620200050111,旧三沢西部小学校,山形県米沢市大字口田沢2361-1,1,,,37.899089652724,140.0225331812,
1080,E0620200051111,田沢コミュニティセンター,山形県米沢市大字口田沢2375-1,,,,37.899376581672,140.02296926764,
1081,E0620200053111,米沢興譲館高校,山形県米沢市大字笹野1101,1,,,37.885432166304,140.10846002302,
1082,E0620200054111,第七中学校,山形県米沢市大字川井108-3,1,,,37.921300231838,140.14676139728,
1083,E0620200055111,米沢鶴城高校,山形県米沢市大字川井300,1,,,37.917879879992,140.1446441142,
1084,E0620200058111,上郷小学校,山形県米沢市大字竹井1383,1,,,37.928169072685,140.14731960073,
1085,E0620200060111,南原小学校,山形県米沢市大字南原笹野町2984,1,,,37.872234408975,140.10686361074,
1086,E0620200061111,板谷集会所,山形県米沢市大字板谷315,1,,,37.815327,140.274072,
1087,E0620200063111,旧南原中学校,山形県米沢市大字李山2139,1,,,37.871278365365,140.10294459658,
1088,E0620200064111,南原コミュニティセンター,山形県米沢市大字李山9196,,,,37.871679,140.102887,
1089,E0620200066111,旧関小学校,山形県米沢市大字立石2565,1,,,37.847564806087,140.09004578637,
1090,E0620200067111,三沢コミュニティセンター,山形県米沢市大字簗沢1776-1,,,,37.887571310224,140.04937637363,
1091,E0620200069111,旧三沢東部小学校,山形県米沢市大字簗沢3401,1,,,37.888833379955,140.05032442804,
1092,E0620200070111,市立米沢図書館・よねざわ市民ギャラリー,山形県米沢市中央1-10-6,,,,37.912770225702,140.11044240556,
1093,E0620200073111,北部コミュニティセンター,山形県米沢市中央6-1-21,,,,37.917860957445,140.10559077435,
1094,E0620200074111,北部小学校,山形県米沢市中央7-4-33,1,,,37.922091011502,140.10732600983,
1095,E0620200075111,米沢中央高校,山形県米沢市中央7-5-70-4,1,,,37.922255041342,140.10478043559,
1096,E0620200078111,西部小学校,山形県米沢市直江町5-34,1,,,37.915206568368,140.08945547758,
1097,E0620200079111,西部コミュニティセンター,山形県米沢市直江町5-9,,,,37.915922306938,140.08978076228,
1098,E0620200080111,松川小学校,山形県米沢市通町4-10-15,1,,,37.889019343053,140.12691510346,
1099,E0620200084111,松川コミュニティセンター,山形県米沢市通町6-14-25,,,,37.891964482461,140.1245683467,対象となる異常な現象の種類は　土砂災害・地震・火山現象
1100,E0620200085111,米沢女子短期大学,山形県米沢市通町6-15-1,1,,,37.890738780985,140.12332830373,
1101,E0620200086111,東部小学校,山形県米沢市東1-6-102,1,,,37.902559950361,140.1282513351,
1102,E0620200087111,旧第五中学校,山形県米沢市東大通1-1-82,1,,,37.886808260318,140.13799925245,
1103,E0620200092111,万世小学校,山形県米沢市八幡原5-3948-4,1,,,37.902507325643,140.16374394783,
1104,E0620200093111,市営八幡原体育館,山形県米沢市八幡原5-4149-10,,,,37.903997,140.166146,
1105,E0620200094111,万世コミュニティセンター,山形県米沢市八幡原5-4149-9,,,,37.903767323319,140.16546098525,
1106,E0620200095111,南部コミュニティセンター,山形県米沢市本町2-4-28,,,,37.902631813038,140.10914956421,
1107,E0620200097111,旧米沢商業高校,山形県米沢市本町3-1-12,1,,,37.90174846133,140.11421099699,
1108,E0620200101111,九里学園高校,山形県米沢市門東町1-1-72,1,,,37.906993327944,140.10984800979,
1109,E0620200102111,南部小学校,山形県米沢市門東町1-2-31,1,,,37.904178449603,140.10873958853,
1110,E0620200103111,第二中学校,山形県米沢市林泉寺2-2-5,1,,,37.903227598155,140.09951080571,
1111,E0620200104111,六郷小学校,山形県米沢市六郷町一漆40-1,1,,,37.962434118493,140.09233150769,
1112,E0620200105111,六郷コミュニティセンター,山形県米沢市六郷町一漆68-2,,,,37.96395375766,140.09070080557,
1113,E0620200107111,第六中学校,山形県米沢市六郷町西藤泉160,1,,,37.948040234002,140.0920982869,
1114,E0646100001111,遊佐小学校,山形県遊佐町吉出字和田13,1,,,39.022214524998,139.91024670211,
1115,E0646100002111,旧藤崎小学校,山形県遊佐町江地字丁才谷地31-4,1,,,39.019867887814,139.87792038988,
1116,E0646100003111,遊佐中学校,山形県遊佐町小原田字上川原18-1,1,,,39.014564554469,139.92992483099,
1117,E0646100046121,地域密着型特別養護老人ホーム　にしだて,山形県遊佐町吹浦字西楯23-9,,,介護認定を受けている人等,39.076176113252,139.87473677998,
1118,E0646100009111,旧吹浦小学校,山形県遊佐町吹浦字西楯9-6,1,,,39.073379624416,139.8728157718,
1119,E0646100014111,吹浦防災センター,山形県遊佐町吹浦字布倉10-1,,,,39.073761,139.879641,
1120,E0646100016111,杉沢比山伝承館,山形県遊佐町杉沢字中田1,,,,39.009867590567,139.96702102302,
1121,E0646100043121,山形県立吹浦荘,山形県遊佐町菅里字菅野南山21-14,,,介護認定を受けている人等,39.047793955451,139.88006202422,
1122,E0646100042121,特別養護老人ホーム松濤荘,山形県遊佐町菅里字菅野南山7-1,,,介護認定を受けている人等,39.047545351161,139.87799434733,
1123,E0646100020111,藤崎保育園,山形県遊佐町増穂字西田96,,,,39.018943802664,139.87874182542,
1124,E0646100021111,稲川まちづくりセンター,山形県遊佐町増穂字大坪25-2,,,,39.018344851776,139.88637944764,
1125,E0646100022111,旧高瀬小学校,山形県遊佐町当山字堰中瀬25-4,1,,,39.047139245126,139.89957136918,
1126,E0646100044121,障がい者支援施設月光園,山形県遊佐町当山字上戸8-1,,,介護認定を受けている人等,39.040218183415,139.91802886633,
1127,E0646100023111,高瀬まちづくりセンター,山形県遊佐町当山字上山崎17-4,,,,39.046894715405,139.90052767988,
1128,E0646100026111,西遊佐まちづくりセンター,山形県遊佐町藤崎字千代ノ藤2-2,1,,,38.998641041363,139.8661081295,
1129,E0646100028111,しらい自然館,山形県遊佐町白井新田字見晴野21,,,,39.037872354764,139.9555688593,
1130,E0646100030111,蕨岡まちづくりセンター,山形県遊佐町豊岡字下和田31-3,,,,38.995631040974,139.92482453435,
1131,E0646100031111,旧蕨岡小学校,山形県遊佐町豊岡字花塚29-1,1,,,38.997447091462,139.92653879005,
1132,E0646100034111,県立遊佐高等学校,山形県遊佐町遊佐字堅田21-1,1,,,39.012256097544,139.91647014199,
1133,E0646100035111,遊佐保育園,山形県遊佐町遊佐字五所ノ馬場4-1,,,,39.012428714868,139.91852475391,
1134,E0646100047121,遊佐町子どもセンター,山形県遊佐町遊佐字広表6-8,,,,39.013400248201,139.90901426729,
1135,E0646100036111,町民体育館,山形県遊佐町遊佐字鶴田29-2,,,,39.012536603081,139.90916089597,
1136,E0646100037111,遊佐町生涯学習センター,山形県遊佐町遊佐字鶴田52-2,,,,39.012119842049,139.90827500081,
1137,E0646100039111,遊佐町防災センター,山形県遊佐町遊佐字南田筋3-1,,,,39.014899481042,139.90713186524,
1138,E0646100045121,特別養護老人ホーム　ゆうすい,山形県遊佐町遊佐字木ノ下2,,,介護認定を受けている人等,39.011031190161,139.918873905,
