NO,共通ID,施設・場所名,住所,洪水,崖崩れ、土石流及び地滑り,高潮,地震,津波,大規模な火事,内水氾濫,火山現象,指定避難所との住所同一,緯度,経度,備考
1,E1120200001201,太田市沢野行政センター,群馬県太田市高林西町882-5,1,,,,,,,,1,36.259156,139.365831,※埼玉県熊谷市指定
2,E1120200002201,太田市立南小学校,群馬県太田市高林東町1372,1,,,,,,,,1,36.255749,139.376412,※埼玉県熊谷市指定
3,E1120200003201,太田市立南中学校,群馬県太田市高林北町955-1,1,,,,,,,,1,36.262047,139.363575,※埼玉県熊谷市指定
4,E1110000001201,調公園,埼玉県さいたま市浦和区岸町3-17,1,1,,1,,,,,,35.8535135,139.6563437,
5,E1110000002201,県立浦和第一女子高等学校,埼玉県さいたま市浦和区岸町3-8-45,1,1,,1,,,,,1,35.85233178,139.6596311,
6,E1110000003201,高砂小学校,埼玉県さいたま市浦和区岸町4-1-29,1,1,,1,,,,,1,35.85622132,139.6565488,
7,E1110000005201,岸町小学校,埼玉県さいたま市浦和区岸町5-20-4,1,1,,1,,,,,1,35.8509016,139.6503664,
8,E1110000006201,駒場運動公園,埼玉県さいたま市浦和区駒場2-1,1,1,,1,,1,,,,35.87132309,139.6646219,
9,E1110000007201,駒場緑地,埼玉県さいたま市浦和区駒場2-4,1,1,,1,,,,,,35.87281551,139.6631002,
10,E1110000009201,浦和総合運動場,埼玉県さいたま市浦和区元町1,1,1,,1,,,,,,35.86935699,139.6577331,
11,E1110000010201,浦和高等学校,埼玉県さいたま市浦和区元町1-28-17,1,1,,1,,,,,1,35.87086589,139.6577852,
12,E1110000012201,上木崎小学校,埼玉県さいたま市浦和区上木崎3-4-3,1,1,,1,,,,,1,35.88756479,139.6423642,
13,E1110000013201,常盤公園,埼玉県さいたま市浦和区常盤1-8,1,1,,1,,,,,,35.86228945,139.6507041,
14,E1110000015201,埼玉大学教育学部附属小学校,埼玉県さいたま市浦和区常盤6-9-44,1,1,,1,,,,,1,35.86195854,139.6426657,
15,E1110000016201,仲町小学校,埼玉県さいたま市浦和区常盤8-18-4,1,1,,1,,,,,1,35.86375773,139.6409981,
16,E1110000017201,北浦和公園・浦和北公園,埼玉県さいたま市浦和区常盤9-30,1,1,,1,,1,,,,35.86999355,139.6436748,
17,E1110000019201,常盤小学校,埼玉県さいたま市浦和区常盤9-30-9,1,1,,1,,,,,1,35.86851714,139.6437644,
18,E1110000022201,常盤中学校,埼玉県さいたま市浦和区針ケ谷4-1-9,1,1,,1,,,,,1,35.87755851,139.6394375,
19,E1110000023201,常盤北小学校,埼玉県さいたま市浦和区針ケ谷4-2-12,1,1,,1,,,,,1,35.87933155,139.6390575,
20,E1110000024201,木崎中学校,埼玉県さいたま市浦和区瀬ケ崎2-17-1,1,1,,1,,,,,1,35.87941003,139.6614952,
21,E1110000026201,大原中学校,埼玉県さいたま市浦和区大原3-1-11,,1,,1,,,,,1,35.89360175,139.6481839,
22,E1110000025201,大原スポーツ広場一帯,埼玉県さいたま市浦和区大原３－１０３－３外,,1,,1,,1,,,,35.89625261211,139.64958938148,
23,E1110000028201,大東小学校,埼玉県さいたま市浦和区大東3-14-1,1,1,,1,,,,,1,35.88296812,139.6646029,
24,E1110000029201,北浦和小学校,埼玉県さいたま市浦和区北浦和2-18-3,1,1,,1,,,,,1,35.87692725,139.6487179,
25,E1110000031201,仲本小学校,埼玉県さいたま市浦和区本太2-12-31,1,1,,1,,,,,1,35.86136421,139.6611347,
26,E1110000033201,本太小学校,埼玉県さいたま市浦和区本太2-26-25,1,1,,1,,,,,1,35.86590514,139.6571269,
27,E1110000035201,県立浦和西高等学校,埼玉県さいたま市浦和区木崎3-1-1,1,1,,1,,,,,1,35.88906464,139.654331,
28,E1110000036201,本太中学校,埼玉県さいたま市浦和区領家1-4-15,1,1,,1,,,,,1,35.87322873,139.6590333,
29,E1110000038201,木崎小学校,埼玉県さいたま市浦和区領家4-19-4,1,1,,1,,,,,1,35.88265341,139.6524066,
30,E1110000040201,県立浦和高等学校,埼玉県さいたま市浦和区領家5-3-3,1,1,,1,,,,,1,35.87751165,139.6515565,
31,E1110000041201,針ヶ谷小学校,埼玉県さいたま市浦和区領家7-2-1,1,1,,1,,,,,1,35.88141973,139.6490494,
32,E1110000042201,西原中学校,埼玉県さいたま市岩槻区岩槻3750,1,1,,1,,,,,1,35.95572,139.681262,
33,E1110000043201,城北小学校,埼玉県さいたま市岩槻区岩槻6619,1,1,,1,,,,,1,35.961643,139.693811,
34,E1110000044201,和土小学校,埼玉県さいたま市岩槻区黒谷1353,1,1,,1,,,,,1,35.925493,139.720115,
35,E1110000047201,城南中学校,埼玉県さいたま市岩槻区笹久保577,1,1,,1,,,,,1,35.914327,139.726747,
36,E1110000048201,県立岩槻北陵高等学校,埼玉県さいたま市岩槻区慈恩寺117-2,,1,,1,,,,,1,35.978589,139.714105,
37,E1110000049201,慈恩寺小学校,埼玉県さいたま市岩槻区慈恩寺259,1,1,,1,,,,,1,35.981235,139.707862,
38,E1110000051201,上里小学校,埼玉県さいたま市岩槻区上里2-2,1,1,,1,,,,,1,35.96522,139.705138,
39,E1110000052201,県立岩槻高等学校,埼玉県さいたま市岩槻区城南1-3-38,1,1,,1,,,,,1,35.941866,139.703221,
40,E1110000053201,柏陽中学校,埼玉県さいたま市岩槻区真福寺454,1,1,,1,,,,,1,35.935499,139.703318,
41,E1110000054201,東岩槻小学校,埼玉県さいたま市岩槻区諏訪2-6-1,1,1,,1,,,,,1,35.969758,139.709141,
42,E1110000055201,岩槻諏訪公園,埼玉県さいたま市岩槻区諏訪4-4,,1,,1,,,,,,35.968941,139.70541,
43,E1110000056201,西原小学校,埼玉県さいたま市岩槻区西原6-25,1,1,,1,,,,,1,35.953079,139.683756,
44,E1110000057201,岩槻文化公園,埼玉県さいたま市岩槻区村国229,,1,,1,,1,,,1,35.945148,139.720324,
45,E1110000058201,県立岩槻商業高等学校,埼玉県さいたま市岩槻区太田1-4-1,1,1,,1,,,,,1,35.950149,139.705861,
46,E1110000060201,岩槻城址公園,埼玉県さいたま市岩槻区太田3-4,,1,,1,,1,,,,35.950409,139.710066,
47,E1110000062201,北部工業団地記念公園,埼玉県さいたま市岩槻区大字古ケ場1-2-1,,1,,1,,,,,,35.97789,139.691883,
48,E1110000063201,和土住宅公園,埼玉県さいたま市岩槻区大字黒谷636-1,,1,,1,,,,,,35.925632,139.72687,
49,E1110000064201,慈恩寺親水公園,埼玉県さいたま市岩槻区大字小溝459-1,,1,,1,,,,,,35.979614,139.716193,
50,E1110000065201,川通公園,埼玉県さいたま市岩槻区大字長宮825-5,,1,,1,,,,,,35.951087,139.72928,
51,E1110000066201,開智学園,埼玉県さいたま市岩槻区大字徳力186,,1,,1,,,,,,35.972484,139.714916,
52,E1110000067201,川通小学校,埼玉県さいたま市岩槻区大野島422-1,1,1,,1,,,,,1,35.941492,139.731208,
53,E1110000068201,岩槻中学校,埼玉県さいたま市岩槻区仲町1-14-35,1,1,,1,,,,,1,35.948748,139.702819,
54,E1110000069201,太田小学校,埼玉県さいたま市岩槻区仲町1-17-3,1,1,,1,,,,,1,35.947568,139.70424,
55,E1110000070201,川通中学校,埼玉県さいたま市岩槻区長宮435,1,1,,1,,,,,1,35.94754,139.732163,
56,E1110000072201,徳力小学校,埼玉県さいたま市岩槻区徳力136-4,,1,,1,,,,,1,35.973648,139.716479,
57,E1110000073201,城南小学校,埼玉県さいたま市岩槻区南下新井1191-1,1,1,,1,,,,,1,35.93506,139.712829,
58,E1110000074201,南平野公園,埼玉県さいたま市岩槻区南平野2-26,,1,,1,,,,,,35.955435,139.717756,
59,E1110000075201,柏崎小学校,埼玉県さいたま市岩槻区柏崎762,1,1,,1,,,,,1,35.933207,139.701237,
60,E1110000076201,新和小学校,埼玉県さいたま市岩槻区尾ケ崎1252,1,1,,1,,,,,1,35.910348,139.732834,
61,E1110000077201,桜山中学校,埼玉県さいたま市岩槻区表慈恩寺684-1,1,,,1,,,,,1,35.972163,139.711389,
62,E1110000078201,河合小学校,埼玉県さいたま市岩槻区平林寺351,1,1,,1,,,,,1,35.966804,139.671786,
63,E1110000080201,城北中学校,埼玉県さいたま市岩槻区本宿392-1,1,1,,1,,,,,1,35.964904,139.688707,
64,E1110000083201,岩槻小学校,埼玉県さいたま市岩槻区本町5-6-45,1,1,,1,,,,,1,35.952976,139.699267,
65,E1110000084201,慈恩寺中学校,埼玉県さいたま市岩槻区裏慈恩寺505,1,1,,1,,,,,1,35.98489,139.704794,
66,E1110000086201,春岡小学校,埼玉県さいたま市見沼区春岡2-29-1,1,1,,1,,,,,1,35.9491445,139.662004,
67,E1110000087201,春岡中央公園,埼玉県さいたま市見沼区春岡3-42-1,1,1,,1,,,,,,35.94763705,139.6588957,
68,E1110000088201,春野小学校,埼玉県さいたま市見沼区春野1-10-1,,1,,1,,,,,1,35.95675704,139.6681575,
69,E1110000089201,アーバンみらい公園,埼玉県さいたま市見沼区春野1-1634-3,,1,,1,,,,,,35.957361,139.666153,
70,E1110000090201,春野中学校,埼玉県さいたま市見沼区春野2-2-1,,1,,1,,,,,1,35.95622027,139.6628018,
71,E1110000092201,観音寺下公園,埼玉県さいたま市見沼区深作2-7,1,1,,1,,,,,,35.9522298,139.6681731,
72,E1110000093201,鎌倉公園,埼玉県さいたま市見沼区大字御蔵1393-1,1,1,,1,,,,,,35.90444496,139.6653579,
73,E1110000094201,片柳中学校,埼玉県さいたま市見沼区大字御蔵551,1,1,,1,,,,,1,35.90657256,139.6738105,
74,E1110000095201,春里中学校,埼玉県さいたま市見沼区大字小深作268-19,1,1,,1,,,,,1,35.9407308,139.6644338,
75,E1110000096201,芝浦工業大学,埼玉県さいたま市見沼区大字深作307,1,1,,1,,,,,,35.95206282,139.6554057,
76,E1110000097201,七里総合公園,埼玉県さいたま市見沼区大字大谷,,1,,1,,1,,,,35.92357581,139.680279,
77,E1110000098201,大谷中学校,埼玉県さいたま市見沼区大字大谷1634-2,1,1,,1,,,,,1,35.925058349241,139.66694291283,
78,E1110000099201,大谷小学校,埼玉県さいたま市見沼区大字大谷18,1,1,,1,,,,,1,35.92121742,139.6653124,
79,E1110000100201,東宮下小学校,埼玉県さいたま市見沼区大字東宮下215-1,,1,,1,,,,,1,35.92567207,139.6781631,
80,E1110000101201,七里小学校,埼玉県さいたま市見沼区大字東宮下312,1,1,,1,,,,,1,35.92912765,139.676467,
81,E1110000102201,片柳小学校,埼玉県さいたま市見沼区大字東新井244-1,1,1,,1,,,,,1,35.91052918,139.6708863,
82,E1110000103201,海老沼小学校,埼玉県さいたま市見沼区大字東新井710-5,1,1,,1,,,,,1,35.90808202,139.6603744,
83,E1110000104201,大宮八幡中学校,埼玉県さいたま市見沼区大字南中丸357,1,1,,1,,,,,1,35.9188606,139.6533183,
84,E1110000105201,県立大宮東高等学校,埼玉県さいたま市見沼区大字膝子567,,1,,1,,,,,1,35.92731008,139.6855143,
85,E1110000106201,蓮沼小学校,埼玉県さいたま市見沼区大字蓮沼1070,1,1,,1,,,,,1,35.93445159,139.6618005,
86,E1110000107201,県立大宮商業高等学校,埼玉県さいたま市見沼区大和田町1-356,1,1,,1,,,,,1,35.927306778905,139.64452333492,
87,E1110000109201,大砂土東小学校,埼玉県さいたま市見沼区大和田町2-998,1,1,,1,,,,,1,35.937108706728,139.64684406005,
88,E1110000110201,島小学校,埼玉県さいたま市見沼区島町533-2,1,1,,1,,,,,1,35.94661717,139.6523328,
89,E1110000111201,七里中学校,埼玉県さいたま市見沼区東宮下1-1-1,1,1,,1,,,,,1,35.92740586,139.680578,
90,E1110000114201,大砂土中学校,埼玉県さいたま市見沼区東大宮1-100-1,1,1,,1,,,,,1,35.93758505,139.6447338,
91,E1110000115201,堀の内公園,埼玉県さいたま市見沼区東大宮2-15,1,1,,1,,,,,,35.94614,139.636928,
92,E1110000116201,見沼小学校,埼玉県さいたま市見沼区東大宮2-45,1,1,,1,,,,,1,35.94837636,139.6324507,
93,E1110000117201,東大宮中央公園,埼玉県さいたま市見沼区東大宮5-42-1,1,1,,1,,,,,,35.94935325,139.6445412,
94,E1110000118201,藁田島公園,埼玉県さいたま市見沼区東大宮6-42,1,1,,1,,,,,,35.9516791,139.6503508,
95,E1110000119201,砂中央公園,埼玉県さいたま市見沼区東大宮7-42,1,1,,1,,,,,,35.94032004,139.6466382,
96,E1110000120201,堀崎公園,埼玉県さいたま市見沼区堀崎町12-1,1,1,,1,,,,,,35.9362341,139.653336,
97,E1110000121201,栄和小学校,埼玉県さいたま市桜区栄和1-7-1,1,1,,1,,,,,1,35.86134982,139.617705,
98,E1110000122201,埼玉大学,埼玉県さいたま市桜区下大久保255,1,1,,1,,,,,1,35.862708694875,139.60759516369,
99,E1110000123201,大久保小学校,埼玉県さいたま市桜区五関21,1,1,,1,,,,,1,35.87177954,139.5983116,
100,E1110000124201,大久保中学校,埼玉県さいたま市桜区五関282,1,1,,1,,,,,1,35.8671074,139.5972418,
101,E1110000125201,県立浦和北高等学校,埼玉県さいたま市桜区五関595,,1,,1,,,,,1,35.8671685,139.5940802,
102,E1110000127201,上大久保中学校,埼玉県さいたま市桜区上大久保861-1,1,1,,1,,,,,1,35.87240698,139.6158848,
103,E1110000128201,新開小学校,埼玉県さいたま市桜区新開2-18-1,1,1,,1,,,,,1,35.85054607,139.6181095,
104,E1110000129201,神田小学校,埼玉県さいたま市桜区神田541-1,1,1,,1,,,,,1,35.87481733,139.6074564,
105,E1110000131201,県立浦和工業高等学校,埼玉県さいたま市桜区西堀5-1-1,1,1,,1,,,,,1,35.85348538,139.6256194,
106,E1110000132201,土合小学校,埼玉県さいたま市桜区西堀7-21-1,1,1,,1,,,,,1,35.85752615,139.6270213,
107,E1110000133201,西堀高沼公園,埼玉県さいたま市桜区西堀8-2019-2,,1,,1,,,,,,35.8586182,139.635181,
108,E1110000135201,大久保東小学校,埼玉県さいたま市桜区大久保領家331,1,1,,1,,,,,1,35.87109676,139.603238,
109,E1110000136201,千貫樋水郷公園,埼玉県さいたま市桜区大字五関字中島地内,,1,,1,,,,,,35.863416198581,139.59702845187,
110,E1110000137201,荒川総合運動公園通り,埼玉県さいたま市桜区大字在家137,,1,,1,,,,,,35.87772282791,139.59387176091,
111,E1110000138201,荒川総合運動公園,埼玉県さいたま市桜区大字在家591,,1,,1,,1,,,,35.87470676,139.58199,
112,E1110000139201,荒川彩湖公園,埼玉県さいたま市桜区大字田島3513-1,,1,,1,,1,,,,35.837097911614,139.61999252908,
113,E1110000140201,桜草公園,埼玉県さいたま市桜区大字田島3542-1,,1,,1,,1,,,,35.837150096927,139.61334063751,
114,E1110000141201,中島小学校,埼玉県さいたま市桜区中島1-28-1,1,1,,1,,,,,1,35.86519038,139.6240491,
115,E1110000142201,土合中学校,埼玉県さいたま市桜区町谷1-19-1,1,1,,1,,,,,1,35.86061721,139.6231086,
116,E1110000143201,田島小学校,埼玉県さいたま市桜区田島10-12-1,,1,,1,,,,,1,35.83756904,139.623576,
117,E1110000144201,田島中学校,埼玉県さいたま市桜区田島10-13-1,,1,,1,,,,,1,35.83829529,139.6230449,
118,E1110000147201,宮前中学校,埼玉県さいたま市西区宮前町1467-1,1,1,,1,,,,,1,35.92931691,139.5980556,
119,E1110000148201,宮前小学校,埼玉県さいたま市西区宮前町341,1,1,,1,,,,,1,35.92364478,139.5948964,
120,E1110000149201,大宮西小学校,埼玉県さいたま市西区三橋5-1359,1,1,,1,,,,,1,35.903888224603,139.59102615212,
121,E1110000150201,三橋総合公園,埼玉県さいたま市西区三橋5-190,,1,,1,,1,,,1,35.91377018,139.5956395,
122,E1110000152201,大宮西中学校,埼玉県さいたま市西区三橋6-1558,1,1,,1,,,,,1,35.91977381,139.5895598,
123,E1110000153201,指扇小学校,埼玉県さいたま市西区西大宮1-49-6,1,1,,1,,,,,1,35.922451,139.573044,
124,E1110000154201,埼玉栄中学・高等学校,埼玉県さいたま市西区西大宮3-11-1,,1,,1,,,,,1,35.926437785457,139.57935160184,
125,E1110000155201,指扇中学校,埼玉県さいたま市西区西大宮3-31-1,1,1,,1,,,,,1,35.927486,139.576675,
126,E1110000157201,西遊馬公園,埼玉県さいたま市西区西遊馬３４３３－１外,,1,,1,,1,,,,35.90459918,139.5608514,
127,E1110000158201,植水中学校,埼玉県さいたま市西区大字三条町345-1,1,1,,1,,,,,1,35.88655325,139.5838458,
128,E1110000161201,県立大宮南高等学校,埼玉県さいたま市西区大字植田谷本793,1,1,,1,,,,,1,35.88907434,139.5897905,
129,E1110000162201,鴨川みずべの里,埼玉県さいたま市西区大字水判土109-1,,1,,1,,,,,,35.89727153,139.5972249,
130,E1110000164201,県立大宮武蔵野高等学校,埼玉県さいたま市西区大字西遊馬1601,,1,,1,,,,,1,35.90911181,139.5608915,
131,E1110000165201,馬宮東小学校,埼玉県さいたま市西区大字西遊馬189-1,,1,,1,,,,,1,35.90372742,139.5714947,
132,E1110000166201,指扇北小学校,埼玉県さいたま市西区大字中釘1506-1,1,1,,1,,,,,1,35.93325072,139.572127,
133,E1110000167201,秋葉の森総合公園,埼玉県さいたま市西区大字中釘188-2,,1,,1,,1,,,,35.93604214,139.5654708,
134,E1110000168201,県立大宮光陵高等学校,埼玉県さいたま市西区大字中野林145,1,1,,1,,,,,1,35.89538295,139.5894046,
135,E1110000169201,植水小学校,埼玉県さいたま市西区大字中野林225-1,1,1,,1,,,,,1,35.89400796,139.5946545,
136,E1110000170201,土屋中学校,埼玉県さいたま市西区大字土屋1766-1,1,1,,1,,,,,1,35.91158498,139.5718169,
137,E1110000171201,馬宮中学校,埼玉県さいたま市西区大字二ツ宮589-1,1,1,,1,,,,,1,35.898718125855,139.58003269391,
138,E1110000172201,栄小学校,埼玉県さいたま市西区大字飯田811,1,1,,1,,,,,1,35.90690589,139.5829211,
139,E1110000173201,馬宮西小学校,埼玉県さいたま市西区大字飯田新田189-2,1,1,,1,,,,,1,35.886118241197,139.5595105172,
140,E1110000174201,宝来運動公園,埼玉県さいたま市西区大字宝来2022-1,,1,,1,,,,,,35.9333318,139.5507293,
141,E1110000176201,県立大宮北特別支援学校,埼玉県さいたま市西区中釘後谷2290-1,,1,,1,,,,,1,35.94292553,139.5744647,
142,E1110000178201,大宮南小学校,埼玉県さいたま市大宮区吉敷町3-87,1,1,,1,,,,,1,35.90047311,139.6338642,
143,E1110000181201,大宮北小学校,埼玉県さいたま市大宮区宮町3-84,1,1,,1,,,,,1,35.91167757,139.6275478,
144,E1110000182201,大宮公園,埼玉県さいたま市大宮区高鼻町,1,1,,1,,1,,,,35.91853144,139.631669,
145,E1110000183201,桜木中学校,埼玉県さいたま市大宮区桜木町4-219,,1,,1,,,,,1,35.90486369,139.6168446,
146,E1110000184201,桜木小学校,埼玉県さいたま市大宮区桜木町4-328-9,,1,,1,,,,,1,35.90321719,139.6171861,
147,E1110000185201,三橋中学校,埼玉県さいたま市大宮区三橋1-1300,1,1,,1,,,,,1,35.90458814,139.6028652,
148,E1110000186201,大平公園,埼玉県さいたま市大宮区三橋1-55,1,1,,1,,,,,,35.90905735,139.605607,
149,E1110000187201,三橋小学校,埼玉県さいたま市大宮区三橋2-20,1,1,,1,,,,,1,35.90337503,139.6048482,
150,E1110000188201,大宮国際中等教育学校,埼玉県さいたま市大宮区三橋4-96,1,1,,1,,,,,1,35.89584161498,139.5995155971,
151,E1110000189202,大宮第二公園,埼玉県さいたま市大宮区寿能町,,1,,1,,1,,,,35.91842718,139.6407885,
152,E1110000189201,大和田公園,埼玉県さいたま市大宮区寿能町,,1,,1,,1,,,,35.92142659,139.641165,
153,E1110000191201,大宮北中学校,埼玉県さいたま市大宮区寿能町1-21,1,1,,1,,,,,1,35.92170192,139.6320415,
154,E1110000192201,上小小学校,埼玉県さいたま市大宮区上小町1337-1,1,1,,1,,,,,1,35.89638304,139.617203,
155,E1110000193201,大成小学校,埼玉県さいたま市大宮区大成町2-282,1,1,,1,,,,,1,35.91425709,139.6140249,
156,E1110000195201,大成中学校,埼玉県さいたま市大宮区大成町2-379,1,1,,1,,,,,1,35.91301029,139.6120882,
157,E1110000196201,大宮小学校,埼玉県さいたま市大宮区大門町3-3,1,1,,1,,,,,1,35.90645191,139.630413,
158,E1110000197201,氷川緑地,埼玉県さいたま市大宮区大門町3-47,1,1,,1,,,,,,35.90894842,139.6308326,
159,E1110000199201,天沼緑地,埼玉県さいたま市大宮区天沼町1-676-1,,1,,1,,,,,,35.9102711,139.6449618,
160,E1110000200201,第二東中学校,埼玉県さいたま市大宮区天沼町1-760,,1,,1,,,,,1,35.90900508,139.646665,
161,E1110000202201,芝川小学校,埼玉県さいたま市大宮区天沼町2-1077,,1,,1,,,,,1,35.90520737,139.6459169,
162,E1110000203201,県立大宮高等学校,埼玉県さいたま市大宮区天沼町2-323,1,1,,1,,,,,1,35.89990291,139.6383784,
163,E1110000204201,大宮南中学校,埼玉県さいたま市大宮区天沼町2-362,1,1,,1,,,,,1,35.8988529,139.6382993,
164,E1110000201201,合併記念見沼公園,埼玉県さいたま市大宮区天沼町１－９４１外,,1,,1,,,,,,35.9057833,139.6475484,
165,E1110000206201,さいたま新都心公園,埼玉県さいたま市大宮区北袋町1-190-24,1,1,,1,,,,,,35.893196286579,139.63909198195,
166,E1110000207201,大宮東中学校,埼玉県さいたま市大宮区堀の内町1-99,1,1,,1,,,,,1,35.90841126,139.6357608,
167,E1110000209201,大宮東小学校,埼玉県さいたま市大宮区堀の内町3-145,1,1,,1,,,,,1,35.9137512,139.635919,
168,E1110000210201,大宮第三公園,埼玉県さいたま市大宮区堀の内町地内,,1,,1,,1,,,,35.91519488,139.6423764,
169,E1110000211201,与野西北小学校,埼玉県さいたま市中央区円阿弥4-3-7,1,1,,1,,,,,1,35.88758362,139.6085218,
170,E1110000212201,県立いずみ高等学校,埼玉県さいたま市中央区円阿弥7-4-1,1,1,,1,,,,,1,35.89397534,139.6118129,
171,E1110000213201,与野東中学校,埼玉県さいたま市中央区下落合3-21-10,1,1,,1,,,,,1,35.88805054,139.6321266,
172,E1110000214201,下落合環境空間緑道,埼玉県さいたま市中央区下落合4-35-3,,1,,1,,,,,,35.8868002,139.6262181,
173,E1110000217201,下落合小学校,埼玉県さいたま市中央区上落合1-7-33,1,1,,1,,,,,1,35.88963703,139.6317128,
174,E1110000218201,上落合小学校,埼玉県さいたま市中央区上落合4-14-24,1,1,,1,,,,,1,35.89382861,139.6257717,
175,E1110000220201,大戸小学校,埼玉県さいたま市中央区新中里1-6-28,1,1,,1,,,,,1,35.87213064,139.6361836,
176,E1110000221201,与野中央公園,埼玉県さいたま市中央区新中里4-7-2,,1,,1,,,,,,35.87770686,139.6316149,
177,E1110000222201,大戸公園,埼玉県さいたま市中央区大戸2-1225-1,,1,,1,,,,,,35.86412132,139.6349958,
178,E1110000223201,与野南中学校,埼玉県さいたま市中央区大戸2-6-25,,1,,1,,,,,1,35.86541984,139.6345384,
179,E1110000225201,与野南小学校,埼玉県さいたま市中央区大戸6-2-25,,1,,1,,,,,1,35.86671171,139.634891,
180,E1110000226201,八王子公園,埼玉県さいたま市中央区八王子4-2,,1,,1,,,,,,35.88021385,139.6083088,
181,E1110000227201,八王子中学校,埼玉県さいたま市中央区八王子4-2-1,1,1,,1,,,,,1,35.87827061,139.6087818,
182,E1110000228201,与野公園,埼玉県さいたま市中央区本町西1-14,1,1,,1,,1,,,,35.88166313,139.6182011,
183,E1110000230201,県立与野高等学校,埼玉県さいたま市中央区本町西2-8-1,1,1,,1,,,,,1,35.88413182,139.6178136,
184,E1110000231201,与野本町小学校,埼玉県さいたま市中央区本町東3-5-23,1,1,,1,,,,,1,35.88333737,139.6229141,
185,E1110000232201,与野八幡小学校,埼玉県さいたま市中央区本町東5-23-14,1,1,,1,,,,,1,35.89035889,139.6221873,
186,E1110000233201,鈴谷小学校,埼玉県さいたま市中央区鈴谷5-1-1,,1,,1,,,,,1,35.87083306,139.6316539,
187,E1110000235201,与野西中学校,埼玉県さいたま市中央区鈴谷8-10-33,1,1,,1,,,,,1,35.87748515,139.6237057,
188,E1110000236201,西浦和小学校,埼玉県さいたま市南区曲本1-3-5,1,1,,1,,,,,1,35.83800109,139.6303578295,
189,E1110000238201,大谷口中学校,埼玉県さいたま市南区広ケ谷戸21,1,1,,1,,,,,1,35.86309396,139.6826046,
190,E1110000239201,大谷口小学校,埼玉県さいたま市南区広ケ谷戸24,1,1,,1,,,,,1,35.86219638,139.6833705,
191,E1110000243201,沼影小学校,埼玉県さいたま市南区沼影2-8-36,1,1,,1,,,,,1,35.83904039,139.6467244,
192,E1110000244201,善前小学校,埼玉県さいたま市南区太田窪2500-1,1,1,,1,,,,,1,35.853736455881,139.68581040555,
193,E1110000246201,谷田小学校,埼玉県さいたま市南区太田窪5-10-6,1,1,,1,,,,,1,35.85581836,139.6785045,
194,E1110000247201,明花公園,埼玉県さいたま市南区大字大谷口5732,,1,,1,,,,,,35.85465315,139.6937282,
195,E1110000248201,大谷口公園,埼玉県さいたま市南区大字大谷口5736-1,,1,,1,,,,,,35.85364226,139.6912744,
196,E1110000251201,向小学校,埼玉県さいたま市南区大谷口5437,1,1,,1,,,,,1,35.85774649,139.6958484,
197,E1110000252201,浦和競馬場,埼玉県さいたま市南区大谷場1-8-42,,1,,1,,1,,,,35.85787444,139.6705434,
198,E1110000253201,大谷場中学校,埼玉県さいたま市南区大谷場2-13-54,1,1,,1,,,,,1,35.8543311,139.6742802,
199,E1110000253202,大谷場東小学校,埼玉県さいたま市南区大谷場2-13-54,1,1,,1,,,,,1,35.85373109,139.6751493,
200,E1110000255201,南浦和中学校,埼玉県さいたま市南区辻6-1-33,1,1,,1,,,,,1,35.834380426004,139.65696297672,
201,E1110000256201,辻小学校,埼玉県さいたま市南区辻6-3-28,1,1,,1,,,,,1,35.8328927,139.6585593,
202,E1110000257201,浦和南高等学校,埼玉県さいたま市南区辻6-5-31,1,1,,1,,,,,1,35.832084421746,139.65701798836,
203,E1110000258201,辻南小学校,埼玉県さいたま市南区辻8-7-32,1,1,,1,,,,,1,35.83178467,139.6647246,
204,E1110000259201,内谷中学校,埼玉県さいたま市南区内谷6-10-1,1,1,,1,,,,,1,35.83565862,139.6479131,
205,E1110000260201,大谷場小学校,埼玉県さいたま市南区南浦和1-18-3,1,1,,1,,,,,1,35.85249744,139.668892,
206,E1110000261201,舟山公園,埼玉県さいたま市南区南浦和3-38,,1,,1,,,,,,35.84740929,139.6755093,
207,E1110000262201,岸中学校,埼玉県さいたま市南区南本町2-25-27,1,1,,1,,,,,1,35.85018982,139.6656186,
208,E1110000263201,南浦和小学校,埼玉県さいたま市南区白幡1-1-20,1,1,,1,,,,,1,35.84574794,139.6578796,
209,E1110000264201,白幡中学校,埼玉県さいたま市南区白幡2-18-13,1,1,,1,,,,,1,35.84904246,139.6527335,
210,E1110000266201,文蔵小学校,埼玉県さいたま市南区文蔵5-16-29,1,1,,1,,,,,1,35.834854155125,139.67364146998,
211,E1110000267201,浦和別所小学校,埼玉県さいたま市南区別所2-5-34,1,1,,1,,,,,1,35.84915254,139.6478928,
212,E1110000268201,別所沼公園,埼玉県さいたま市南区別所4-12,,1,,1,,,,,,35.85617645,139.6407523,
213,E1110000269201,埼玉大学教育学部附属中学校,埼玉県さいたま市南区別所4-2-5,1,1,,1,,,,,1,35.85574525,139.6439943,
214,E1110000271201,浦和大里小学校,埼玉県さいたま市南区別所7-14-28,1,1,,1,,,,,1,35.8451446,139.6441722,
215,E1110000272201,吉野公園,埼玉県さいたま市北区吉野町1-379-1,1,1,,1,,,,,,35.95279,139.61237,
216,E1110000273201,前谷公園,埼玉県さいたま市北区吉野町1-8-5,1,1,,1,,,,,,35.94757138,139.6187656,
217,E1110000274201,つつじヶ丘公園,埼玉県さいたま市北区吉野町2-213,1,1,,1,,,,,,35.95846406,139.6051916,
218,E1110000275201,きたまちしましま公園,埼玉県さいたま市北区宮原町1-859,1,1,,1,,,,,,35.93164111,139.6225466,
219,E1110000276201,東宮原ぼうさい広場,埼玉県さいたま市北区宮原町2-125-1,1,1,,1,,,,,,35.943124577523,139.61991834581,
220,E1110000277201,宮原公園・宮原南公園,埼玉県さいたま市北区宮原町2-79,1,1,,1,,,,,,35.94148418,139.6174468,
221,E1110000278201,つばさ小学校,埼玉県さいたま市北区宮原町3-902-4,1,1,,1,,,,,1,35.93289648,139.6107413,
222,E1110000279201,宮原小学校,埼玉県さいたま市北区宮原町4-102-6,1,1,,1,,,,,1,35.94898923,139.6065905,
223,E1110000280201,宮原中学校,埼玉県さいたま市北区宮原町4-129,1,1,,1,,,,,1,35.95198065,139.6061659,
224,E1110000281201,松原公園,埼玉県さいたま市北区宮原町4-42,1,1,,1,,,,,,35.94646187,139.6146034,
225,E1110000283201,県立大宮中央高等学校,埼玉県さいたま市北区櫛引町2-499-1,1,1,,1,,,,,1,35.92040498,139.6099552,
226,E1110000284201,日進中学校,埼玉県さいたま市北区櫛引町2-503-1,1,1,,1,,,,,1,35.92121848,139.6098212,
227,E1110000285201,市民の森・見沼グリーンセンター,埼玉県さいたま市北区見沼2-94,1,1,,1,,1,,,,35.93260438,139.6391631,
228,E1110000286201,土呂中学校,埼玉県さいたま市北区見沼3-75,,1,,1,,,,,1,35.93849806,139.6380284,
229,E1110000287201,泰平小学校,埼玉県さいたま市北区今羽町628,,1,,1,,,,,1,35.94967447,139.626378,
230,E1110000288201,植竹小学校,埼玉県さいたま市北区植竹町2-1,1,1,,1,,,,,1,35.92951896,139.6262236,
231,E1110000289201,県立大宮ろう学園,埼玉県さいたま市北区植竹町2-68,1,1,,1,,,,,1,35.93209464,139.6265029,
232,E1110000290201,土呂公園,埼玉県さいたま市北区土呂町1-42,1,1,,1,,,,,,35.9348,139.63092,
233,E1110000291201,植竹中学校,埼玉県さいたま市北区土呂町352,1,1,,1,,,,,1,35.93352863,139.6272876,
234,E1110000292201,東大成小学校,埼玉県さいたま市北区東大成町2-12,1,1,,1,,,,,1,35.92464153,139.6188762,
235,E1110000293201,三貫清水緑地,埼玉県さいたま市北区奈良町57-1,,1,,1,,,,,,35.94243063,139.6009167,
236,E1110000294201,大宮北高等学校,埼玉県さいたま市北区奈良町91-1,1,1,,1,,,,,1,35.9456106,139.6004661,
237,E1110000295201,日進公園,埼玉県さいたま市北区日進町1-311,1,1,,1,,,,,,35.92190343,139.6041487,
238,E1110000296201,農業機械研究部門,埼玉県さいたま市北区日進町1-40-2,1,1,,1,,1,,,,35.916881,139.604318,
239,E1110000299201,番場公園,埼玉県さいたま市北区日進町2-1435-1,,1,,1,,,,,,35.93300846,139.5991452,
240,E1110000300201,うねうね公園,埼玉県さいたま市北区日進町2-1916-3,1,1,,1,,,,,,35.93451312,139.6090105,
241,E1110000301201,日進小学校,埼玉県さいたま市北区日進町2-911,1,1,,1,,,,,1,35.92492549,139.6074278,
242,E1110000302201,日進北小学校,埼玉県さいたま市北区日進町3-178,1,1,,1,,,,,1,35.93661075,139.6038391,
243,E1110000303201,大宮別所小学校,埼玉県さいたま市北区別所町42-1,1,1,,1,,,,,1,35.9546793,139.5975389,
244,E1110000304201,大砂土小学校,埼玉県さいたま市北区本郷町1,1,1,,1,,,,,1,35.93718286,139.6274717,
245,E1110000306201,県立大宮工業高等学校,埼玉県さいたま市北区本郷町1970,,1,,1,,,,,1,35.94761885,139.628684,
246,E1110000307201,泰平中学校,埼玉県さいたま市北区本郷町1991,,1,,1,,,,,1,35.94931631,139.6273367,
247,E1110000309201,本郷第１公園,埼玉県さいたま市北区本郷町890-1,,1,,1,,,,,,35.94677376,139.6231325,
248,E1110000311201,原山小学校,埼玉県さいたま市緑区原山1-30-12,1,1,,1,,,,,1,35.86600341,139.6705542,
249,E1110000314201,三室小学校,埼玉県さいたま市緑区三室1994,1,1,,1,,,,,1,35.88358688,139.6822635,
250,E1110000317201,県立浦和東高等学校,埼玉県さいたま市緑区寺山365,,1,,1,,,,,1,35.90894178,139.7074235,
251,E1110000318201,松芝公園,埼玉県さいたま市緑区芝原2-4-2,,1,,1,,,,,,35.88258991,139.6911135,
252,E1110000319201,芝原小学校,埼玉県さいたま市緑区芝原2-5,1,1,,1,,,,,1,35.88181499,139.6918598,
253,E1110000320201,野田小学校,埼玉県さいたま市緑区上野田16,1,1,,1,,,,,1,35.90064958,139.7037132,
254,E1110000321201,原山中学校,埼玉県さいたま市緑区太田窪1-10-22,1,1,,1,,,,,1,35.86693434,139.6668949,
255,E1110000353201,浦和学院高等学校,埼玉県さいたま市緑区代山172,1,1,,1,,,,,,35.90007,139.707487,
256,E1110000323201,美園中学校,埼玉県さいたま市緑区大崎2550-3,1,1,,1,,,,,1,35.89253684,139.7127152,
257,E1110000324201,県立浦和特別支援学校,埼玉県さいたま市緑区大崎58,,1,,1,,,,,1,35.88167321,139.7162216,
258,E1110000325201,美園台公園,埼玉県さいたま市緑区大字下野田５５０外,,1,,1,,,,,,35.895312,139.724333,
259,E1110000326201,見沼氷川公園,埼玉県さいたま市緑区大字見沼500,,1,,1,,,,,,35.88597457,139.6944686,
260,E1110000327201,三浦運動公園,埼玉県さいたま市緑区大字三浦6836-1,1,1,,1,,,,,,35.89773553,139.6640011,
261,E1110000328201,さぎ山記念公園・見沼自然公園,埼玉県さいたま市緑区大字上野田362-1,,1,,1,,1,,,,35.90609105126,139.69686615659,
262,E1110000329201,見沼臨時グラウンド,埼玉県さいたま市緑区大字新宿地内,,1,,1,,,,,,35.89296738,139.6795486,
263,E1110000330201,大間木公園,埼玉県さいたま市緑区大字大間木1947,,1,,1,,,,,,35.86472985,139.7104533,
264,E1110000331201,大崎公園,埼玉県さいたま市緑区大字大崎,,1,,1,,,,,,35.88443278,139.7142301,
265,E1110000333201,美園臨時グラウンド,埼玉県さいたま市緑区大字大門2822-1,1,1,,1,,,,,,35.8869251,139.7307813,
266,E1110000335201,大門小学校,埼玉県さいたま市緑区大門1189,1,1,,1,,,,,1,35.88117252,139.7334794,
267,E1110000337201,東浦和中学校,埼玉県さいたま市緑区中尾1207-1,1,1,,1,,,,,1,35.8749249,139.6839372,
268,E1110000339201,中尾小学校,埼玉県さいたま市緑区中尾2596-1,1,1,,1,,,,,1,35.86846606,139.6824826,
269,E1110000340201,井沼方公園,埼玉県さいたま市緑区東浦和2-15-1,1,1,,1,,,,,,35.86197296,139.7009698,
270,E1110000341201,尾間木中学校,埼玉県さいたま市緑区東浦和4-29-1,1,1,,1,,,,,1,35.8692573,139.698524,
271,E1110000342201,東浦和中央公園,埼玉県さいたま市緑区東浦和4-4-1,1,1,,1,,,,,,35.86549,139.70126,
272,E1110000343201,大牧小学校,埼玉県さいたま市緑区東浦和6-12-3,1,1,,1,,,,,1,35.87310056,139.706746,
273,E1110000344201,尾間木小学校,埼玉県さいたま市緑区東浦和8-11-5,1,1,,1,,,,,1,35.86881643,139.6969641,
274,E1110000345201,道祖土小学校,埼玉県さいたま市緑区道祖土1-1-1,1,1,,1,,,,,1,35.8751527,139.6683837,
275,E1110000346201,三室中学校,埼玉県さいたま市緑区馬場1-38-2,1,1,,1,,,,,1,35.88733826,139.6843817,
276,E1110000348201,美園北小学校,埼玉県さいたま市緑区美園2-12-11,,1,,1,,,,,1,35.9010460102177,139.722999777941,
277,E1110000350201,美園小学校,埼玉県さいたま市緑区美園5-33,,1,,1,,,,,1,35.890549,139.735031,
278,E1110000351201,美園南中学校,埼玉県さいたま市緑区美園6-15,1,1,,1,,,,,1,35.8856100885026,139.736271348235,
279,E1134900001201,体育センター（せせらぎホール）,埼玉県ときがわ町大字関堀148-1,,1,,1,,,,,1,36.0033499991,139.274424,
280,E1134900002201,保健センター,埼玉県ときがわ町大字関堀151-1,,1,,1,,,,,1,36.0029779281953,139.273983899527,
281,E1134900003201,関堀集落センター,埼玉県ときがわ町大字関堀32-2,,1,,1,,,,,1,36.0028916961868,139.27808927834,
282,E1134900004201,明覚小学校,埼玉県ときがわ町大字関堀65,,1,,1,,,,,1,36.003322,139.27669,
283,E1134900004202,明覚小学校（校庭）,埼玉県ときがわ町大字関堀65,,1,,1,,,,,1,36.002989090594,139.27654550857,
284,E1134900005201,玉川中学校,埼玉県ときがわ町大字玉川1385-2,,1,,1,,,,,1,36.00985,139.299493,
285,E1134900005202,玉川中学校（校庭）,埼玉県ときがわ町大字玉川1385-2,,1,,1,,,,,1,36.009599036923,139.29963953583,
286,E1134900006201,一ト市コミュニティセンター,埼玉県ときがわ町大字玉川1600-1,,1,,1,,,,,1,36.0087760108686,139.301397133178,
287,E1134900007201,仲井分館,埼玉県ときがわ町大字玉川2436,,1,,1,,,,,1,36.0062792016874,139.297885019376,
288,E1134900008201,玉川公民館,埼玉県ときがわ町大字玉川2485,,1,,1,,,,,1,36.008128,139.297185,
289,E1134900009201,文化センター（アスピアたまがわ）,埼玉県ときがわ町大字玉川2510,,1,,1,,,,,1,36.0080381353281,139.29608314218,
290,E1134900010201,活き生き活動センター,埼玉県ときがわ町大字玉川2515,,1,,1,,,,,1,36.008931,139.29624,
291,E1134900011201,玉川小学校,埼玉県ときがわ町大字玉川2666,,1,,1,,,,,1,36.009461,139.293355,
292,E1134900011202,玉川小学校（校庭）,埼玉県ときがわ町大字玉川2666,,1,,1,,,,,1,36.009342812127,139.29337804193,
293,E1134900012201,玉川保育園,埼玉県ときがわ町大字玉川2685-2,,1,,1,,,,,1,36.010137,139.294163,
294,E1134900013201,春日集落センター,埼玉県ときがわ町大字玉川4615,,1,,1,,,,,1,36.0160182492679,139.301187748165,
295,E1134900014201,玉川運動場（運動場）,埼玉県ときがわ町大字玉川882,,1,,1,,,,,,36.011682094511,139.31028646152,
296,E1134900015201,勤労福祉センター,埼玉県ときがわ町大字玉川89-3,,1,,1,,,,,1,36.0127162187976,139.31231594976,
297,E1134900016201,五明地域運動場（運動場）,埼玉県ときがわ町大字五明1402-2,,1,,1,,,,,,36.021559927399,139.27137150261,
298,E1134900017201,ふれあいセンター田黒,埼玉県ときがわ町大字田黒272-10,,1,,1,,,,,1,36.023096,139.303334,
299,E1134900018201,田黒地域運動場（運動場）,埼玉県ときがわ町大字田黒689,,1,,1,,,,,,36.021319396236,139.3011678241,
300,E1134900019201,田中集会所,埼玉県ときがわ町大字田中216-1,,1,,1,,,,,1,36.0047335943857,139.274606570961,
301,E1134900020201,都幾川公民館,埼玉県ときがわ町大字桃木32,,1,,1,,,,,1,36.0041896629985,139.273695743861,
302,E1134900021202,都幾川中学校（校庭）,埼玉県ときがわ町大字桃木50,,1,,1,,,,,1,36.004486324446,139.26998303032,
303,E1134900021201,都幾川中学校,埼玉県ときがわ町大字桃木50,,1,,1,,,,,1,36.004766,139.269996,
304,E1134900022201,桃木中央会館,埼玉県ときがわ町大字桃木90-1,,1,,1,,,,,1,36.0035620889,139.268644493,
305,E1134900023201,日影分館,埼玉県ときがわ町大字日影731,,1,,1,,,,,1,36.0228388763,139.263501268,
306,E1134900024201,馬場公会堂,埼玉県ときがわ町大字馬場100-1,,1,,1,,,,,1,36.001167,139.281116,
307,E1134900026201,番匠文化センター,埼玉県ときがわ町大字番匠459-1,,1,,1,,,,,1,36.0028970034322,139.289114312342,
308,E1134900027201,椚平文化センター,埼玉県ときがわ町大字椚平522,,1,,1,,,,,1,35.9762164996251,139.221815061765,
309,E1124500001201,西ノ原中央公園,埼玉県ふじみ野市うれし野1-5-1,1,,,1,,1,1,,,35.855462267464,139.5197730291,
310,E1124500002201,東久保中央公園,埼玉県ふじみ野市ふじみ野1-3,1,,,1,,1,1,,,35.858940815345,139.51488144049,
311,E1124500003201,亀久保小学校,埼玉県ふじみ野市ふじみ野2-22-1,1,,,1,,1,1,,1,35.863374404103,139.51576528278,
312,E1124500004201,大井東中学校,埼玉県ふじみ野市ふじみ野3-2-1,1,,,1,,1,1,,1,35.861098590609,139.51658341276,
313,E1124500005202,西中央公園,埼玉県ふじみ野市霞ケ丘2-1791-21,1,,,1,,1,1,,,35.874163947342,139.50800421344,
314,E1124500007201,亀久保中央公園,埼玉県ふじみ野市亀久保1-2,1,,,1,,1,1,,,35.858590060335,139.50956448955,
315,E1124500006201,文京学院大学第１グラウンド,埼玉県ふじみ野市亀久保1150-13,1,,,1,,1,1,,,35.854002590127,139.50248797947,
316,E1124500008201,三角小学校,埼玉県ふじみ野市亀久保1709-1,1,,,1,,1,1,,1,35.858331979141,139.48989586859,
317,E1124500009201,駒西小学校,埼玉県ふじみ野市駒西3-6-1,1,,,1,,1,1,,1,35.867978150646,139.52247115822,
318,E1124500011202,駒林体育館,埼玉県ふじみ野市駒林28,,,,1,,1,,,1,35.869769,139.539973,
319,E1124500011201,さぎの森小学校,埼玉県ふじみ野市駒林28,,,,1,,1,,,1,35.869709336721,139.53939713206,
320,E1124500012202,市沢公園,埼玉県ふじみ野市市沢2-5-5,1,,,1,,1,1,,,35.853784399706,139.52379695683,
321,E1124500048201,福岡中央公園,埼玉県ふじみ野市上野台1-3-1,1,,,1,,1,1,,,35.875509046773,139.51637359239,
322,E1124500016201,福岡中学校,埼玉県ふじみ野市上野台3-3-1,1,,,1,,1,1,,1,35.87621508867,139.5226221695,
323,E1124500017201,西小学校,埼玉県ふじみ野市西2-10-25,1,,,1,,1,1,,1,35.872217680318,139.50522297361,
324,E1124500018201,福岡小学校,埼玉県ふじみ野市西原2-6-1,,,,1,,1,,,1,35.874458361878,139.52789681063,
325,E1124500019201,西鶴ケ岡公園,埼玉県ふじみ野市西鶴ケ岡2-741-11,1,,,1,,1,1,,,35.863109,139.497575,
326,E1124500020201,葦原中学校,埼玉県ふじみ野市川崎310,,,,1,,1,,,1,35.888693093279,139.51745151409,
327,E1124500021201,県立ふじみ野高等学校,埼玉県ふじみ野市大井1158-1,1,,,1,,1,1,,,35.849876755625,139.51153630063,
328,E1124500022201,東原親水公園,埼玉県ふじみ野市大井2-13-1,1,,,1,,1,1,,,35.850933897752,139.52214641672,
329,E1124500023201,東原小学校,埼玉県ふじみ野市大井2-9-1,1,,,1,,1,1,,1,35.851885976977,139.52071204093,
330,E1124500024201,東台小学校,埼玉県ふじみ野市大井710-1,1,,,1,,1,1,,1,35.848235627058,139.52318758872,
331,E1124500025201,市民憩の森,埼玉県ふじみ野市大井中央1-1094-3,1,,,1,,1,1,,,35.856311305134,139.50578709656,
332,E1124500027202,文京学院大学第２グラウンド,埼玉県ふじみ野市大井中央1-1168-11,1,,,1,,1,1,,,35.855276522164,139.50529893452,
333,E1124500029201,西原小学校,埼玉県ふじみ野市大井武蔵野1322-4,1,,,1,,1,1,,1,35.851038470441,139.49963441546,
334,E1124500030201,総合体育館,埼玉県ふじみ野市大井武蔵野1392-1,1,,,1,,1,1,,,35.843967136295,139.48743891534,
335,E1124500032201,大井西中学校,埼玉県ふじみ野市大井武蔵野408-1,1,,,1,,1,1,,1,35.8547134526,139.49361779083,
336,E1124500033201,花の木中学校,埼玉県ふじみ野市中福岡213-1,,,,1,,1,,,1,35.876662623353,139.53527518235,
337,E1124500034201,鶴ヶ丘小学校,埼玉県ふじみ野市鶴ケ岡1-3-1,1,,,1,,1,1,,1,35.863769534258,139.50541141603,
338,E1124500035201,鶴ケ岡中央公園,埼玉県ふじみ野市鶴ケ岡2-5,1,,,1,,1,1,,,35.865262199232,139.50605207761,
339,E1124500036201,大井中学校,埼玉県ふじみ野市苗間24-1,1,,,1,,1,1,,1,35.852715521108,139.51140364897,
340,E1124500037201,大井小学校,埼玉県ふじみ野市苗間37,1,,,1,,1,1,,1,35.854667363469,139.5145738262,
341,E1124500047201,上野台体育館,埼玉県ふじみ野市福岡1-1-3,1,,,1,,1,1,,,35.878758,139.519301,
342,E1124500039201,上野台小学校,埼玉県ふじみ野市福岡1-2-1,1,,,1,,1,1,,1,35.878452965516,139.52114507127,
343,E1124500041201,ふじみ野市第２運動公園,埼玉県ふじみ野市福岡字川袋5-1,,,,1,,1,,,1,35.871720306597,139.5500527601,
344,E1130100001201,志の崎児童公園,埼玉県伊奈町栄1-112,,,,1,,1,,,,35.972526594112,139.63538937503,
345,E1130100002201,中島児童公園,埼玉県伊奈町栄2-88,,,,1,,1,,,,35.973920176597,139.63898889954,
346,E1130100003201,南小学校グラウンド,埼玉県伊奈町栄4-1,,,,1,,1,,,1,35.983679816597,139.63965433076,
347,E1130100003202,南小学校,埼玉県伊奈町栄4-1,,,,,,,1,,1,35.983929,139.639845,
348,E1130100004201,南部大公園,埼玉県伊奈町栄4-181,,,,1,,1,,,,35.982585015874,139.64060358936,
349,E1130100005201,小針中学校グラウンド,埼玉県伊奈町学園2-207,,,,1,,1,,,1,36.009293108017,139.61490961531,
350,E1130100005202,小針中学校,埼玉県伊奈町学園2-207,,,,,,,1,,1,36.009803036199,139.61554317791,
351,E1130100006201,県立伊奈学園総合高等学校グラウンド,埼玉県伊奈町学園4-1-1,,,,1,,1,,,1,36.016317144673,139.61240332945,
352,E1130100006202,県立伊奈学園総合高等学校,埼玉県伊奈町学園4-1-1,,,,,,,1,,1,36.013507,139.612827,
353,E1130100007201,下宿児童公園,埼玉県伊奈町寿1-170,,,,1,,1,,,,36.00613936555,139.60130922731,
354,E1130100008201,宮前児童公園,埼玉県伊奈町寿1-430,,,,1,,1,,,,36.00901210687,139.60266106065,
355,E1130100009201,北部区画整理組合事業完成記念児童公園,埼玉県伊奈町寿2-358,,,,1,,1,,,,36.004513285955,139.60408240464,
356,E1130100010201,小針小学校グラウンド,埼玉県伊奈町寿2-80-1,,,,1,,1,,,1,36.005603465503,139.60281201166,
357,E1130100010202,小針小学校,埼玉県伊奈町寿2-80-1,,,,,,,1,,1,36.005865,139.602582,
358,E1130100011201,原児童公園,埼玉県伊奈町寿3-229,,,,1,,1,,,,36.005859276676,139.60792629414,
359,E1130100012201,向原児童公園,埼玉県伊奈町寿4-33,,,,1,,1,,,,36.003720207238,139.60699965554,
360,E1130100013201,日本薬科大学,埼玉県伊奈町小室10281,,,,,,,1,,1,35.991608,139.617051,
361,E1130100014201,国際学院高等学校グラウンド,埼玉県伊奈町小室10474,,,,1,,1,,,1,35.991623438669,139.61394235441,
362,E1130100014202,国際学院高等学校,埼玉県伊奈町小室10474,,,,,,,1,,1,35.990608,139.613123,
363,E1130100015201,栄北高等学校,埼玉県伊奈町小室1123,,,,,,,1,,1,35.983366,139.62404,
364,E1130100016201,ふれあい活動センター,埼玉県伊奈町小室2450-1,,,,,,,1,,1,35.978521,139.637487,
365,E1130100017202,南中学校,埼玉県伊奈町小室3001,,,,,,,1,,1,35.98333,139.63268,
366,E1130100017201,南中学校グラウンド,埼玉県伊奈町小室3001,,,,1,,1,,,1,35.982774573418,139.63195130082,
367,E1130100018202,伊奈中学校,埼玉県伊奈町小室5166,,,,,,,1,,1,35.997569,139.622917,
368,E1130100018201,伊奈中学校グラウンド,埼玉県伊奈町小室5166,,,,1,,1,,,1,35.997305587038,139.62360904295,
369,E1130100019201,小室小学校グラウンド,埼玉県伊奈町小室7981,,,,1,,1,,,1,35.991352690053,139.63042033489,
370,E1130100019202,小室小学校,埼玉県伊奈町小室7981,,,,,,,1,,1,35.991896,139.629983,
371,E1130100020201,町制施行記念公園,埼玉県伊奈町小針内宿732-1,,,,1,,1,,,,36.014252006503,139.6087569208,
372,E1130100021201,きんもくせい公園,埼玉県伊奈町西小針4-207-1,,,,1,,1,,,,36.020799775728,139.60237068749,
373,E1130100022202,小針北小学校,埼玉県伊奈町内宿台5-214-1,,,,,,,1,,1,36.018245,139.604576,
374,E1130100022201,小針北小学校グラウンド,埼玉県伊奈町内宿台5-214-1,,,,1,,1,,,1,36.018274102054,139.60531743208,
375,E1130100023202,県民活動総合センター,埼玉県伊奈町内宿台6-26,,,,,,,1,,1,36.019649995834,139.60705382441,
376,E1130100023201,県民活動総合センターグラウンド,埼玉県伊奈町内宿台6-26,,,,1,,1,,,1,36.020083877011,139.60529965973,
377,E1130100024201,中央児童公園,埼玉県伊奈町本町1-136,,,,1,,1,,,,35.997797189344,139.62634235505,
378,E1121600001201,西中学校,埼玉県羽生市羽生120,,,,1,,1,,,,36.175912,139.531302,
379,E1121600002201,羽生実業高等学校,埼玉県羽生市羽生323,,,,1,,1,,,,36.178027,139.528189,
380,E1121600003201,羽生ふじ高等学園,埼玉県羽生市下羽生320-1,,,,1,,1,,,,36.169263,139.551988,
381,E1121600004201,羽生第一高等学校,埼玉県羽生市下岩瀬153,,,,1,,1,,,,36.160572,139.533051,
382,E1121600005201,手子林小学校,埼玉県羽生市下手子林555,,,,1,,1,,,,36.153179,139.572549,
383,E1121600006201,新郷第二小学校,埼玉県羽生市下新郷1099,,,,1,,1,,,,36.146269,139.522227,
384,E1121600007201,羽生高等学校,埼玉県羽生市加羽ヶ崎303-1,,,,1,,1,,,,36.161721,139.542359,
385,E1121600008201,東中学校,埼玉県羽生市今泉1448,,,,1,,1,,,,36.172991,139.575315,
386,E1121600009201,羽生水郷公園,埼玉県羽生市三田ヶ谷地内,,,,1,,1,,,,36.172453,139.59771,
387,E1121600010201,小松公園,埼玉県羽生市小松280,,,,1,,1,,,,36.156395,139.526776,
388,E1121600011201,小松北公園,埼玉県羽生市小松台1-516-9,,,,1,,1,,,,36.156421,139.532315,
389,E1121600012201,小松南公園,埼玉県羽生市小松台1-603-39,,,,1,,1,,,,36.151579,139.53637,
390,E1121600013201,小松東公園,埼玉県羽生市小松台2-705-9,,,,1,,1,,,,36.156236,139.537394,
391,E1121600014201,羽生西公園,埼玉県羽生市小須賀110,,,,1,,1,,,,36.180297,139.521648,
392,E1121600015201,岩瀬小学校,埼玉県羽生市上岩瀬1756,,,,1,,1,,,,36.163448,139.524539,
393,E1121600016201,上新郷公園,埼玉県羽生市上新郷1822,,,,1,,1,,,,36.170353,139.512733,
394,E1121600017201,新郷第一小学校,埼玉県羽生市上新郷5716,,,,1,,1,,,,36.174741,139.508266,
395,E1121600018201,上新郷町並公園,埼玉県羽生市上新郷5988-1,,,,1,,1,,,,36.178991,139.503396,
396,E1121600019201,羽生スカイスポーツ公園,埼玉県羽生市常木1175,,,,1,,1,,,,36.195821,139.603244,
397,E1121600020201,誠和福祉高等学校,埼玉県羽生市神戸706,,,,1,,1,,,,36.137536,139.562414,
398,E1121600021201,須影小学校,埼玉県羽生市須影672,,,,1,,1,,,,36.150806,139.547213,
399,E1121600022201,栄町公園,埼玉県羽生市西2-12,,,,1,,1,,,,36.168659,139.532773,
400,E1121600023201,小松道上公園,埼玉県羽生市西3-16,,,,1,,1,,,,36.168096,139.529893,
401,E1121600024201,新田前公園,埼玉県羽生市西4-8,,,,1,,1,,,,36.171647,139.528986,
402,E1121600025201,新田公園,埼玉県羽生市西5-17,,,,1,,1,,,,36.174782,139.527114,
403,E1121600026201,大道公園,埼玉県羽生市西5-8,,,,1,,1,,,,36.174607,139.53029,
404,E1121600027201,上川崎公園,埼玉県羽生市川崎2-267-1,,,,1,,1,,,,36.145124,139.536066,
405,E1121600028201,下川崎公園,埼玉県羽生市川崎2-281-30,,,,1,,1,,,,36.14139,139.544971,
406,E1121600092201,上岩瀬産業団地公園,埼玉県羽生市大字上岩瀬737-3,,,,1,,1,,,,36.169722,139.523438,
407,E1121600091201,本川俣公園,埼玉県羽生市大字本川俣540-2,,,,1,,1,,,,36.183784,139.53584,
408,E1121600056201,大沼公園,埼玉県羽生市大沼2-75,,,,1,,1,,,,36.168023,139.569774,
409,E1121600057201,相生町緑地公園,埼玉県羽生市中央1-1537-3,,,,1,,1,,,,36.171371,139.536419,
410,E1121600090201,岩瀬第８公園,埼玉県羽生市中岩瀬220,,,,1,,1,,,,36.159265,139.535823,
411,E1121600060201,南中学校,埼玉県羽生市中岩瀬226,,,,1,,1,,,,36.160784,139.537427,
412,E1121600061201,旧村君小学校,埼玉県羽生市堤107,,,,1,,1,,,,36.204502,139.586535,
413,E1121600062201,栃木西公園,埼玉県羽生市東3-13,,,,1,,1,,,,36.178942,139.54052,
414,E1121600063201,栃木東公園,埼玉県羽生市東3-19,,,,1,,1,,,,36.179324,139.542209,
415,E1121600064201,稲子前公園,埼玉県羽生市東3-45,,,,1,,1,,,,36.182406,139.54002,
416,E1121600065201,羽生平和公園,埼玉県羽生市東6-2,,,,1,,1,,,,36.172348,139.547481,
417,E1121600066201,城沼公園,埼玉県羽生市東7-8-5,,,,1,,1,,,,36.169787,139.549205,
418,E1121600067201,羽生中央公園,埼玉県羽生市東９地内,,,,1,,1,,,,36.175185,139.554848,
419,E1121600069201,羽生東小学校,埼玉県羽生市藤井上組270,,,,1,,1,,,,36.186145,139.562752,
420,E1121600070201,元町公園,埼玉県羽生市南2-12,,,,1,,1,,,,36.165748,139.537434,
421,E1121600071201,小松道下公園,埼玉県羽生市南2-27,,,,1,,1,,,,36.164896,139.535269,
422,E1121600072201,旭町公園,埼玉県羽生市南5-13,,,,1,,1,,,,36.16927,139.543166,
423,E1121600074201,前谷公園,埼玉県羽生市南6-4-1,,,,1,,1,,,,36.166087,139.543745,
424,E1121600075201,羽生南小学校,埼玉県羽生市南6-5-1,,,,1,,1,,,1,36.167265,139.544363,
425,E1121600076201,宮田１号公園,埼玉県羽生市南7-15-1,,,,1,,1,,,,36.164091,139.542511,
426,E1121600077201,宮田２号公園,埼玉県羽生市南7-20-1,,,,1,,1,,,,36.16303,139.544496,
427,E1121600078201,宮田３号公園,埼玉県羽生市南8-5-1,,,,1,,1,,,,36.165195,139.539464,
428,E1121600079201,空の公園,埼玉県羽生市南羽生1-20-1,,,,1,,1,,,,36.152232,139.558676,
429,E1121600080201,太陽の公園,埼玉県羽生市南羽生2-24-1,,,,1,,1,,,,36.148704,139.562813,
430,E1121600081201,山の公園,埼玉県羽生市南羽生2-31-13,,,,1,,1,,,,36.148529,139.559053,
431,E1121600082201,光の公園,埼玉県羽生市南羽生3-18,,,,1,,1,,,,36.146599,139.555522,
432,E1121600083201,風の公園,埼玉県羽生市南羽生4-12-3,,,,1,,1,,,,36.148726,139.554338,
433,E1121600084201,羽生北小学校,埼玉県羽生市北2-1-1,,,,1,,1,,,1,36.176017,139.539177,
434,E1121600085201,大天白公園,埼玉県羽生市北2-9,,,,1,,1,,,,36.178777,139.538549,
435,E1121600086201,大和町公園,埼玉県羽生市北3-7,,,,1,,1,,,,36.178247,139.532971,
436,E1121600087201,葛西親水公園,埼玉県羽生市本川俣1013-1,,,,1,,1,,,,36.188299,139.531057,
437,E1121600088201,川俣小学校,埼玉県羽生市本川俣629,,,,1,,1,,,,36.183579,139.537191,
438,E1121600089201,旧三田ヶ谷小学校,埼玉県羽生市弥勒87,,,,1,,1,,,,36.176129,139.592806,
439,E1132700001201,稲荷児童公園,埼玉県越生町越生東1-8,1,1,,1,,1,,,,35.9638118831797,139.301748104501,
440,E1132700002201,神明児童公園,埼玉県越生町越生東3-5-1,1,1,,1,,1,,,,35.960523,139.302679,
441,E1132700004201,五領児童公園,埼玉県越生町越生東5-8-1,1,1,,1,,1,,,,35.957279,139.303882,
442,E1132700005201,武蔵越生高等学校,埼玉県越生町上野東1-3-10,1,1,,1,,1,,,1,35.952125,139.31126,
443,E1132700006201,川原田児童公園,埼玉県越生町上野東4-20-1,1,1,,1,,1,,,,35.958254,139.307273,
444,E1132700010201,越生町立梅園小学校,埼玉県越生町大字小杉547,1,1,,1,,1,,,1,35.96886,139.26953,
445,E1132700012201,上谷農村公園,埼玉県越生町大字上谷17-1,1,1,,1,,1,,,,35.974749,139.271745,
446,E1132700014201,オーパークおごせ,埼玉県越生町大字上野3083-1,1,1,,1,,1,,,1,35.946562,139.294771,
447,E1132700015201,埼玉県立越生高等学校,埼玉県越生町大字西和田600,1,1,,1,,1,,,1,35.972918,139.301295,
448,E1132700016201,大満農村広場,埼玉県越生町大字大満257,1,,,1,,1,,,,35.955386,139.263989,
449,E1122200001201,レイクタウンスポーツ公園,埼玉県越谷市レイクタウン5-10,,,,1,,1,,,,35.879345879573,139.82899797843,
450,E1122200002201,叡明高等学校,埼玉県越谷市レイクタウン7-2-1,,,,1,,1,,,,35.875490674137,139.8166096029,
451,E1122200003201,越谷南高等学校,埼玉県越谷市レイクタウン7-9,1,,,1,,1,,,1,35.873899445062,139.82047040281,
452,E1122200004201,見田方遺跡公園,埼玉県越谷市レイクタウン8-2,,,,1,,1,,,,35.877895397836,139.8212849469,
453,E1122200129201,緑の森公園,埼玉県越谷市越ヶ谷2579,,,,1,,1,,,,35.900333597184,139.78969014351,
454,E1122200006201,越ヶ谷高等学校,埼玉県越谷市越ヶ谷2788-1,1,,,1,,1,,,1,35.898761206041,139.79137184855,
455,E1122200007201,中央市民会館,埼玉県越谷市越ヶ谷4-1-1,1,,,1,,1,,,1,35.889696569696,139.79145084192,
456,E1122200008201,北部市民会館,埼玉県越谷市恩間181-1,1,,,1,,1,,,1,35.924240396743,139.77300749323,
457,E1122200009201,獨協埼玉中学高等学校,埼玉県越谷市恩間新田316,,,,1,,1,,,,35.939247594831,139.75864063872,
458,E1122200010201,桜井南小学校,埼玉県越谷市下間久里226,1,,,1,,1,,,1,35.924311203065,139.78579202744,
459,E1122200011201,桜井地区センター,埼玉県越谷市下間久里792-1,1,,,1,,1,,,1,35.929971648795,139.78554702543,
460,E1122200012201,花田小学校,埼玉県越谷市花田4-14-1,1,,,1,,1,,,1,35.905448667909,139.80175250463,
461,E1122200014202,蒲生小学校,埼玉県越谷市蒲生旭町1-75,1,,,1,,1,,,1,35.86957848,139.7979608,
462,E1122200013201,児童館ヒマワリ,埼玉県越谷市蒲生旭町11-35,1,,,1,,1,,,1,35.866001265361,139.79884400868,
463,E1122200015201,蒲生交流館,埼玉県越谷市蒲生寿町4-9,1,,,,,,,,1,35.868941716604,139.79416564047,
464,E1122200016201,中央中学校,埼玉県越谷市宮前1-18-1,1,,,1,,1,,,1,35.901014609271,139.79383647766,
465,E1122200017201,宮本小学校,埼玉県越谷市宮本町5-85,1,,,1,,1,,,1,35.889969685258,139.77373748028,
466,E1122200018201,しらこばと運動公園,埼玉県越谷市砂原39,,,,1,,1,,,,35.911797744319,139.75458142293,
467,E1122200019201,千間台中学校,埼玉県越谷市三野宮1141,1,,,1,,1,,,1,35.933203230677,139.75611393031,
468,E1122200020201,埼玉県立大学,埼玉県越谷市三野宮820,1,,,1,,1,,,1,35.93012123731,139.75548797312,
469,E1122200021201,出羽公園,埼玉県越谷市七左町4-222,,,,1,,1,,,,35.875028674972,139.76787686555,
470,E1122200022201,西体育館,埼玉県越谷市七左町4-223,1,,,1,,1,,,1,35.874017604756,139.76753561042,
471,E1122200023201,出羽地区センター,埼玉県越谷市七左町4-248-1,1,,,1,,1,,,1,35.873411407647,139.76791990025,
472,E1122200024201,しらこばと水上公園,埼玉県越谷市小曽川985,,,,1,,1,,,,35.913217160685,139.74772399889,
473,E1122200025201,科学技術体験センター,埼玉県越谷市新越谷1-59,1,,,1,,1,,,1,35.871148774943,139.78302696264,
474,E1122200026201,富士中学校,埼玉県越谷市新越谷1-85,1,,,1,,1,,,1,35.877007184205,139.78283261567,
475,E1122200027202,老人福祉センターけやき荘,埼玉県越谷市新川町2-55,1,,,1,,1,,,1,35.881851,139.760818,
476,E1122200028201,西中学校,埼玉県越谷市神明町2-385,1,,,1,,1,,,1,35.897825726622,139.76597511832,
477,E1122200029201,越谷西特別支援学校,埼玉県越谷市西新井850-1,1,,,1,,1,,,1,35.889321017448,139.75319789283,
478,E1122200030201,西方小学校,埼玉県越谷市西方2-12-1,1,,,1,,1,,,1,35.884848773529,139.79695322231,
479,E1122200031201,赤山交流館,埼玉県越谷市赤山町3-128-1,1,,,1,,1,,,1,35.884346147268,139.77798332661,
480,E1122200032201,千間台記念会館,埼玉県越谷市千間台西1-9-9,1,,,1,,1,,,1,35.935330791186,139.77059175654,
481,E1122200033201,千間台第四公園,埼玉県越谷市千間台西4-2,,,,1,,1,,,,35.934020617522,139.76387179509,
482,E1122200034201,千間台小学校,埼玉県越谷市千間台西5-4,1,,,1,,1,,,1,35.931933475282,139.76450117676,
483,E1122200035201,児童館コスモス,埼玉県越谷市千間台東2-9,1,,,1,,1,,,1,35.934922696672,139.7840130056,
484,E1122200036201,南中学校,埼玉県越谷市川柳町1-198,1,,,1,,1,,,1,35.874535848219,139.80949293908,
485,E1122200037201,明正小学校,埼玉県越谷市川柳町1-401,1,,,1,,1,,,1,35.875126101486,139.81136390962,
486,E1122200038201,川柳小学校,埼玉県越谷市川柳町1-471-1,1,,,1,,1,,,1,35.873345355688,139.81317848187,
487,E1122200039201,光陽中学校,埼玉県越谷市川柳町1-498,1,,,1,,1,,,1,35.875035728588,139.81270622548,
488,E1122200040201,川柳地区センター,埼玉県越谷市川柳町2-485,1,,,,,,,,1,35.867359187392,139.81368564258,
489,E1122200041201,老人福祉センターひのき荘,埼玉県越谷市川柳町2-507-1,1,,,1,,1,,,1,35.86650248059,139.81179664078,
490,E1122200042201,川柳公園,埼玉県越谷市川柳町4-15-1,,,,1,,1,,,,35.86376665259,139.81447796568,
491,E1122200043201,南体育館,埼玉県越谷市川柳町4-20,1,,,1,,1,,,1,35.864372148785,139.81529159563,
492,E1122200044201,越谷特別支援学校,埼玉県越谷市船渡500,1,,,1,,1,,,1,35.93273178464,139.79553146576,
493,E1122200045201,大相模中学校,埼玉県越谷市相模町3-165,1,,,1,,1,,,1,35.885938047694,139.80941802261,
494,E1122200046201,大相模地区センター,埼玉県越谷市相模町3-42-1,1,,,1,,1,,,1,35.884473013464,139.80850185324,
495,E1122200047201,総合体育館,埼玉県越谷市増林2-33,1,,,1,,1,,,1,35.902760373253,139.81346901302,
496,E1122200048201,増林小学校,埼玉県越谷市増林2-512,1,,,1,,1,,,1,35.908233636332,139.8180327099,
497,E1122200049201,越谷総合公園,埼玉県越谷市増林3-1,,,,1,,1,,,,35.901962225465,139.81850209763,
498,E1122200050201,老人福祉センターゆりのき荘,埼玉県越谷市増林3-2-2,1,,,1,,1,,,1,35.901051786412,139.81664680484,
499,E1122200051201,増林地区センター,埼玉県越谷市増林3-4-1,1,,,1,,1,,,1,35.90140947414,139.82060710196,
500,E1122200052201,増林公園,埼玉県越谷市増林3989-2,,,,1,,1,,,,35.913516,139.816912,
501,E1122200053201,越谷東高等学校,埼玉県越谷市増林5670-1,1,,,1,,1,,,1,35.893825442462,139.81291254712,
502,E1122200054201,城ノ上小学校,埼玉県越谷市増林6066-1,1,,,1,,1,,,1,35.900684541021,139.80752429504,
503,E1122200055201,大袋東小学校,埼玉県越谷市袋山1750,1,,,1,,1,,,1,35.918108304524,139.77463273142,
504,E1122200056201,大袋北小学校,埼玉県越谷市袋山515,1,,,1,,1,,,1,35.930619763577,139.77206536637,
505,E1122200057201,大袋北交流館,埼玉県越谷市袋山565-4,1,,,1,,1,,,1,35.93036598901,139.77347356299,
506,E1122200058201,北中学校,埼玉県越谷市袋山870,1,,,1,,1,,,1,35.92920137967,139.77842551175,
507,E1122200059201,大間野小学校,埼玉県越谷市大間野町2-115,1,,,1,,1,,,1,35.865916821632,139.7829530797,
508,E1122200060201,武蔵野中学校,埼玉県越谷市大間野町4-357,1,,,1,,1,,,1,35.866104576695,139.77300354244,
509,E1122200061201,新栄中学校,埼玉県越谷市大吉435,1,,,1,,1,,,1,35.919648118205,139.79993866968,
510,E1122200062201,新方地区センター,埼玉県越谷市大吉470-1,1,,,1,,1,,,1,35.920761667559,139.79901409827,
511,E1122200131201,西大袋第一公園,埼玉県越谷市大字大竹,,,,1,,1,,,,35.924372,139.764006,
512,E1122200063201,北陽中学校,埼玉県越谷市大松450,1,,,1,,1,,,1,35.933094167584,139.79904855605,
513,E1122200064201,北体育館,埼玉県越谷市大杉510,1,,,,,,,,1,35.932565143935,139.79810356852,
514,E1122200065201,大杉公園,埼玉県越谷市大杉518,,,,1,,1,,,,35.932251340902,139.79721225726,
515,E1122200066201,老人福祉センターくすのき荘,埼玉県越谷市大杉655,1,,,1,,1,,,1,35.927261518272,139.79547203712,
516,E1122200067201,大相模小学校,埼玉県越谷市大成町2-1,1,,,1,,1,,,1,35.886380006329,139.82060026646,
517,E1122200068201,大沢小学校,埼玉県越谷市大沢2-13-21,1,,,1,,1,,,1,35.900656921033,139.78475257889,
518,E1122200069201,栄進中学校,埼玉県越谷市大沢659-1,1,,,1,,1,,,1,35.906476378536,139.7841545987,
519,E1122200070201,大袋小学校,埼玉県越谷市大竹147,1,,,1,,1,,,1,35.920673505865,139.76909170506,
520,E1122200071201,大袋地区センター,埼玉県越谷市大竹160-2,1,,,,,,,,1,35.919178852307,139.76752549802,
521,E1122200072201,大袋中学校,埼玉県越谷市大竹236,1,,,1,,1,,,1,35.919010131503,139.76410948052,
522,E1122200073201,桜井小学校,埼玉県越谷市大泊1140,1,,,1,,1,,,1,35.939257430783,139.78341535802,
523,E1122200074201,越谷北高等学校,埼玉県越谷市大泊500-1,1,,,1,,1,,,1,35.937584762075,139.78758890318,
524,E1122200075201,桜井交流館,埼玉県越谷市大泊730-2,1,,,,,,,,1,35.938221371662,139.7840851536,
525,E1122200076201,大沢北交流館,埼玉県越谷市大里326-1,1,,,1,,1,,,1,35.916247889853,139.78479365986,
526,E1122200077201,大沢北小学校,埼玉県越谷市大林580,1,,,1,,1,,,1,35.915621107671,139.78779819867,
527,E1122200078201,出羽小学校,埼玉県越谷市谷中町2-69,1,,,1,,1,,,1,35.879854291226,139.7726484926,
528,E1122200079201,越谷総合技術高等学校,埼玉県越谷市谷中町3-100-1,1,,,1,,1,,,1,35.884591111192,139.76919122632,
529,E1122200080201,越ヶ谷小学校,埼玉県越谷市中町1-41,1,,,1,,1,,,1,35.891992720636,139.78543662572,
530,E1122200081201,蒲生地区センター,埼玉県越谷市登戸町33-16,1,,,1,,1,,,1,35.872327022727,139.79618518378,
531,E1122200082201,東小林記念会館,埼玉県越谷市東越谷3-10-7,1,,,,,,,,1,35.893861196138,139.79676939697,
532,E1122200083201,東越谷第二公園,埼玉県越谷市東越谷3-14,,,,1,,1,,,,35.895887893712,139.79623255047,
533,E1122200084201,東越谷小学校,埼玉県越谷市東越谷6-1040,1,,,1,,1,,,1,35.899103626284,139.79895506872,
534,E1122200085201,東中学校,埼玉県越谷市東越谷9-3160,1,,,1,,1,,,1,35.893297964437,139.81055263384,
535,E1122200086201,大沢地区センター,埼玉県越谷市東大沢1-12-1,1,,,1,,1,,,1,35.908261249613,139.78666114655,
536,E1122200087201,鷺後小学校,埼玉県越谷市東大沢2-1-1,1,,,1,,1,,,1,35.910569986689,139.78707775321,
537,E1122200088201,鷺高第五公園,埼玉県越谷市東大沢5-10,,,,1,,1,,,,35.90704421482,139.78951936554,
538,E1122200089201,越谷コミュニティセンター,埼玉県越谷市南越谷1-2876-1,1,,,1,,1,,,1,35.8738495912,139.79233578397,
539,E1122200090201,南越谷小学校,埼玉県越谷市南越谷4-21-1,1,,,1,,1,,,1,35.874927311946,139.78568934768,
540,E1122200090202,南越谷地区センター,埼玉県越谷市南越谷4-21-1,1,,,1,,1,,,1,35.874175315773,139.78667103617,
541,E1122200091201,南越谷交流館,埼玉県越谷市南越谷5-15-4,1,,,,,,,,1,35.870324678182,139.78961110824,
542,E1122200092201,南越谷第一公園,埼玉県越谷市南越谷5-21,,,,1,,1,,,,35.870468365937,139.7873729542,
543,E1122200093201,荻島地区センター,埼玉県越谷市南荻島190-1,1,,,1,,1,,,1,35.906855647131,139.76639292801,
544,E1122200094201,文教大学,埼玉県越谷市南荻島3337,1,,,1,,1,,,1,35.90470294044,139.77375980776,
545,E1122200095201,荻島小学校,埼玉県越谷市南荻島902,1,,,1,,1,,,1,35.90582576311,139.76558689226,
546,E1122200096201,南部交流館,埼玉県越谷市南町1-22-13,1,,,1,,1,,,1,35.861966069898,139.80466186087,
547,E1122200097201,蒲生南小学校,埼玉県越谷市南町1-8-1,1,,,1,,1,,,1,35.8630609405,139.80538977998,
548,E1122200098201,南部第四公園,埼玉県越谷市南町3-8,,,,1,,1,,,,35.860242642938,139.80671504209,
549,E1122200099201,平方中学校,埼玉県越谷市平方2115,1,,,1,,1,,,1,35.946955091587,139.78988497907,
550,E1122200100201,平方公園,埼玉県越谷市平方2402,,,,1,,1,,,,35.950515434182,139.78643382922,
551,E1122200101201,平方小学校,埼玉県越谷市平方2784,1,,,1,,1,,,1,35.947131878862,139.78466180048,
552,E1122200102201,北越谷小学校,埼玉県越谷市北越谷3-10-38,1,,,1,,1,,,1,35.901977355924,139.77185357097,
553,E1122200103201,北越谷地区センター,埼玉県越谷市北越谷4-8-35,1,,,1,,1,,,1,35.901760499928,139.77634971927,
554,E1122200104201,北越谷第五公園,埼玉県越谷市北越谷5-482,,,,1,,1,,,,35.908269056266,139.77771793177,
555,E1122200105201,県民健康福祉村,埼玉県越谷市北後谷82,,,,1,,1,,,,35.884224170702,139.75798076616,
556,E1122200106201,新方小学校,埼玉県越谷市北川崎178,1,,,1,,1,,,1,35.932025583818,139.81009326023,
557,E1122200107201,弥栄小学校,埼玉県越谷市北川崎725,1,,,1,,1,,,1,35.926075605218,139.79746081673,
558,E1122200108201,越谷西高等学校,埼玉県越谷市野島460-1,1,,,1,,1,,,1,35.916637180737,139.74869757082,
559,E1122200109201,越谷流通公園,埼玉県越谷市流通団地3-4,,,,1,,1,,,,35.879334064039,139.80538234838,
560,E1136100001201,横瀬町活性化センター,埼玉県横瀬町大字芦ヶ久保140-1,1,1,,1,,1,1,,1,35.977453809379,139.13456635177,
561,E1136100003201,横瀬町農村公園駐車場,埼玉県横瀬町大字芦ヶ久保244-1,,,,,,1,,,,35.981071588137,139.13393754606,
562,E1136100004201,旧横瀬町立芦ヶ久保小学校,埼玉県横瀬町大字芦ヶ久保637-1,,,,,,1,,,,35.977714634634,139.13820058321,
563,E1136100005201,横瀬町総合福祉センター,埼玉県横瀬町大字横瀬1240,1,1,,1,,1,1,,1,35.981932180851,139.10968540369,
564,E1136100006201,横瀬町保育所,埼玉県横瀬町大字横瀬1243-1,1,1,,1,,,1,,1,35.981848647361,139.10910862186,
565,E1136100007201,苅米コミュニティ広場,埼玉県横瀬町大字横瀬1331-5,1,1,,1,,1,1,,,35.981171429849,139.11144990568,
566,E1136100008201,寺坂棚田農業者等用トイレ用地,埼玉県横瀬町大字横瀬1868-1,1,1,,1,,1,1,,,35.989372131745,139.10643724858,
567,E1136100009201,ウォーターパーク・シラヤマ児童公園,埼玉県横瀬町大字横瀬1913-41,,1,,1,,1,,,,35.987606065105,139.10478442217,
568,E1136100010201,横瀬町町民会館・歴史民俗資料館駐車場,埼玉県横瀬町大字横瀬1924-1,1,1,,1,,1,1,,,35.987505698903,139.10280285536,
569,E1136100011201,横瀬町町民会館駐車場,埼玉県横瀬町大字横瀬1995-1,1,1,,1,,1,1,,,35.986038564882,139.10293696581,
570,E1136100012201,横瀬町町民会館,埼玉県横瀬町大字横瀬2000,1,1,,1,,1,1,,1,35.986659278759,139.10292087257,
571,E1136100013201,ウォーターパーク・シラヤマ駐車場,埼玉県横瀬町大字横瀬2042-1,,1,,1,,1,,,,35.986989699299,139.10519748236,
572,E1136100015201,上宇根コミュニティ広場,埼玉県横瀬町大字横瀬3305-1,1,1,,1,,1,1,,,35.980854540497,139.09222919589,
573,E1136100016201,１区コミュニティ広場,埼玉県横瀬町大字横瀬348-1,1,1,,1,,1,1,,,35.972840723842,139.10514671449,
574,E1136100018201,横瀬児童館,埼玉県横瀬町大字横瀬4377-1,1,1,,1,,,1,,1,35.990932667378,139.09755219341,
575,E1136100019201,横瀬町役場,埼玉県横瀬町大字横瀬4545-1,1,1,,1,,1,1,,,35.987389433669,139.10006441439,
576,E1136100020201,横瀬町スポーツ交流館,埼玉県横瀬町大字横瀬4554,1,1,,1,,,1,,1,35.988729736587,139.10058735071,
577,E1136100021201,横瀬町立横瀬小学校,埼玉県横瀬町大字横瀬4556,1,1,,1,,1,1,,1,35.988344800333,139.1013943191,
578,E1136100022201,横瀬町立横瀬中学校,埼玉県横瀬町大字横瀬4658,1,1,,1,,1,1,,1,35.992193399897,139.09884391486,
579,E1136100023201,川西コミュニティ広場,埼玉県横瀬町大字横瀬5353-1,1,1,,1,,1,1,,,35.999428406391,139.1005256599,
580,E1136100026201,横瀬町コミュニティ防災センター,埼玉県横瀬町大字横瀬6209-1,1,1,,1,,,1,,1,35.997825660317,139.10411361253,
581,E1136100027201,横瀬町町民グラウンド駐車場①,埼玉県横瀬町大字横瀬6310-1,1,,,1,,1,1,,,35.995348760278,139.10777567086,
582,E1136100028201,横瀬町町民グラウンド駐車場②,埼玉県横瀬町大字横瀬6317-1,1,1,,1,,1,1,,,35.995066649288,139.10735724625,
583,E1136100029201,横瀬町町民グラウンド,埼玉県横瀬町大字横瀬6351,1,1,,1,,1,1,,,35.99444166135,139.10583375154,
584,E1136100030201,１２区コミュニティ広場,埼玉県横瀬町大字横瀬6500,,1,,1,,1,,,,35.992817315869,139.10221774226,
585,E1136100031201,３区コミュニティ広場,埼玉県横瀬町大字横瀬852-1,,,,,,1,,,,35.975788479066,139.11129433756,
586,E1123100001201,桶川西小学校,埼玉県桶川市下日出谷836-1,1,1,,1,,1,1,,1,35.99974038,139.5473065,
587,E1123100002201,サン・アリーナ,埼玉県桶川市下日出谷西2-4-1,1,1,,1,,1,1,,1,35.99395716,139.5456124,
588,E1123100003201,加納中学校,埼玉県桶川市加納1279,1,1,,1,,1,1,,1,36.02259082,139.5726981,
589,E1123100004201,べに花ふるさと館,埼玉県桶川市加納419-1,1,1,,1,,1,1,,1,36.01792967,139.5618986,
590,E1123100005201,保健センター,埼玉県桶川市鴨川1-4-1,1,1,,1,,1,1,,1,35.99681591,139.5588523,
591,E1123100006201,加納小学校,埼玉県桶川市坂田883,1,1,,1,,1,1,,1,36.01811456,139.5788476,
592,E1123100007201,桶川高等学校,埼玉県桶川市坂田945,1,1,,1,,1,1,,1,36.01980713,139.5750131,
593,E1123100008201,加納公民館,埼玉県桶川市坂田982-5,1,1,,1,,1,1,,1,36.01863315,139.5730867,
594,E1123100009201,桶川東小学校,埼玉県桶川市坂田西1-7-1,1,1,,1,,1,1,,1,36.0099873,139.5736276,
595,E1123100010201,坂田コミュニティセンター,埼玉県桶川市坂田東2-3-1,1,1,,1,,1,1,,1,36.0124832281081,139.574622471555,
596,E1123100011201,日出谷小学校,埼玉県桶川市上日出谷885,1,1,,1,,1,1,,1,36.00771243,139.5408881,
597,E1123100012201,桶川小学校,埼玉県桶川市西1-4-27,1,1,,1,,1,1,,1,36.00391613,139.5602986,
598,E1123100013201,桶川西高等学校,埼玉県桶川市川田谷1531-2,,1,,1,,1,,,1,35.98432473,139.5315878,
599,E1123100014201,城山公園,埼玉県桶川市川田谷2839-11,,1,,1,,1,,,,35.99142861,139.5253391,
600,E1123100015201,桶川西中学校,埼玉県桶川市川田谷3680-1,,1,,1,,1,,,1,36.00164932,139.5348524,
601,E1123100016201,川田谷小学校,埼玉県桶川市川田谷4213,1,1,,1,,1,1,,1,35.99832803,139.5294385,
602,E1123100017201,川田谷生涯学習センター,埼玉県桶川市川田谷4405-4,1,1,,1,,1,1,,1,35.99391332,139.526746,
603,E1123100018201,農業センター,埼玉県桶川市川田谷4414,1,1,,1,,1,1,,1,35.99357039,139.5270613,
604,E1123100019201,桶川中学校,埼玉県桶川市泉1-5-10,1,1,,1,,1,1,,1,36.00062857,139.5591398,
605,E1123100020201,朝日小学校,埼玉県桶川市朝日2-18-1,1,1,,1,,1,1,,1,35.98948929,139.570477,
606,E1123100021201,老人福祉センター,埼玉県桶川市末広2-8-29,1,1,,1,,1,1,,1,36.00608818,139.5714827,
607,E1123100022201,桶川東中学校,埼玉県桶川市末広3-19-28,1,1,,1,,1,1,,1,36.00923842,139.5711431,
608,E1121000001201,ファミリーグラウンド,埼玉県加須市阿佐間769,,,,1,,1,,1,,36.13163923,139.6550111,
609,E1121000005201,加須市立加須南小学校（運動用地）,埼玉県加須市下高柳1991,,,,1,,1,,1,1,36.11468431,139.6027058,
610,E1121000006201,加須市立樋遣川小学校（運動用地）,埼玉県加須市下樋遣川427,,,,1,,1,,1,1,36.15446889,139.6186738,
611,E1121000007201,加須市立加須東中学校（運動用地）,埼玉県加須市花崎1-22-1,,,,,,1,,1,1,36.10716506,139.6316881,
612,E1121000008201,花崎北公園,埼玉県加須市花崎北2-1,,,,1,,1,,1,,36.11254878,139.6358674,
613,E1121000009201,加須市立花崎北小学校（運動用地）,埼玉県加須市花崎北3-1,,,,1,,1,,1,1,36.11392315,139.6306096,
614,E1121000010201,騎西総合公園,埼玉県加須市外川355,,,,1,,1,,1,1,36.10852237,139.5788027,
615,E1121000011201,騎西城山公園,埼玉県加須市外川457-1,,,,1,,1,,1,,36.104008,139.5826203,
616,E1121000013201,加須市立大利根東小学校（運動用地）,埼玉県加須市旗井807,,,,1,,1,,1,1,36.15248729,139.6862181,
617,E1121000014201,加須市立騎西中学校（運動用地）,埼玉県加須市騎西1001,,,,,,1,,1,1,36.10493338,139.5765032,
618,E1121000016201,加須市立騎西小学校（運動用地）,埼玉県加須市騎西52-3,,,,1,,1,,1,1,36.10307486,139.572129,
619,E1121000017201,玉敷公園,埼玉県加須市騎西535-1,,,,1,,1,,1,,36.10684802,139.5709051,
620,E1121000018201,騎西中央公園,埼玉県加須市騎西961,,,,1,,1,,1,,36.10697843,139.575379,
621,E1121000019201,久下公園,埼玉県加須市久下1-23,,,,1,,1,,1,,36.1185102,139.6097674,
622,E1121000023201,加須北部公園,埼玉県加須市古川2-6-1,,,,1,,1,,1,,36.14611109,139.6431215,
623,E1121000024201,加須市立北川辺東小学校（運動用地）,埼玉県加須市向古河54,,,,1,,1,,1,1,36.18610998,139.6887834,
624,E1121000025201,加須市立鴻茎小学校（運動用地）,埼玉県加須市鴻茎1596-2,,,,1,,1,,1,1,36.08604665,139.594568,
625,E1121000029201,藤ノ木公園,埼玉県加須市鴻茎3208-1,,,,1,,1,,1,,36.09008408,139.5825475,
626,E1121000030201,加須市立原道小学校（運動用地）,埼玉県加須市細間699,,,,1,,1,,1,1,36.15831498,139.6509603,
627,E1121000031201,加須市立志多見小学校（運動用地）,埼玉県加須市志多見633,,,,1,,1,,1,1,36.13168383,139.5491421,
628,E1121000033201,加須市立高柳小学校（運動用地）,埼玉県加須市上高柳889,,,,1,,1,,1,1,36.11409786,139.5822895,
629,E1121000034201,田ケ谷サン・スポーツランド,埼玉県加須市上崎1850-1,,,,1,,1,,1,,36.10985722,139.5467775,
630,E1121000039201,種足ふれあいの森,埼玉県加須市上種足937-1,,,,1,,1,,1,,36.0865904,139.5593669,
631,E1121000040201,加須市立加須北中学校（運動用地）,埼玉県加須市上樋遣川4128,,,,,,1,,1,1,36.16365146,139.6283289,
632,E1121000044201,大利根西部公園,埼玉県加須市新利根1-4-1,,,,1,,1,,1,,36.16739534,139.6375094,
633,E1121000045201,加須はなさき公園,埼玉県加須市水深1722,,,,1,,1,,1,,36.10210353,139.6339654,
634,E1121000048201,古宮公園,埼玉県加須市正能4,,,,1,,1,,1,,36.11184755,139.5678276,
635,E1121000049201,加須市立豊野小学校（運動用地）,埼玉県加須市生出313-1,,,,1,,1,,1,1,36.1335799,139.6521432,
636,E1121000050201,けやき公園,埼玉県加須市西ノ谷800,,,,1,,1,,1,,36.09589882,139.5783213,
637,E1121000054201,加須市立大越小学校（運動用地）,埼玉県加須市大越2115,,,,1,,1,,1,1,36.17938651,139.6215806,
638,E1121000056201,加須市立水深小学校（運動用地）,埼玉県加須市大室165,,,,1,,1,,1,1,36.10075399,139.6208514,
639,E1121000060201,加須市立種足小学校（運動用地）,埼玉県加須市中種足123,,,,1,,1,,1,1,36.08448925,139.5678107,
640,E1121000061201,ふるさと広場,埼玉県加須市中種足1230-1,,,,1,,1,,1,,36.08461952,139.5656338,
641,E1121000062201,加須市立田ヶ谷小学校（運動用地）,埼玉県加須市内田ケ谷447-3,,,,1,,1,,1,1,36.11534641,139.5515877,
642,E1121000063201,加須市立加須平成中学校（運動用地）,埼玉県加須市南大桑1860,,,,1,,1,,1,1,36.11109405,139.6477686,
643,E1121000064201,加須市立大桑小学校（運動用地）,埼玉県加須市南大桑3388-1,,,,1,,1,,1,1,36.11662267,139.6415702,
644,E1121000065201,加須市立加須西中学校（運動用地）,埼玉県加須市馬内1,,,,,,1,,1,1,36.13652034,139.572318,
645,E1121000067201,加須市立北川辺西小学校（運動用地）,埼玉県加須市麦倉1189,,,,1,,1,,1,1,36.19436714,139.6513864,
646,E1121000071201,加須市立北川辺中学校（運動用地）,埼玉県加須市麦倉3705,,,,1,,1,,1,1,36.18871893,139.6637399,
647,E1121000073201,埼玉県立不動岡高等学校（運動用地）,埼玉県加須市不動岡1-7-45,,,,1,,1,,1,1,36.13327869,139.5911393,
648,E1121000075201,加須市立不動岡小学校（運動用地）,埼玉県加須市不動岡798,,,,1,,1,,1,1,36.13714924,139.5869518,
649,E1121000077201,豊野台公園,埼玉県加須市豊野台2-725-3,,,,1,,1,,1,,36.12106685,139.6674856,
650,E1121000078201,加須市立大利根中学校（運動用地）,埼玉県加須市北下新井1705-1,,,,,,1,,1,1,36.13874959,139.6642763,
651,E1121000079201,加須市立元和小学校（運動用地）,埼玉県加須市北下新井521-1,,,,1,,1,,1,1,36.14114151,139.6704447,
652,E1121000080201,大利根運動公園,埼玉県加須市北下新井684-1,,,,,,1,,1,,36.13673314,139.6669366,
653,E1121000081201,埼玉県水産研究所,埼玉県加須市北小浜1060-1,,,,1,,1,,1,,36.13225289,139.6099328,
654,E1121000082201,加須市立昭和中学校（運動用地）,埼玉県加須市北小浜70,,,,,,1,,1,1,36.12502525,139.6154993,
655,E1121000086201,加須市立三俣小学校（運動用地）,埼玉県加須市北小浜850,,,,1,,1,,1,1,36.13234899,139.6138247,
656,E1121000087201,加須市立加須小学校（運動用地）,埼玉県加須市本町4-25,,,,1,,1,,1,1,36.12383606,139.6045079,
657,E1121000090201,加須市立礼羽小学校（運動用地）,埼玉県加須市礼羽560,,,,1,,1,,1,1,36.12924173,139.5827557,
658,E1136200003201,皆野小学校,埼玉県皆野町大字皆野1346,1,1,,1,,1,1,1,1,36.0742928,139.0983115,
659,E1136200004201,柔剣道場,埼玉県皆野町大字皆野2125,1,1,,1,,1,1,1,1,36.07408457,139.0975645,
660,E1136200011201,三沢小学校,埼玉県皆野町大字三沢1606,1,1,,1,,1,1,1,1,36.05620168,139.1305737,
661,E1136200012201,老人福祉センター（長生荘）,埼玉県皆野町大字大渕103-1,1,1,,1,,1,1,1,1,36.0752756,139.0897165,
662,E1136200015201,国神小学校,埼玉県皆野町大字大渕70-1,1,1,,1,,1,1,1,1,36.07541904,139.0882446,
663,E1134100001201,みなみ野集会所,埼玉県滑川町みなみ野3-10-13,1,1,,1,,1,1,,,36.04314809,139.3759097,
664,E1134100004201,月輪六軒集会所,埼玉県滑川町月の輪5-20-3,1,1,,1,,1,1,,,36.04290758,139.335025,
665,E1134100005201,月の輪小学校体育館,埼玉県滑川町月の輪6-15-3,1,1,,1,,1,1,,1,36.04492814,139.3399944,
666,E1134100006201,伊古集会所,埼玉県滑川町大字伊古509,1,1,,1,,1,1,,,36.0752958,139.3426916,
667,E1134100007201,羽尾倉林集会所,埼玉県滑川町大字羽尾1355-1,1,1,,1,,1,1,,,36.05617023,139.3703676,
668,E1134100008201,月輪中央集会所,埼玉県滑川町大字月輪418-1,1,1,,1,,1,1,,,36.048369,139.3530277,
669,E1120200192201,国営武蔵丘陵森林公園（西入口駐車場）,埼玉県滑川町大字山田1920,1,,,,,,,,,36.091323,139.361755,
670,E1134100009201,上山田集会所,埼玉県滑川町大字山田779,1,1,,1,,1,1,,,36.08632002,139.3742209,
671,E1134100010201,宮前小学校体育館,埼玉県滑川町大字中尾1535-1,1,1,,1,,1,1,,1,36.06022698,139.354376,
672,E1134100011201,都集会所,埼玉県滑川町大字都168-4,1,1,,1,,1,1,,,36.04290446,139.3699708,
673,E1134100013201,土塩中下集会所,埼玉県滑川町大字土塩709-4,1,1,,1,,1,1,,,36.09746935,139.3675829,
674,E1134100014201,福田小学校体育館,埼玉県滑川町大字福田1660-1,1,1,,1,,1,1,,1,36.0822052,139.3560226,
675,E1134100016201,滑川町役場（総合運動公園）,埼玉県滑川町大字福田750-1,1,1,,1,,1,1,,,36.06705593,139.3609147,
676,E1134100017201,和泉集会所,埼玉県滑川町大字和泉844-1,1,1,,1,,1,1,,,36.08308553,139.3303787,
677,E1140800023201,寄居町南口駅前拠点（Ｙｏｔｔｅｃｏ・ＹＯＲＩＢＡ）,埼玉県寄居町大字寄居1231-11,1,,,1,,,1,,,36.117025,139.195005,
678,E1140800003201,寄居小学校,埼玉県寄居町大字寄居206,1,1,,1,,,,,1,36.1160963,139.1871315,
679,E1140800004201,寄居中学校,埼玉県寄居町大字桜沢2000,1,1,,1,,,,,1,36.12795336,139.2080123,
680,E1140800006201,桜沢小学校,埼玉県寄居町大字桜沢2740,1,1,,1,,,,,1,36.13069702,139.2061601,
681,E1140800010201,城南中学校,埼玉県寄居町大字鉢形2222,1,1,,1,,,,,1,36.10510975,139.2044101,
682,E1140800011201,鉢形小学校,埼玉県寄居町大字鉢形645,1,1,,1,,,,,1,36.11087186,139.2049163,
683,E1140800012201,男衾小学校,埼玉県寄居町大字富田53,1,1,,1,,,,,1,36.108488,139.2523532,
684,E1140800013201,男衾中学校,埼玉県寄居町大字富田65,1,1,,1,,,,,1,36.10856894,139.250664,
685,E1140800014201,生涯学舎,埼玉県寄居町大字風布212,1,1,,1,,,,,1,36.10425911,139.1506244,
686,E1140800018201,末野公園,埼玉県寄居町大字末野971,1,1,,1,,,,,,36.11967239,139.1666095,
687,E1140800020201,用土小学校,埼玉県寄居町大字用土2859,1,1,,1,,,,,1,36.15502172,139.2063413,
688,E1140800022201,折原小学校,埼玉県寄居町大字立原385,1,1,,1,,,,,1,36.1031262,139.1880312,
689,E1134700045201,吉見中学校,埼玉県吉見町大字下細谷1,1,,,1,,,,,1,36.04685788,139.4488088,
690,E1134700046201,勤労福祉センター,埼玉県吉見町大字下細谷1210,,,,1,,,,,,36.04427292,139.4536962,
691,E1134700002202,保健センター,埼玉県吉見町大字下細谷1212,,,,1,,,,,1,36.04436786,139.4540087,
692,E1134700003201,悠友館,埼玉県吉見町大字下細谷1213,,,,1,,,,,1,36.04446699,139.4544934,
693,E1134700004201,吉見町福祉会館,埼玉県吉見町大字下細谷1216-1,,,,1,,,,,1,36.04444914,139.4549093,
694,E1134700047201,吉見町役場,埼玉県吉見町大字下細谷411,1,,,1,,,,,,36.03985225,139.4538796,
695,E1134700007201,東公民館,埼玉県吉見町大字蚊斗谷132,,,,1,,,,,,36.03299766,139.4839888,
696,E1134700008201,道の駅いちごの里よしみ,埼玉県吉見町大字久保田1737,,,,1,,,,,,36.03677613,139.457466,
697,E1134700009201,吉見ヶ丘公園,埼玉県吉見町大字久保田1887-27,,,,1,,,,,,36.03643661,139.4556217,
698,E1134700010201,南小学校,埼玉県吉見町大字久保田942-2,1,,,1,,,,,1,36.02738218,139.4476614,
699,E1134700011201,御所団地公園,埼玉県吉見町大字御所246-1,,,,1,,,,,,36.0510067968,139.44203905001,
700,E1134700012201,東第二小学校,埼玉県吉見町大字江和井1555,1,,,1,,,,,1,36.02626202,139.4951946,
701,E1134700013201,フレンドシップハイツよしみ,埼玉県吉見町大字黒岩602,1,,,1,,,,,,36.056727,139.4414412,
702,E1134700014201,ふれあい広場,埼玉県吉見町大字小新井142,,,,1,,,,,,36.0540328,139.4538206,
703,E1134700015201,永府公園,埼玉県吉見町大字西吉見604-1,,,,1,,,,,,36.02465472,139.4346307,
704,E1134700001202,荒川荘,埼玉県吉見町大字大串2843,,,,1,,,,,1,36.01938792,139.4877993,
705,E1134700017201,北小学校,埼玉県吉見町大字地頭方441,1,,,1,,,,,1,36.06387442,139.4580123,
706,E1134700006202,よしみけやき保育所,埼玉県吉見町大字中新井467,,,,1,,,,,1,36.05198975,139.4528572,
707,E1134700019201,町民体育館,埼玉県吉見町大字中新井493-1,,,,1,,,,,1,36.05091183,139.4536777,
708,E1134700020201,Ｂ＆Ｇ海洋センター体育館,埼玉県吉見町大字中新井497,,,,1,,,,,,36.05139582,139.4535433,
709,E1134700021201,吉見町民会館（フレサよしみ）,埼玉県吉見町大字中新井508,,,,1,,,,,,36.05197351,139.4549676,
710,E1134700022201,憩いの森公園,埼玉県吉見町大字長谷1839,,,,1,,,,,,36.05214565,139.4253309,
711,E1134700023201,八幡公園,埼玉県吉見町大字長谷1931,,,,1,,,,,,36.06132372,139.4227578,
712,E1134700024201,越中公園,埼玉県吉見町大字長谷1953,,,,1,,,,,,36.0561865,139.4221654,
713,E1134700025201,大沼下公園,埼玉県吉見町大字長谷509-7,,,,1,,,,,,36.06039033,139.4304764,
714,E1134700026201,六の谷公園,埼玉県吉見町大字長谷726,,,,1,,,,,,36.05779388,139.4326222,
715,E1134700027201,前山公園,埼玉県吉見町大字田甲1235,,,,1,,,,,,36.06532772,139.4350847,
716,E1134700005201,西が丘小学校,埼玉県吉見町大字南吉見2074-3,1,,,1,,,,,1,36.03883236,139.4319054,
717,E1134700029201,天王山自然公園,埼玉県吉見町大字北吉見1670,,,,1,,,,,,36.05091315,139.4262958,
718,E1134700030201,西部ふれあいセンター,埼玉県吉見町大字北吉見1717-1,1,1,,1,,,,,1,36.0497886,139.4251503,
719,E1134700031201,西公民館,埼玉県吉見町大字北吉見2823,1,1,,,,,,,1,36.04596617,139.4359999,
720,E1134700032201,埋蔵文化財センター,埼玉県吉見町大字北吉見321,1,,,1,,,,,,36.03902032,139.4213501,
721,E1134700033201,南吉見公園,埼玉県吉見町大字北吉見3933-1,,,,1,,,,,,36.047205741465,139.42922832121,
722,E1134700034201,さくら台公園,埼玉県吉見町大字北吉見3940-23,,,,1,,,,,,36.051130540031,139.42151292433,
723,E1134700035201,西小学校,埼玉県吉見町大字和名50,1,1,,1,,,,,1,36.05080166,139.4362484,
724,E1134700036201,東部街区第１公園,埼玉県吉見町東野2-11,,,,1,,,,,,36.04061377,139.4675425,
725,E1134700037201,東部街区第２公園,埼玉県吉見町東野3-12,,,,1,,,,,,36.03967171,139.4708072,
726,E1134700038201,東部街区第６公園,埼玉県吉見町東野4-12,,,,1,,,,,,36.03563371,139.4692337,
727,E1134700039201,東野ふれあいセンター,埼玉県吉見町東野5-15-7,,,,1,,,,,,36.03776281,139.4720305,
728,E1134700040201,東第一小学校,埼玉県吉見町東野5-20-1,1,,,1,,,,,1,36.03767957,139.4713008,
729,E1134700041201,東部街区第５公園,埼玉県吉見町東野5-21,,,,1,,,,,,36.03676462,139.4706344,
730,E1134700042201,東部街区第７公園（柿の木台公園）,埼玉県吉見町東野5-30,,,,1,,,,,,36.0358338,139.4716444,
731,E1134700043201,東部街区第３公園（成城台公園）,埼玉県吉見町東野5-4-1,,,,1,,,,,,36.03858626,139.4711542,
732,E1134700044201,東部街区第４公園,埼玉県吉見町東野6-4,,,,1,,,,,,36.03873123,139.4749685,
733,E1124300001201,吉川市民交流センターおあしす,埼玉県吉川市きよみ野1-1,1,,,1,,1,1,,1,35.895639622801,139.8545487696,
734,E1124300002201,吉川市旭地区センター,埼玉県吉川市旭6-4,1,,,1,,1,1,,1,35.931119777009,139.84157448549,
735,E1124300003201,吉川市立三輪野江小学校,埼玉県吉川市加藤641,1,,,1,,1,1,,,35.88593436627,139.8829564418,
736,E1124300004201,吉川市立関小学校,埼玉県吉川市吉川団地1-10,1,,,1,,1,1,,1,35.893154516112,139.84545336058,
737,E1124300005201,埼玉県立吉川美南高等学校,埼玉県吉川市高久600,1,,,1,,1,1,,1,35.8740209991,139.86514,
738,E1124300006201,吉川市立北谷小学校,埼玉県吉川市高富857,1,,,1,,1,1,,1,35.876048,139.858057,
739,E1124300007201,吉川市総合体育館,埼玉県吉川市上笹塚1-58-1,1,,,1,,1,1,,1,35.903606,139.858292,
740,E1124300008201,吉川市立東中学校,埼玉県吉川市上笹塚3-104-1,1,,,1,,1,1,,1,35.904183,139.864861,
741,E1124300009201,吉川市立中央中学校,埼玉県吉川市中央2-21-1,1,,,1,,1,1,,1,35.890269,139.851918,
742,E1124300010201,吉川市立栄小学校,埼玉県吉川市中央3-26-1,1,,,1,,1,1,,1,35.891546,139.856612,
743,E1124300011201,吉川市老人福祉センター,埼玉県吉川市中央3-50-4,,,,1,,1,,,1,35.892147,139.858907,
744,E1124300012201,吉川市立中曽根小学校,埼玉県吉川市中曽根2-4,1,,,1,,1,1,,1,35.866877057741,139.84679730056,
745,E1124300013201,吉川市立旭小学校,埼玉県吉川市南広島1940,1,,,1,,1,1,,1,35.918097223732,139.85154712714,
746,E1124300014201,吉川市立美南小学校　（吉川市美南地区公民館含む）,埼玉県吉川市美南4-17-3,1,,,1,,1,1,,1,35.863713937838,139.85155043434,
747,E1124300015201,吉川中学校,埼玉県吉川市美南5-17-1,1,,,1,,1,1,,1,35.868980819198,139.8490348058,
748,E1124300016201,吉川市児童館ワンダーランド,埼玉県吉川市美南5-3-1,1,,,1,,1,1,,1,35.868648163912,139.84746831934,
749,E1124300017201,吉川市立吉川小学校　（吉川市平沼地区公民館含む）,埼玉県吉川市平沼73,1,,,1,,1,1,,1,35.884241648954,139.83910876743,
750,E1124300018201,吉川市中央公民館,埼玉県吉川市保577,1,,,1,,1,1,,1,35.879454,139.851414,
751,E1124300019201,吉川市立南中学校,埼玉県吉川市保672,1,,,1,,1,1,,1,35.882631,139.852002,
752,E1123200001201,栗橋Ｂ＆Ｇ海洋センター,埼玉県久喜市伊坂1551-1,,,,1,,,,,1,36.129494,139.692423,
753,E1123200002201,栗橋文化会館（イリス）,埼玉県久喜市伊坂1557,,,,1,,,,,1,36.129001,139.693196,
754,E1123200003201,埼玉県立栗橋北彩高等学校,埼玉県久喜市伊坂南2-16,1,,,1,,,,,1,36.131845,139.687395,
755,E1123200117201,さいたま看護専門学校,埼玉県久喜市下清久500-11,1,,,1,,,,,1,36.076839,139.652359,
756,E1123200005201,久喜菖蒲公園,埼玉県久喜市河原井町70,,,,1,,,,,,36.054791,139.646208,
757,E1123200006201,久喜市立鷲宮小学校,埼玉県久喜市葛梅113,1,,,1,,,,,1,36.093821,139.657823,
758,E1123200007201,葛梅公園,埼玉県久喜市葛梅2-15-1,,,,1,,,,,,36.09174814,139.6537927,
759,E1123200008201,健康福祉センター（くりむ）,埼玉県久喜市間鎌255-1,,,,1,,,,,1,36.125569,139.696145,
760,E1123200009201,くりの木,埼玉県久喜市間鎌276-2,,,,1,,,,,1,36.12435657,139.6977113,
761,E1123200010201,久喜市立栗橋西中学校,埼玉県久喜市間鎌330-1,1,,,1,,,,,1,36.122402,139.695922,
762,E1123200011201,太田集会所,埼玉県久喜市吉羽1-37-14,1,,,1,,,,,1,36.06548872,139.6873542,
763,E1123200012201,児童センター,埼玉県久喜市吉羽1-40-14,1,,,1,,,,,1,36.06549171,139.6893101,
764,E1123200013201,久喜市立太田小学校,埼玉県久喜市吉羽2-16-10,1,,,1,,,,,1,36.06917251,139.6875212,
765,E1123200014201,久喜市立太東中学校,埼玉県久喜市吉羽2410,1,,,1,,,,,1,36.061326,139.701313,
766,E1123200015201,久喜地域子育て支援センター（ぽかぽか）,埼玉県久喜市吉羽692-1,,,,1,,,,,1,36.05904018,139.685887,
767,E1123200016201,久喜中央コミュニティセンター,埼玉県久喜市久喜中央4-7-7,1,,,1,,,,,1,36.06897416,139.6727866,
768,E1123200017201,久喜東コミュニティセンター,埼玉県久喜市久喜東1-27-20,1,,,1,,,,,1,36.06021762,139.6821421,
769,E1123200018201,東一公園,埼玉県久喜市久喜東1-957-6,,,,1,,,,,,36.062099,139.67979,
770,E1123200019201,向地児童公園,埼玉県久喜市久喜東3-31,,,,1,,,,,,36.06100001,139.6850842,
771,E1123200020201,久喜市立久喜東小学校,埼玉県久喜市久喜東4-25-20,1,,,1,,,,,1,36.05305407,139.6840817,
772,E1123200021201,久喜市立久喜北小学校,埼玉県久喜市久喜北2-30-1,1,,,1,,,,,1,36.07792913,139.6724498,
773,E1123200022201,埼玉県立久喜北陽高等学校,埼玉県久喜市久喜本837-1,1,,,1,,,,,1,36.07724594,139.663033,
774,E1123200023201,久喜市立栗橋東中学校,埼玉県久喜市栗橋1425,1,,,1,,,,,1,36.127707,139.702449,
775,E1123200025201,栗橋中央コミュニティセンター体育館,埼玉県久喜市栗橋中央2-7-1,,,,1,,,,,1,36.1385454580664,139.700886044105,
776,E1123200026201,久喜市立栗橋小学校,埼玉県久喜市栗橋東3-3-1,1,,,1,,,,,1,36.13476586,139.7013317,
777,E1123200027201,栗原記念会館,埼玉県久喜市栗原4-9-12,1,,,1,,,,,1,36.0694844426236,139.706303204548,
778,E1123200028201,総合運動公園,埼玉県久喜市江面1616,1,,,1,,,,,1,36.05532576,139.6604844,
779,E1123200029201,久喜市立久喜南中学校,埼玉県久喜市江面85,1,,,1,,,,,1,36.06570475,139.6621185,
780,E1123200031201,高柳やすらぎ公園,埼玉県久喜市高柳2513-1,,,,1,,,,,,36.11485736,139.6681286,
781,E1123200032201,久喜市立栗橋西小学校,埼玉県久喜市佐間266-1,1,,,1,,,,,1,36.11883077,139.6824015,
782,E1123200033201,久喜市立砂原小学校,埼玉県久喜市砂原1-4-1,1,,,1,,,,,1,36.095934,139.661944,
783,E1123200034201,桜田運動公園,埼玉県久喜市桜田2-7-1,,,,1,,,,,,36.09749797,139.6820301,
784,E1123200035201,久喜市立東鷲宮小学校,埼玉県久喜市桜田3-10-1,1,,,1,,,,,1,36.092322,139.684035,
785,E1123200036201,鷲宮東コミュニティセンター（さくら）,埼玉県久喜市桜田3-10-2,,,,1,,,,,1,36.092433,139.68508,
786,E1123200037201,けやき広場,埼玉県久喜市桜田3-12,,,,1,,,,,,36.08985491,139.6805503,
787,E1123200118201,桜田コミュニティセンター及び屋内型こどもの遊び場（あそびのにわ）,埼玉県久喜市桜田3-2-1,1,,,1,,,,,1,36.089809,139.681152,
788,E1123200038201,いちょうの木,埼玉県久喜市所久喜835-1,,,,1,,,,,1,36.07472405,139.6363846,
789,E1123200039201,コア　ヴィレッジ,埼玉県久喜市除堀1380,1,,,1,,,,,1,36.04605507,139.6454023,
790,E1123200040201,権現堂公園（１号公園）,埼玉県久喜市小右衛門50,,,,1,,,,,,36.1099523623739,139.724744256114,
791,E1123200041201,久喜市立栢間小学校,埼玉県久喜市菖蒲町下栢間2720,1,,,1,,,,,1,36.035966,139.57927,
792,E1123200043201,森下緑地グラウンド,埼玉県久喜市菖蒲町下栢間5495-1,,,,1,,,,,,36.04929,139.57474,
793,E1123200044201,森下コミュニティセンター,埼玉県久喜市菖蒲町下栢間5495-2,,,,1,,,,,1,36.049654,139.573948,
794,E1123200045201,彩嘉園,埼玉県久喜市菖蒲町三箇1235-1,,,,1,,,,,1,36.06177307,139.6168332,
795,E1123200046201,ふれあい広場,埼玉県久喜市菖蒲町三箇2834,,,,1,,,,,,36.06318283,139.6268618,
796,E1123200047201,菖蒲老人福祉センター,埼玉県久喜市菖蒲町三箇2904,,,,1,,,,,1,36.063739,139.625958,
797,E1123200048201,旧久喜市立菖蒲南中学校,埼玉県久喜市菖蒲町小林110,1,,,1,,,,,1,36.045465,139.582991,
798,E1123200049201,久喜市立小林小学校,埼玉県久喜市菖蒲町小林2197,1,,,1,,,,,1,36.05443304,139.5835228,
799,E1123200050201,しらさぎ公園,埼玉県久喜市菖蒲町菖蒲10,,,,1,,,,,,36.06007496,139.6063772,
800,E1123200051201,しょうぶ会館,埼玉県久喜市菖蒲町菖蒲1077-1,1,,,1,,,,,1,36.069749,139.597075,
801,E1123200052201,労働会館（あやめ会館）,埼玉県久喜市菖蒲町菖蒲193-1,1,,,1,,,,,1,36.065874,139.601943,
802,E1123200053201,久喜市立菖蒲東小学校,埼玉県久喜市菖蒲町菖蒲427,1,,,1,,,,,1,36.066102,139.608071,
803,E1123200054201,寺田緑地グラウンド,埼玉県久喜市菖蒲町菖蒲5013-42,,,,1,,,,,,36.0669111,139.6097615,
804,E1123200056201,久喜市立菖蒲小学校,埼玉県久喜市菖蒲町菖蒲625,1,,,1,,,,,1,36.069601,139.601266,
805,E1123200057201,菖蒲文化会館（アミーゴ）,埼玉県久喜市菖蒲町菖蒲85-1,1,,,1,,,,,1,36.061398,139.603161,
806,E1123200058201,菖蒲運動公園,埼玉県久喜市菖蒲町菖蒲880,,,,1,,,,,,36.07019597,139.5996547,
807,E1123200059201,鎮守の森公園,埼玉県久喜市菖蒲町上栢間3312-1,,,,1,,,,,,36.0405832,139.5747945,
808,E1123200061201,久喜市立菖蒲中学校,埼玉県久喜市菖蒲町上大崎860,1,,,1,,,,,1,36.057048,139.604183,
809,E1123200062201,あやめ公園,埼玉県久喜市菖蒲町新堀1695,,,,1,,,,,,36.06657394,139.5997673,
810,E1123200063201,久喜市立三箇小学校,埼玉県久喜市菖蒲町台852-1,1,,,1,,,,,1,36.055401,139.62191,
811,E1123200064201,埼玉県立久喜特別支援学校,埼玉県久喜市上清久1100,1,,,1,,,,,1,36.076379,139.648094,
812,E1123200065201,清久コミュニティセンター,埼玉県久喜市上清久1489-2,,,,1,,,,,1,36.0777476285576,139.636370005298,
813,E1123200066201,偕楽荘,埼玉県久喜市上清久930,1,,,1,,,,,1,36.07971807,139.6489135,
814,E1123200069201,久喜市立鷲宮西中学校,埼玉県久喜市上内1797,1,,,1,,,,,1,36.09028632,139.6569862,
815,E1123200070201,ゆう・あい,埼玉県久喜市上内327-6,,,,1,,,,,1,36.08418747,139.6678556,
816,E1123200071201,久喜市立上内小学校,埼玉県久喜市上内716,1,,,1,,,,,1,36.088655,139.66287,
817,E1123200072201,清久公園,埼玉県久喜市清久町9,,,,1,,,,,,36.06992444,139.6315294,
818,E1123200073201,けやきの木,埼玉県久喜市青毛1146-1,,,,1,,,,,1,36.07433697,139.6927745,
819,E1123200074201,花みずき会館,埼玉県久喜市青毛2-11-13,1,,,1,,,,,1,36.0759764782706,139.70263826617,
820,E1123200075201,ふれあいセンター久喜,埼玉県久喜市青毛753-1,1,,,1,,,,,1,36.072261,139.693266,
821,E1123200076201,久喜市立青毛小学校,埼玉県久喜市青毛800,1,,,1,,,,,1,36.073296,139.69548,
822,E1123200077201,青葉コミュニティセンター,埼玉県久喜市青葉1-2-1,1,,,1,,,,,1,36.070095,139.695891,
823,E1123200078201,久喜市立青葉小学校,埼玉県久喜市青葉1-3-1,1,,,1,,,,,1,36.06688447,139.6956104,
824,E1123200079201,青葉公園,埼玉県久喜市青葉3-1,,,,1,,,,,,36.07134517,139.6960257,
825,E1123200080201,久喜市立久喜東中学校,埼玉県久喜市青葉3-4-1,1,,,1,,,,,1,36.071574,139.697868,
826,E1123200081201,青葉４丁目公園,埼玉県久喜市青葉4-11,,,,1,,,,,,36.0709062,139.7003281,
827,E1123200082201,青葉５丁目公園,埼玉県久喜市青葉5-8,,,,1,,,,,,36.06658,139.69748,
828,E1123200083201,埼玉県立鷲宮高等学校,埼玉県久喜市中妻1020,1,,,1,,,,,1,36.090236,139.647105,
829,E1123200084201,鷲宮西コミュニティセンター（おおとり）,埼玉県久喜市中妻785-2,1,,,1,,,,,1,36.08866551,139.6522398,
830,E1123200086201,栗橋地域子育て支援センター（くぷる）,埼玉県久喜市中里1048-1,,,,1,,,,,1,36.105336,139.713976,
831,E1123200086202,栗橋コミュニティセンター（くぷる）,埼玉県久喜市中里1048-1,,,,1,,,,,1,36.105427,139.714146,
832,E1123200088201,あゆみの郷,埼玉県久喜市東大輪2273-1,,,,1,,,,,1,36.10080375,139.6704962,
833,E1123200089201,久喜市立桜田小学校,埼玉県久喜市東大輪311,1,,,1,,,,,1,36.090766,139.688007,
834,E1123200092201,大堀公園,埼玉県久喜市南栗橋1-4-2,,,,1,,,,,,36.11365215,139.7153301,
835,E1123200090201,内沼公園,埼玉県久喜市南栗橋11-9-1,,,,1,,,,,,36.10835364,139.7031263,
836,E1123200091201,南栗橋近隣公園,埼玉県久喜市南栗橋12-1-3,,,,1,,,,,,36.1090266725932,139.706092394097,
837,E1123200093201,丁張公園,埼玉県久喜市南栗橋2-4,,,,1,,,,,,36.11668991,139.7116027,
838,E1123200094201,魚越公園,埼玉県久喜市南栗橋3-8,,,,1,,,,,,36.11461055,139.7081413,
839,E1123200095201,久喜市立栗橋南小学校,埼玉県久喜市南栗橋4-21-1,1,,,1,,,,,1,36.11377484,139.709629,
840,E1123200096201,蓮沼公園,埼玉県久喜市南栗橋5-10,,,,1,,,,,,36.10883359,139.7136423,
841,E1123200097201,狐塚公園,埼玉県久喜市南栗橋7-11,,,,1,,,,,,36.10652212,139.7106366,
842,E1123200098201,大沼公園,埼玉県久喜市南栗橋8-4-1,,,,1,,,,,,36.10919442,139.7088984,
843,E1123200099201,花と香りの公園,埼玉県久喜市八甫4-106-1,,,,1,,,,,,36.09929245,139.6889966,
844,E1123200100201,久喜市立鷲宮東中学校,埼玉県久喜市八甫4-46,1,,,1,,,,,1,36.10141765,139.6897411,
845,E1123200101201,のぞみ園,埼玉県久喜市北青柳1331,,,,1,,,,,1,36.05130132,139.6632247,
846,E1123200104201,久喜市立江面小学校,埼玉県久喜市北青柳40-1,1,,,1,,,,,1,36.05611357,139.6669379,
847,E1123200105201,久喜市立久喜小学校,埼玉県久喜市本町2-5-1,1,,,1,,,,,1,36.067574,139.669565,
848,E1123200106201,埼玉県立久喜高等学校,埼玉県久喜市本町3-12-1,1,,,1,,,,,1,36.066436,139.668065,
849,E1123200107201,久喜市立久喜中学校,埼玉県久喜市本町4-1-1,1,,,1,,,,,1,36.068297,139.665121,
850,E1123200108201,久喜市立本町小学校,埼玉県久喜市本町7-6-1,1,,,1,,,,,1,36.07524,139.668398,
851,E1123200109201,埼玉県立久喜工業高等学校,埼玉県久喜市野久喜474,1,,,1,,,,,1,36.071852,139.685814,
852,E1123200110201,久喜けいわ,埼玉県久喜市六万部1435,,,,1,,,,,1,36.07682096,139.643189,
853,E1123200111201,久喜市立清久小学校,埼玉県久喜市六万部590,1,,,1,,,,,1,36.077295,139.638456,
854,E1123200112201,鷲宮地域子育て支援センター（すまいる）,埼玉県久喜市鷲宮2-6-19,,,,1,,,,,1,36.09876741,139.6611905,
855,E1123200114201,鷲宮温水プール（敷地）,埼玉県久喜市鷲宮6-4-1,,,,1,,,,,,36.10009733,139.6708619,
856,E1123200115201,久喜市立鷲宮中学校,埼玉県久喜市鷲宮782,1,,,1,,,,,1,36.095646,139.667928,
857,E1144200001201,日本工業大学,埼玉県宮代町学園台4-1,,,,1,,,,,1,36.0278002392355,139.714005980422,
858,E1144200002201,進修館,埼玉県宮代町笠原1-1-1,1,,,1,,,,,1,36.0228057476782,139.723470863853,
859,E1144200003201,スキップ広場,埼玉県宮代町笠原1-4,,,,1,,,,,,36.0220215369175,139.723432153453,
860,E1144200004201,百間中学校,埼玉県宮代町宮代3-7-38,1,,,1,,,,,1,36.0196765958102,139.727739260965,
861,E1144200005201,宮代台中央公園,埼玉県宮代町宮代台3-3,,,,1,,,,,,36.0425653243285,139.692287192447,
862,E1144200006201,宮東テニスコート,埼玉県宮代町字宮東863,,,,1,,,,,,36.0099034123145,139.747865913917,
863,E1144200007201,はらっパーク宮代,埼玉県宮代町字金原295,,,,1,,1,,,,36.0053662886712,139.715107426738,
864,E1144200008201,県立宮代特別支援学校,埼玉県宮代町字金原636-1,1,,,1,,,,,,36.0120077044378,139.712151405544,
865,E1144200009201,旧いきがい活動センター,埼玉県宮代町字山崎3,1,,,1,,,,,1,36.0118100237572,139.719491258208,
866,E1144200010201,百間小学校,埼玉県宮代町字西原261,1,,,1,,,,,1,36.009353761058,139.727736746832,
867,E1144200011201,川端公民館,埼玉県宮代町字川端578,1,,,1,,,,,1,36.0066409787732,139.743693693018,
868,E1144200012201,宮東グラウンド,埼玉県宮代町字川端731-1,,,,1,,,,,,36.0077857760586,139.747061251217,
869,E1144200013201,前原グラウンド,埼玉県宮代町字中455-1,,,,1,,,,,,36.0048647488565,139.722782232739,
870,E1144200014201,前原中学校,埼玉県宮代町字中461,1,,,1,,,,,1,36.0042281734247,139.721838883903,
871,E1144200015201,東グラウンド,埼玉県宮代町字東265-1,,,,1,,,,,,36.0002014655487,139.730786600982,
872,E1144200016201,県立宮代高等学校,埼玉県宮代町字東611,1,,,1,,,,,1,36.0051454659604,139.732310570862,
873,E1144200017201,笠原小学校,埼玉県宮代町字百間1105,,,,1,,,,,1,36.0191564934348,139.720823642833,
874,E1144200018201,須賀小学校,埼玉県宮代町大字須賀1425-1,1,,,1,,,,,1,36.0375318811583,139.701156585111,
875,E1144200019201,須賀中学校,埼玉県宮代町大字須賀1426-1,1,,,1,,,,,1,36.0381088953626,139.702109101892,
876,E1144200020201,東粂原グラウンド,埼玉県宮代町大字東粂原363-1,,,,1,,,,,,36.0326330919787,139.700878007247,
877,E1144200021201,総合運動公園　（総合体育館）,埼玉県宮代町大字和戸1834,1,,,1,,,,,1,36.053894835559,139.695994247043,
878,E1144200022201,姫宮北公園,埼玉県宮代町東姫宮1-4,,,,1,,,,,,36.0059371372509,139.736461161174,
879,E1144200023201,百間公民館,埼玉県宮代町百間5-1-29,1,,,1,,,,,1,36.0235096613027,139.73030561135,
880,E1144200024201,東小学校,埼玉県宮代町百間5-8-48,1,,,1,,,,,1,36.0230387511382,139.732284221981,
881,E1144200025201,和戸公民館,埼玉県宮代町和戸2-5-1,1,,,1,,,,,1,36.0425754334878,139.699150664464,
882,E1121500001201,狭山経済高等学校,埼玉県狭山市稲荷山2-6-1,1,1,,1,,1,1,,1,35.84170759,139.3948697,
883,E1121500002201,入間川小学校,埼玉県狭山市鵜ノ木5-9,,,,1,,1,,,1,35.85494195,139.3977635,
884,E1121500003201,入間川中学校,埼玉県狭山市鵜ノ木6-46,,,,1,,1,,,1,35.85383347,139.3947851,
885,E1121500007201,狭山元気プラザ,埼玉県狭山市狭山台1-21,1,1,,1,,1,1,,1,35.86211475,139.435431,
886,E1121500008201,狭山台中央公園,埼玉県狭山市狭山台3-28,,,,1,,1,,,,35.85537625,139.4336885,
887,E1121500009201,狭山台小学校,埼玉県狭山市狭山台4-25,1,1,,1,,1,1,,1,35.85222723,139.4341126,
888,E1121500010201,狭山台中学校,埼玉県狭山市狭山台4-26,1,1,,1,,1,1,,1,35.85286606,139.4354885,
889,E1121500011201,日生さやま台集会所,埼玉県狭山市広瀬台1-22-1,1,1,,,,,1,,,35.86758534,139.3948244,
890,E1121500012201,西中学校,埼玉県狭山市広瀬東3-23-1,,,,1,,1,,,1,35.86064823,139.3956041,
891,E1121500013201,広瀬公民館,埼玉県狭山市広瀬東3-34-1,,1,,,,,,,,35.86237288,139.3967151,
892,E1121500014201,狭山緑陽高等学校,埼玉県狭山市広瀬東4-3-1,1,1,,1,,1,1,,1,35.86441656,139.3976101,
893,E1121500015201,広瀬小学校,埼玉県狭山市広瀬東4-4-1,1,1,,1,,1,1,,1,35.86325424,139.3945927,
894,E1121500016201,水富公民館,埼玉県狭山市根岸2-17-13,,1,,,,,,,,35.85779911,139.3822882,
895,E1121500017201,水富小学校,埼玉県狭山市根岸2-22-1,1,1,,1,,1,1,,1,35.85846653,139.382374,
896,E1121500024201,新狭山公園,埼玉県狭山市新狭山1-4,,,,1,,1,,,,35.88369889,139.4414583,
897,E1121500025201,中原公園,埼玉県狭山市新狭山2-13-1,,,,1,,1,,,,35.87449299,139.4304982,
898,E1121500069201,新狭山公民館,埼玉県狭山市新狭山2-17-1,1,1,,1,,1,1,,1,35.873588,139.43033,
899,E1121500026201,三ツ木公園,埼玉県狭山市新狭山3-3,,,,1,,1,,,,35.87501091,139.4361733,
900,E1121500027201,奥富小学校,埼玉県狭山市大字下奥富1019,1,1,,1,,1,1,,1,35.87812085,139.4237595,
901,E1121500028201,サンパーク奥富,埼玉県狭山市大字下奥富2552-1,,1,,1,,1,,,1,35.87961909,139.4172822,
902,E1121500029201,老人福祉センター寿荘,埼玉県狭山市大字加佐志513-2,1,1,,1,,1,1,,1,35.86369069,139.4417829,
903,E1121500030201,笹井小学校,埼玉県狭山市大字笹井1700,1,1,,1,,1,1,,1,35.85337498,139.3710568,
904,E1121500020201,狭山清陵高等学校,埼玉県狭山市大字上奥富34,1,1,,1,,1,1,,1,35.873412,139.424726,
905,E1121500032201,狭山体育園,埼玉県狭山市大字水野632,,,,1,,1,,,,35.82418549,139.4298788,
906,E1121500033201,南小学校,埼玉県狭山市大字水野815-1,1,1,,1,,1,1,,1,35.8277048,139.4236051,
907,E1121500034201,水野公民館,埼玉県狭山市大字水野891-4,1,,,1,,,1,,,35.82280342,139.4246883,
908,E1121500035201,山王中学校,埼玉県狭山市大字南入曽157,1,1,,1,,1,1,,1,35.84414362,139.4406809,
909,E1121500036201,入曽地域交流センター,埼玉県狭山市大字南入曽428-3,1,1,,1,,1,1,,,35.832788,139.43152,
910,E1121500037201,山王小学校,埼玉県狭山市大字南入曽55,1,1,,1,,1,1,,1,35.84010999,139.437667,
911,E1121500038201,老人福祉センター不老荘,埼玉県狭山市大字南入曽737-1,,1,,1,,1,,,1,35.83382493,139.4177606,
912,E1121500039201,入曽第七区自治会館,埼玉県狭山市大字南入曽879-12,1,,,,,,1,,,35.83357878,139.4232878,
913,E1121500040201,入間野中学校,埼玉県狭山市大字北入曽1028-1,1,1,,1,,1,1,,1,35.83913852,139.4208739,
914,E1121500041201,御狩場小学校,埼玉県狭山市大字北入曽755-4,1,1,,1,,1,1,,1,35.84536794,139.4280306,
915,E1121500042201,入間野小学校,埼玉県狭山市大字北入曽980,1,1,,1,,1,1,,1,35.8402364,139.4223171,
916,E1121500043201,堀兼小学校,埼玉県狭山市大字堀兼1234,1,1,,1,,1,1,,1,35.86017447,139.445827,
917,E1121500044201,堀兼中学校,埼玉県狭山市大字堀兼1237,1,1,,1,,1,1,,1,35.86070299,139.4442274,
918,E1121500068201,堀兼・上赤坂公園,埼玉県狭山市大字堀兼2484-3,1,,,,,,1,,,35.845112,139.454468,
919,E1121500045201,富士見小学校,埼玉県狭山市中央4-17-1,1,1,,1,,1,1,,1,35.85093643,139.4247903,
920,E1121500050201,中央公民館,埼玉県狭山市入間川1-3-1,,1,,,,,,,,35.85689151,139.4122219,
921,E1121500049201,新狭山小学校,埼玉県狭山市入間川1108,1,1,,1,,1,1,,1,35.86548717,139.4319226,
922,E1121500051201,中央中学校,埼玉県狭山市入間川1752-1,1,1,,1,,1,1,,1,35.86091053,139.418679,
923,E1121500052201,入間川東小学校,埼玉県狭山市入間川2-7-23,1,1,,1,,1,1,,1,35.85991987,139.4139069,
924,E1121500053201,コミュニティセンター,埼玉県狭山市入間川4-16-4,1,1,,1,,,1,,1,35.8537593,139.4025578,
925,E1121500054201,武道館,埼玉県狭山市入間川4-18-21,1,1,,1,,1,1,,1,35.853783,139.402942,
926,E1121500056201,柏原小学校,埼玉県狭山市柏原1141,,,,1,,1,,,1,35.87809397,139.4060915,
927,E1121500057201,柏原公民館,埼玉県狭山市柏原1154,,1,,,,,,,,35.8774027,139.4054651,
928,E1121500059201,柏原中学校,埼玉県狭山市柏原2520-11,1,1,,1,,1,1,,1,35.87789152,139.4075183,
929,E1121500060201,市民総合体育館,埼玉県狭山市柏原555,1,,,,,,1,,,35.878747,139.392935,
930,E1121500061201,智光山公園,埼玉県狭山市柏原561,,,,1,,1,,,,35.87838102,139.3921527,
931,E1121500062201,老人福祉センター宝荘,埼玉県狭山市柏原612,1,1,,1,,1,1,,1,35.88505287,139.3962129,
932,E1121500066201,狭山工業高等学校,埼玉県狭山市富士見2-5-1,1,1,,1,,1,1,,1,35.8481179,139.4210211,
933,E1120200004201,荒川保育所,埼玉県熊谷市伊勢町300,1,,,,,,,,1,36.143754,139.375509,
934,E1120200005201,南運動場（伊勢町ふれあい公園）,埼玉県熊谷市伊勢町94,,,,1,,,,,,36.144235,139.372825,
935,E1120200006201,熊谷南小学校,埼玉県熊谷市榎町343,1,,,1,,,,,1,36.139279,139.379,
936,E1120200007201,塩集会所,埼玉県熊谷市塩142-1,1,,,,,,,,1,36.10294,139.318076,
937,E1120200008201,上押切集会所,埼玉県熊谷市押切1056-1,,,,1,,,,,1,36.134116,139.323799,
938,E1120200009201,江南総合グラウンド,埼玉県熊谷市押切2436,1,,,1,,,,,,36.119339,139.33821,
939,E1120200010201,パークシティ集会所,埼玉県熊谷市押切2653-95,1,,,1,,,,,1,36.111082,139.336587,
940,E1120200011201,下押切集会所,埼玉県熊谷市押切313-3,1,,,1,,,,,1,36.133541,139.340204,
941,E1120200012201,奈良小学校,埼玉県熊谷市下奈良561-3,1,,,1,,,,,1,36.186232,139.379359,
942,E1120200013201,荒川公園,埼玉県熊谷市河原町2-173,,,,1,,,,,,36.13669269,139.3849469,
943,E1120200014201,大幡公園,埼玉県熊谷市柿沼780-1,1,,,1,,,,,,36.166833,139.378239,
944,E1120200015201,秦小学校,埼玉県熊谷市葛和田831,1,,,1,,,,,1,36.205699,139.419797,
945,E1120200016201,老人憩の家　めぬま荘（秦公民館）,埼玉県熊谷市葛和田922-1,,,,1,,,,,1,36.202013,139.418721,
946,E1120200017201,久下第２公園,埼玉県熊谷市久下1-167,,,,1,,,,,,36.116999,139.427421,
947,E1120200018201,久下第１公園,埼玉県熊谷市久下1-42,,,,1,,,,,,36.114512,139.426197,
948,E1120200019201,久下第３公園,埼玉県熊谷市久下3-103,,,,1,,,,,,36.116288,139.430253,
949,E1120200020201,久下第４公園,埼玉県熊谷市久下4-171,,,,1,,,,,,36.119846,139.433912,
950,E1120200021201,久下小学校,埼玉県熊谷市久下808,1,,,1,,,,,1,36.121782,139.418362,
951,E1120200022201,玉井中学校,埼玉県熊谷市久保島888,1,,,1,,,,,1,36.168311,139.345527,
952,E1120200023201,荒川公民館,埼玉県熊谷市宮前町1-24-1,1,,,1,,,,,1,36.14169,139.382321,
953,E1120200024201,宮前公園,埼玉県熊谷市宮前町1-29,,,,1,,,,,,36.14154,139.382916,
954,E1120200025201,商工会館,埼玉県熊谷市宮町2-39,1,,,,,,,,1,36.146917,139.388125,
955,E1120200025202,中央公園,埼玉県熊谷市宮町2-39,,,,1,,,,,1,36.147617,139.390169,
956,E1120200027201,宮町公園,埼玉県熊谷市宮町2-68,,,,1,,,,,,36.14774993,139.3868975,
957,E1120200028201,玉井公園,埼玉県熊谷市玉井1973-314,,,,1,,,,,,36.178348,139.343713,
958,E1120200030201,玉井在家第２公園,埼玉県熊谷市玉井2-24,,,,1,,,,,,36.17869,139.337168,
959,E1120200029201,玉井保育所,埼玉県熊谷市玉井2105-1,1,,,,,,,,1,36.178655,139.345586,
960,E1120200031201,玉井在家第１公園,埼玉県熊谷市玉井3-69,,,,1,,,,,,36.180364,139.340499,
961,E1120200032201,玉井在家第３公園,埼玉県熊谷市玉井5-71,,,,1,,,,,,36.17757,139.33933,
962,E1120200033201,玉井稲荷木第２公園,埼玉県熊谷市玉井南2-88,,,,1,,,,,,36.176378,139.346871,
963,E1120200034201,玉井稲荷木第１公園,埼玉県熊谷市玉井南3-19,,,,1,,,,,,36.1741,139.345938,
964,E1120200035201,駅東第１公園,埼玉県熊谷市銀座2-137,,,,1,,,,,,36.138597,139.396425,
965,E1120200036201,東公園,埼玉県熊谷市銀座3-1,,,,1,,,,,,36.142719,139.395395,
966,E1120200037201,駅東第３公園,埼玉県熊谷市銀座7-154,,,,1,,,,,,36.136063,139.399593,
967,E1120200038201,熊谷荒川緑地,埼玉県熊谷市熊谷2553-2,,,,1,,1,,,,36.13496796,139.386679,
968,E1120200039201,荒川中学校,埼玉県熊谷市月見町2-174,1,,,1,,,,,1,36.144374,139.37059,
969,E1120200040201,見晴公園,埼玉県熊谷市見晴町460,,,,1,,,,,,36.14112,139.373021,
970,E1120200041201,スポーツ・文化村「くまぴあ」（創作展示棟を除く。）,埼玉県熊谷市原島315,1,,,1,,,,,1,36.170789,139.366724,
971,E1120200042201,大幡中学校,埼玉県熊谷市原島834-1,1,,,1,,,,,1,36.163515,139.374763,
972,E1120200043201,大坂集会所,埼玉県熊谷市御正新田1321-1,1,,,,,,,,1,36.116663,139.360932,
973,E1120200044201,御正新田生活改善センター,埼玉県熊谷市御正新田453-1,1,,,,,,,,1,36.123397,139.352882,
974,E1120200045201,吉見保育所,埼玉県熊谷市向谷373-1,,,,1,,,,,1,36.095872,139.41154,
975,E1120200046201,県立熊谷商業高等学校,埼玉県熊谷市広瀬800,1,,,1,,,,,1,36.148993,139.356154,
976,E1120200047201,江南中学校,埼玉県熊谷市江南中央2-1-1,1,,,1,,,,,1,36.115813,139.336725,
977,E1120200048201,江南体育館,埼玉県熊谷市江南中央2-3-1,1,,,,,,,,1,36.11527,139.336527,
978,E1120200049201,武道館,埼玉県熊谷市江波363,1,,,1,,,,,1,36.209643,139.388919,
979,E1120200050201,玉井小学校,埼玉県熊谷市高柳116-1,1,,,1,,,,,1,36.172931,139.344575,
980,E1120200051201,中条中学校,埼玉県熊谷市今井539-1,1,,,1,,,,,1,36.177286,139.404608,
981,E1120200052201,佐谷田小学校,埼玉県熊谷市佐谷田1030,1,,,1,,,,,1,36.134103,139.414398,
982,E1120200053201,佐谷田公園,埼玉県熊谷市佐谷田371-3,,,,1,,,,,,36.133659,139.409398,
983,E1120200054201,妻沼小学校,埼玉県熊谷市妻沼1492,1,,,1,,,,,1,36.229044,139.37799,
984,E1120200055201,妻沼勤労福祉会館,埼玉県熊谷市妻沼1706-1,1,,,1,,,,,1,36.222591,139.376677,
985,E1120200056201,妻沼消防署北広場,埼玉県熊谷市妻沼1720,,,,1,,,,,,36.22272475,139.3743514,
986,E1120200057201,さくら公園,埼玉県熊谷市妻沼1720-4,,,,1,,,,,,36.222322,139.375384,
987,E1120200058201,妻沼東中学校,埼玉県熊谷市妻沼430-1,1,,,1,,,,,1,36.223893,139.386935,
988,E1120200059201,小島小学校・中学校,埼玉県熊谷市妻沼小島2111,,,,1,,,,,1,36.250946,139.355168,
989,E1120200060201,旧男沼小学校,埼玉県熊谷市妻沼台137-1,1,,,1,,,,,1,36.235066,139.35314,
990,E1120200061201,妻沼中央公民館,埼玉県熊谷市妻沼東1-1,1,,,,,,,,1,36.223011,139.381738,
991,E1120200062201,桜木小学校,埼玉県熊谷市桜木町2-33-1,1,,,1,,,,,1,36.136393,139.387252,
992,E1120200063201,文化センター,埼玉県熊谷市桜木町2-33-2,1,,,1,,,,,1,36.137096,139.386725,
993,E1120200064201,市民体育館,埼玉県熊谷市桜木町2-33-5,1,,,,,,,,1,36.136405,139.386499,
994,E1120200065201,県立熊谷西高等学校,埼玉県熊谷市三ケ尻2066,1,,,1,,,,,1,36.164855,139.331893,
995,E1120200066201,三尻中学校,埼玉県熊谷市三ケ尻2743,1,,,1,,,,,1,36.161986,139.321742,
996,E1120200067201,三尻小学校,埼玉県熊谷市三ケ尻2862-1,1,,,1,,,,,1,36.158875,139.319523,
997,E1120200068201,江南北小学校,埼玉県熊谷市三本359,1,,,1,,,,,1,36.128141,139.33506,
998,E1120200069201,三本集会所,埼玉県熊谷市三本717,1,,,1,,,,,1,36.129729,139.330561,
999,E1120200070201,熊谷文化創造館「さくらめいと」,埼玉県熊谷市拾六間111-1,1,,,1,,,,,1,36.165896,139.327976,
1000,E1120200071201,外原公園,埼玉県熊谷市拾六間774-2,1,,,1,,,,,,36.171463,139.31216,
1001,E1120200072201,寿公園,埼玉県熊谷市拾六間788-29,1,,,1,,,,,,36.170646,139.30832,
1002,E1120200073201,曙町保育所,埼玉県熊谷市曙町3-63,1,,,,,,,,1,36.134209,139.394588,
1003,E1120200074201,曙公園,埼玉県熊谷市曙町4-8,,,,1,,,,,,36.135468,139.394888,
1004,E1120200075201,小江川集落センター,埼玉県熊谷市小江川1403,1,,,,,,,,1,36.100369,139.334426,
1005,E1120200076201,江南南小学校,埼玉県熊谷市小江川1881,1,1,,1,,,,,1,36.107227,139.334505,
1006,E1120200077201,江南農村センター,埼玉県熊谷市小江川1936-1,1,,,,,,,,1,36.104978,139.332601,
1007,E1120200078201,市田小学校,埼玉県熊谷市小泉243-1,1,,,1,,,,,1,36.110766,139.397649,
1008,E1120200079201,熊谷さくら運動公園,埼玉県熊谷市小島157-1,1,,,1,,1,,,,36.155791,139.345141,
1009,E1120200080201,県立熊谷工業高等学校,埼玉県熊谷市小島820,1,,,1,,,,,1,36.157085,139.354692,
1010,E1120200081201,春日文化センター,埼玉県熊谷市小八林103-7,,,,1,,,,,1,36.076825,139.426673,
1011,E1120200082201,上江袋集会所,埼玉県熊谷市上江袋519-2,,,,1,,,,,1,36.20208712,139.3551033,
1012,E1120200083201,長井小学校,埼玉県熊谷市上根358,1,,,1,,,,,1,36.20995,139.387411,
1013,E1120200084201,上新田集会所,埼玉県熊谷市上新田227,1,,,,,,,,1,36.131491,139.318195,
1014,E1120200085201,妻沼東運動公園,埼玉県熊谷市上須戸952-1,,,,1,,,,,,36.2063,139.399618,
1015,E1120200086201,熊谷スポーツ文化公園,埼玉県熊谷市上川上810,1,,,1,,1,,,,36.166396997117,139.40341038308,ラグビー場及び周辺広場が対象
1016,E1120200087201,中条小学校,埼玉県熊谷市上中条892-1,1,,,1,,,,,1,36.18088,139.403927,
1017,E1120200088201,奈良中学校,埼玉県熊谷市上奈良1038,1,,,1,,,,,1,36.182735,139.367308,
1018,E1120200089201,雀宮児童館,埼玉県熊谷市上之1305-1,,,,1,,,,,1,36.160474,139.396855,
1019,E1120200090201,雀宮第１公園,埼玉県熊谷市上之1306,,,,1,,,,,,36.160376,139.397561,
1020,E1120200091201,上之公園,埼玉県熊谷市上之1774-2,,,,1,,,,,,36.154082,139.39813,
1021,E1120200092201,成田星宮小学校,埼玉県熊谷市上之2810-1,1,,,1,,,,,1,36.154171,139.405862,
1022,E1120200093201,熊谷東中学校,埼玉県熊谷市上之3177,1,,,1,,,,,1,36.146311,139.414815,
1023,E1120200094201,籠原保育所,埼玉県熊谷市新堀1124,1,,,,,,,,1,36.174908,139.324675,
1024,E1120200095201,籠原小学校,埼玉県熊谷市新堀1143,1,,,1,,,,,1,36.173771,139.318255,
1025,E1120200096201,籠原第１公園,埼玉県熊谷市新堀1154-12,1,,,1,,,,,,36.174235,139.314867,
1026,E1120200097201,新堀小学校,埼玉県熊谷市新堀182,1,,,1,,,,,1,36.172967,139.338152,
1027,E1120200098201,新堀公民館,埼玉県熊谷市新堀202-1,,,,1,,,,,1,36.172937,139.337265,
1028,E1120200099201,マミーマート籠原店駐車場,埼玉県熊谷市新堀新田523,1,,,1,,,,,,36.172797,139.322196,
1029,E1120200100201,籠原公民館・西児童館,埼玉県熊谷市新堀新田576-1,1,,,,,,,,1,36.172447,139.31509,
1030,E1120200101201,須賀広集落センター,埼玉県熊谷市須賀広243-1,1,,,,,,,,1,36.105951,139.341971,
1031,E1120200102201,江南南児童クラブ,埼玉県熊谷市須賀広599-1,1,,,1,,,,,1,36.106855,139.335992,
1032,E1120200103201,広瀬川原公園,埼玉県熊谷市瀬南68,,,,1,,,,,,36.14552,139.355133,
1033,E1120200104201,江南コミュニティセンター,埼玉県熊谷市成沢1138-1,1,,,1,,,,,1,36.115285,139.352253,
1034,E1120200105201,成沢会議所,埼玉県熊谷市成沢348-1,1,,,,,,,,1,36.124304,139.344972,
1035,E1120200107201,別府沼公園,埼玉県熊谷市西別府1456,,,,1,,1,,,,36.194961,139.334431,
1036,E1120200108201,別府中学校,埼玉県熊谷市西別府1817,1,,,1,,,,,1,36.187548,139.334902,
1037,E1120200109202,別府公民館,埼玉県熊谷市西別府2252-1,1,,,1,,,,,1,36.193631,139.335328,
1038,E1120200110201,別府小学校,埼玉県熊谷市西別府29-1,1,,,1,,,,,1,36.193367,139.341483,
1039,E1120200111201,西野集会所,埼玉県熊谷市西野240-1,,,,1,,,,,1,36.202813,139.37295,
1040,E1120200114201,石原公園,埼玉県熊谷市石原1652-70,,,,1,,,,,,36.148203,139.371924,
1041,E1120200115201,石原小学校,埼玉県熊谷市石原3-1-1,1,,,1,,,,,1,36.152216,139.377254,
1042,E1120200116201,赤城公園,埼玉県熊谷市赤城町1-16,,,,1,,,,,,36.146476,139.35952,
1043,E1120200117201,松風公園,埼玉県熊谷市赤城町1-167,,,,1,,,,,,36.146907,139.364168,
1044,E1120200118201,堤公園,埼玉県熊谷市赤城町2-120,,,,1,,,,,,36.145921,139.367384,
1045,E1120200119201,江南保育所,埼玉県熊谷市千代323-1,1,,,1,,,,,1,36.11752695,139.3348672,
1046,E1120200120201,江南総合文化会館「ピピア」,埼玉県熊谷市千代325-1,1,,,1,,,,,1,36.117709,139.334148,
1047,E1120200121201,大境公園,埼玉県熊谷市船木台1-4,1,,,1,,,,,,36.074088,139.421172,
1048,E1120200122201,大林公園,埼玉県熊谷市船木台2-4,1,,,1,,,,,,36.076092,139.417028,
1049,E1120200123201,船木台中央公園,埼玉県熊谷市船木台3-4-1,1,,,1,,,,,,36.0775,139.418353,
1050,E1120200124201,大里ふれあいセンター,埼玉県熊谷市船木台3-4-4,1,1,,1,,,,,1,36.077479,139.417519,
1051,E1120200125201,楓山公園,埼玉県熊谷市船木台5-13-4,1,,,1,,,,,,36.07885128,139.4140983,
1052,E1120200126201,阿諏訪野公園,埼玉県熊谷市船木台5-3-1,1,,,1,,,,,,36.08086754,139.4165532,
1053,E1120200127201,善ヶ島集会所,埼玉県熊谷市善ケ島195-5,,,,1,,,,,1,36.215265,139.399851,
1054,E1120200128201,ショッピングモールビッグベア駐車場,埼玉県熊谷市代1183-2,1,,,1,,,,,,36.173994,139.368089,
1055,E1120200129201,大幡児童館,埼玉県熊谷市代597-4,1,,,1,,,,,1,36.170126,139.376382,
1056,E1120200130201,大幡小学校,埼玉県熊谷市代681,1,,,1,,,,,1,36.169569,139.373127,
1057,E1120200131201,県立熊谷高等学校,埼玉県熊谷市大原1-9-1,1,,,1,,,,,1,36.154099,139.379079,
1058,E1120200132201,県立熊谷農業高等学校,埼玉県熊谷市大原3-3-1,1,,,1,,,,,1,36.154608,139.377889,
1059,E1120200133201,大原中学校,埼玉県熊谷市大原3-4-1,1,,,1,,,,,1,36.153699,139.377274,
1060,E1120200134201,大麻生中学校,埼玉県熊谷市大麻生35-1,1,,,1,,,,,1,36.151016,139.340769,
1061,E1120200135201,大麻生小学校,埼玉県熊谷市大麻生51,1,,,1,,,,,1,36.149508,139.339668,
1062,E1120200136201,旧星宮小学校,埼玉県熊谷市池上733,1,,,1,,,,,1,36.157212,139.43147,
1063,E1120200137201,熊谷西小学校,埼玉県熊谷市中央1-1,1,,,1,,,,,1,36.152829,139.389415,
1064,E1120200138201,箱田第４公園,埼玉県熊谷市中央1-148,,,,1,,,,,,36.154626,139.391391,
1065,E1120200139201,箱田保育所,埼玉県熊谷市中央1-46,1,,,,,,,,1,36.153158,139.39122,
1066,E1120200140201,箱田第１公園,埼玉県熊谷市中央2-219,,,,1,,,,,,36.15379418,139.3944056,
1067,E1120200141201,富士見中学校,埼玉県熊谷市中央3-103,1,,,1,,,,,1,36.156278,139.39503,
1068,E1120200142201,箱田第２公園,埼玉県熊谷市中央3-169,,,,1,,,,,,36.155903,139.396648,
1069,E1120200143201,大里中学校,埼玉県熊谷市中曽根815-1,1,,,1,,,,,1,36.103035,139.405031,
1070,E1120200144201,農業活性化センター「アグリメイト」,埼玉県熊谷市中奈良897,1,,,1,,,,,1,36.190961,139.377175,
1071,E1120200145201,市民ホール,埼玉県熊谷市仲町19,1,,,,,,,,1,36.14755,139.382888,
1072,E1120200146201,八木橋パーク仲町,埼玉県熊谷市仲町34,1,,,1,,,,,,36.147402,139.383312,
1073,E1120200147201,大里生涯学習センター「あすねっと」,埼玉県熊谷市津田1-1,,,,1,,,,,1,36.1032,139.411071,
1074,E1120200148201,大里体育館,埼玉県熊谷市津田21,,,,1,,,,,1,36.102679,139.411221,
1075,E1120200149201,日向集会所,埼玉県熊谷市日向481,,,,1,,,,,1,36.19052,139.414259,
1076,E1120200150201,ウエルシア熊谷箱田二丁目店駐車場,埼玉県熊谷市箱田2-20-48,,,,1,,,,,,36.151873,139.386962,
1077,E1120200151201,旧太田小学校,埼玉県熊谷市八木田5,1,,,1,,,,,1,36.216038,139.352406,
1078,E1120200152201,江南総合公園,埼玉県熊谷市板井377-1,1,,,1,,1,,,,36.10803249,139.3087723,
1079,E1120200153201,江南農業研修センター,埼玉県熊谷市板井671,1,,,,,,,,1,36.108087,139.318894,
1080,E1120200154201,太田公民館,埼玉県熊谷市飯塚1410-1,,,,1,,,,,1,36.217201,139.351335,
1081,E1120200155201,妻沼運動公園,埼玉県熊谷市飯塚200-1,,,,1,,1,,,,36.224673,139.356982,
1082,E1120200156201,雀宮第５公園,埼玉県熊谷市肥塚550-1,,,,1,,,,,,36.162354,139.396861,
1083,E1120200157201,雀宮第３公園,埼玉県熊谷市肥塚591,,,,1,,,,,,36.162829,139.39448,
1084,E1120200158201,雀宮第４公園,埼玉県熊谷市肥塚702-1,,,,1,,,,,,36.161097,139.390972,
1085,E1120200159201,樋春集会所,埼玉県熊谷市樋春1023-1,1,,,,,,,,1,36.132626,139.349553,
1086,E1120200160201,樋春南集会所,埼玉県熊谷市樋春555,1,,,,,,,,1,36.128628,139.351705,
1087,E1120200161201,美土里町公園,埼玉県熊谷市美土里町1-20,1,,,1,,,,,,36.169832,139.313843,
1088,E1120200162201,平戸公園,埼玉県熊谷市平戸493,,,,1,,,,,,36.141529,139.409574,
1089,E1120200163201,吉岡中学校,埼玉県熊谷市平塚新田479-2,1,1,,1,,,,,1,36.113802,139.372336,
1090,E1120200164201,別府第１公園,埼玉県熊谷市別府2-83,1,,,1,,,,,,36.185776,139.332822,
1091,E1120200165201,別府第２公園,埼玉県熊谷市別府4-44,,,,1,,,,,,36.182728,139.339495,
1092,E1120200166201,別府第３公園,埼玉県熊谷市別府5-51,1,,,1,,,,,,36.180381,139.33538,
1093,E1120200167201,婦人児童館・石原児童館,埼玉県熊谷市本石1-10,1,,,,,,,,1,36.148632,139.379712,
1094,E1120200167203,本石公園,埼玉県熊谷市本石1-10,,,,1,,,,,1,36.14869,139.379375,
1095,E1120200168201,八木橋一番街立体駐車場,埼玉県熊谷市本石1-250-1,1,,,1,,,,,,36.147207,139.380897,
1096,E1120200169201,イオン熊谷店立体駐車場,埼玉県熊谷市本石2-135,1,,,1,,,,,,36.145561,139.378802,
1097,E1120200170201,県立熊谷女子高等学校,埼玉県熊谷市末広2-131,,,,1,,,,,1,36.144487,139.392161,
1098,E1120200171201,熊谷東小学校,埼玉県熊谷市末広3-4-1,1,,,1,,,,,1,36.145362,139.396855,
1099,E1120200173201,吉岡小学校,埼玉県熊谷市万吉2103,1,,,1,,,,,1,36.1202,139.370834,
1100,E1120200174201,万吉弥太郎公園,埼玉県熊谷市万吉2502-115,,,,1,,,,,,36.127776342793,139.37205047354,
1101,E1120200175201,万平公園,埼玉県熊谷市万平町1-1,,,,1,,,,,,36.135803,139.390809,
1102,E1120200176201,箕輪集会所,埼玉県熊谷市箕輪305-1,1,,,1,,,,,1,36.082152,139.412165,
1103,E1120200177201,吉見小学校,埼玉県熊谷市箕輪7,1,,,1,,,,,1,36.088193,139.412691,
1104,E1120200178201,熊谷流通センター内　中央緑地,埼玉県熊谷市問屋町3-1800-59,,,,1,,,,,,36.131346,139.426335,
1105,E1120200179201,野原集会所,埼玉県熊谷市野原622-1,1,,,,,,,,1,36.104052,139.364096,
1106,E1120200180201,野原西部集会所,埼玉県熊谷市野原66-3,,,,1,,,,,1,36.103661,139.352424,
1107,E1120200181201,妻沼西中学校,埼玉県熊谷市弥藤吾2359-2,1,,,1,,,,,1,36.22602,139.364229,
1108,E1120200182201,めぬま農業研修センター,埼玉県熊谷市弥藤吾2440,1,,,1,,,,,1,36.224297,139.368224,
1109,E1120200183201,県立妻沼高等学校,埼玉県熊谷市弥藤吾480,1,,,1,,,,,1,36.215979,139.382174,
1110,E1120200184201,妻沼児童館,埼玉県熊谷市弥藤吾692-1,,,,1,,,,,1,36.215569,139.373526,
1111,E1120200185201,妻沼西小学校,埼玉県熊谷市弥藤吾704,1,,,1,,,,,1,36.215557,139.371901,
1112,E1120200186202,新堀第４公園,埼玉県熊谷市籠原中央第一土地区画整理事業地内,1,,,1,,,,,,36.177214172791,139.3310938585,
1113,E1120200186201,新堀第５公園,埼玉県熊谷市籠原中央第一土地区画整理事業地内,1,,,1,,,,,,36.178886693693,139.3320995635,
1114,E1120200186203,新堀第３公園,埼玉県熊谷市籠原中央第一土地区画整理事業地内,1,,,1,,,,,,36.178015498351,139.33377609464,
1115,E1120200186204,新堀第２公園,埼玉県熊谷市籠原中央第一土地区画整理事業地内,1,,,1,,,,,,36.17596706842,139.3325701647,
1116,E1120200186205,新堀第１公園,埼玉県熊谷市籠原中央第一土地区画整理事業地内,1,,,1,,,,,,36.175051843111,139.33369115679,
1117,E1120200187201,籠原南第１公園,埼玉県熊谷市籠原南1-303,1,,,1,,,,,,36.172988,139.327567,
1118,E1120200188201,籠原南第２公園,埼玉県熊谷市籠原南1-56,1,,,1,,,,,,36.171801,139.330796,
1119,E1120200189201,籠原中央公園,埼玉県熊谷市籠原南2-102,1,,,1,,,,,,36.169015,139.328,
1120,E1120200190201,籠原南第３公園,埼玉県熊谷市籠原南3-141,1,,,1,,,,,,36.171310270141,139.32505672884,
1121,E1120200191201,籠原南第４公園,埼玉県熊谷市籠原南3-76,1,,,1,,,,,,36.169773016745,139.325799,
1122,E1122400001201,戸田東中学校　校庭,埼玉県戸田市下戸田1-11-15,,,,1,,1,,1,1,35.814157102439,139.68625965552,
1123,E1122400001202,戸田東中学校　校舎（３階・４階）,埼玉県戸田市下戸田1-11-15,1,,,,,,1,,1,35.814314,139.685594,
1124,E1122400001203,戸田東小学校　校庭,埼玉県戸田市下戸田1-11-15,,,,1,,1,,1,1,35.8136825737,139.68786569781,
1125,E1122400001204,戸田東小学校　校舎（３階・４階）,埼玉県戸田市下戸田1-11-15,1,,,,,,1,,1,35.814091906474,139.68777986931,
1126,E1122400002201,東部福祉センター　施設（３階・４階）,埼玉県戸田市下前1-2-20,1,,,,,,1,,1,35.810617,139.687365,
1127,E1122400003202,喜沢小学校　校舎（３階・４階）,埼玉県戸田市喜沢1-48-6,1,,,,,,1,,1,35.812056,139.696484,
1128,E1122400003201,喜沢小学校　校庭,埼玉県戸田市喜沢1-48-6,,,,1,,1,,1,1,35.811457508529,139.6963947836,
1129,E1122400004202,喜沢中学校　校舎（３階・４階）,埼玉県戸田市喜沢南1-6-29,1,,,,,,1,,1,35.806483,139.693603,
1130,E1122400004201,喜沢中学校　校庭,埼玉県戸田市喜沢南1-6-29,,,,1,,1,,1,1,35.805950088125,139.69360114142,
1131,E1122400005202,戸田第二小学校　校舎（３階・４階）,埼玉県戸田市喜沢南2-2-37,1,,,,,,1,,1,35.804464,139.691758,
1132,E1122400005201,戸田第二小学校　校庭,埼玉県戸田市喜沢南2-2-37,,,,1,,1,,1,1,35.80457788379,139.69072930203,
1133,E1122400035202,戸田公園観覧席,埼玉県戸田市戸田公園6,,,,1,,1,,1,,35.801947,139.675975,
1134,E1122400035201,戸田公園高台広場,埼玉県戸田市戸田公園6,,,,1,,1,,1,,35.801744,139.675655,
1135,E1122400006201,惣右エ門公園,埼玉県戸田市笹目1-38,,,,1,,1,,1,,35.818959,139.652424,
1136,E1122400007201,児童センタープリムローズ　施設（３階）,埼玉県戸田市笹目2-19-14,1,,,,,,1,,1,35.815678152036,139.65237926677,
1137,E1122400008201,笹目コミュニティセンター　施設（３階）,埼玉県戸田市笹目3-12-1,1,,,,,,1,,1,35.815457,139.649264,
1138,E1122400009202,笹目東小学校　校舎（３階・４階）,埼玉県戸田市笹目3-17-12,1,,,,,,1,,1,35.815217,139.651069,
1139,E1122400009201,笹目東小学校　校庭,埼玉県戸田市笹目3-17-12,,,,1,,1,,1,1,35.814824012008,139.65136772849,
1140,E1122400010202,笹目中学校　校舎（２階～４階）,埼玉県戸田市笹目4-38-1,1,,,,,,1,,1,35.821916,139.650448,
1141,E1122400010201,笹目中学校　校庭,埼玉県戸田市笹目4-38-1,,,,1,,1,,1,1,35.82159742035,139.65081098864,
1142,E1122400011202,笹目小学校　校舎（３階・４階）,埼玉県戸田市笹目6-9-1,1,,,,,,1,,1,35.814691,139.645103,
1143,E1122400011201,笹目小学校　校庭,埼玉県戸田市笹目6-9-1,,,,1,,1,,1,1,35.814164286397,139.64530956483,
1144,E1122400012201,笹目公園,埼玉県戸田市笹目7-1,,,,1,,1,,1,,35.812363,139.642762,
1145,E1122400013201,上戸田地域交流センター　施設（３階）,埼玉県戸田市上戸田2-21-1,1,,,,,,1,,1,35.812662,139.680848,
1146,E1122400014201,戸田第一小学校　校庭,埼玉県戸田市上戸田3-7-5,,,,1,,1,,1,1,35.812873092589,139.67681870571,
1147,E1122400014202,戸田第一小学校　校舎（３階）,埼玉県戸田市上戸田3-7-5,1,,,,,,1,,1,35.813412513106,139.67675433269,
1148,E1122400015201,戸田市文化会館　施設（３階～５階）,埼玉県戸田市上戸田4-8-1,1,,,,,,1,,1,35.817418,139.676447,
1149,E1122400016201,戸田かけはし高等特別支援学校　校舎（３階・４階）,埼玉県戸田市新曽1093-1,1,,,,,,1,,1,35.819673,139.66505,
1150,E1122400017202,新曽小学校　校舎（３階・４階）,埼玉県戸田市新曽南2-13-8,1,,,,,,1,,1,35.810547,139.663611,
1151,E1122400017201,新曽小学校　校庭,埼玉県戸田市新曽南2-13-8,,,,1,,1,,1,1,35.810147194937,139.66368969425,
1152,E1122400018201,心身障害者福祉センター　施設（３階）,埼玉県戸田市川岸2-4-8,1,,,,,,1,,1,35.805727750078,139.68662541781,
1153,E1122400020202,戸田翔陽高等学校　校舎（３階・４階）,埼玉県戸田市大字新曽1093,1,,,,,,1,,1,35.818750108003,139.6648388135,
1154,E1122400020201,戸田翔陽高等学校　校庭,埼玉県戸田市大字新曽1093,,,,1,,1,,1,1,35.819456347448,139.66593036365,
1155,E1122400021202,戸田市スポーツセンター　施設（２階～５階）,埼玉県戸田市大字新曽1286,1,,,,,,1,,1,35.821315,139.665565,
1156,E1122400021201,戸田市スポーツセンター　グラウンド,埼玉県戸田市大字新曽1286,,,,1,,1,,1,1,35.820578312576,139.66588453656,
1157,E1122400022202,新曽北小学校　校舎（３階・４階）,埼玉県戸田市大字新曽1367,1,,,,,,1,,1,35.818159,139.664352,
1158,E1122400022201,新曽北小学校　校庭,埼玉県戸田市大字新曽1367,,,,1,,1,,1,1,35.817677112513,139.66472029678,
1159,E1122400023201,新曽福祉センター　施設（３階・４階）,埼玉県戸田市大字新曽1395,1,,,,,,1,,1,35.814218,139.663921,
1160,E1122400024202,新曽中学校　校舎（２階～４階）,埼玉県戸田市大字新曽1448,1,,,,,,1,,1,35.821333,139.662802,
1161,E1122400024201,新曽中学校　校庭,埼玉県戸田市大字新曽1448,,,,1,,1,,1,1,35.821463187204,139.66358270873,
1162,E1122400025202,芦原小学校　校舎（２階・３階）,埼玉県戸田市大字新曽1961,1,,,,,,1,,1,35.824531,139.661453,
1163,E1122400025201,芦原小学校　校庭,埼玉県戸田市大字新曽1961,,,,1,,1,,1,1,35.825118328975,139.66151194373,
1164,E1122400026202,美女木小学校　校舎（２階～４階）,埼玉県戸田市美女木2-33-1,1,,,,,,1,,1,35.828037,139.646802,
1165,E1122400026201,美女木小学校　校庭,埼玉県戸田市美女木2-33-1,,,,1,,1,,1,1,35.827544682805,139.64663477306,
1166,E1122400027201,新田公園,埼玉県戸田市美女木3-1,,,,1,,1,,1,,35.827123,139.644552,
1167,E1122400028202,南稜高等学校　校舎（２階～５階）,埼玉県戸田市美女木4-23-4,1,,,,,,1,,1,35.824159,139.649199,
1168,E1122400028201,南稜高等学校　校庭,埼玉県戸田市美女木4-23-4,,,,1,,1,,1,1,35.824705102112,139.64830247207,
1169,E1122400029201,美笹中学校　校庭,埼玉県戸田市美女木5-12-6,,,,1,,1,,1,1,35.819469342,139.64105147365,
1170,E1122400029202,美笹中学校　校舎（２階～４階）,埼玉県戸田市美女木5-12-6,1,,,,,,1,,1,35.819777059543,139.64039596162,
1171,E1122400030201,西部福祉センター　施設（２階・３階）,埼玉県戸田市美女木5-2-16,1,,,,,,1,,1,35.820908,139.642531,
1172,E1122400031201,美谷本小学校　校庭,埼玉県戸田市美女木7-11-3,,,,1,,1,,1,1,35.825735269846,139.63707782883,
1173,E1122400031202,美谷本小学校　校舎（２階・３階）,埼玉県戸田市美女木7-11-3,1,,,,,,1,,1,35.826173,139.637084,
1174,E1122400032201,児童センターこどもの国　施設（３階）,埼玉県戸田市本町1-17-7,1,,,,,,1,,1,35.809507819221,139.68045573873,
1175,E1122400033201,戸田南小学校　校庭,埼玉県戸田市本町4-8-2,,,,1,,1,,1,1,35.806603575343,139.68131394101,
1176,E1122400033202,戸田南小学校　校舎（３階・４階）,埼玉県戸田市本町4-8-2,1,,,,,,1,,1,35.807057,139.6813139,
1177,E1122400034201,戸田中学校　校庭,埼玉県戸田市本町5-8-46,,,,1,,1,,1,1,35.804231700556,139.67623422512,
1178,E1122400034202,戸田中学校　校舎（３階・４階）,埼玉県戸田市本町5-8-46,1,,,,,,1,,1,35.804230796611,139.67835187097,
1179,E1124000001201,さかえ小学校,埼玉県幸手市栄2-90,1,,,1,,,,,1,36.060583671975,139.72093074457,
1180,E1124000046201,権現堂公園２号公園,埼玉県幸手市外国府間170,,,,1,,1,,,,36.101074,139.725189,
1181,E1124000047201,権現堂公園３号公園,埼玉県幸手市権現堂996,,,,1,,1,,,,36.092937,139.725876,
1182,E1124000002201,千塚西公園,埼玉県幸手市香日向3-13,,,,1,,,,,,36.088337983414,139.69508063827,
1183,E1124000003201,幸手看護専門学校,埼玉県幸手市香日向4-5-1,1,,,1,,,,,1,36.087574622359,139.70151143287,
1184,E1124000004201,コミュニティセンター,埼玉県幸手市香日向4-5-2,,,,1,,,,,1,36.087002780142,139.70233333144,
1185,E1124000006201,行幸小学校,埼玉県幸手市大字円藤内460-2,1,,,1,,,,,1,36.094229284345,139.71106316002,
1186,E1123200116201,幸手市立行幸小学校,埼玉県幸手市大字円藤内460-2,1,,,1,,,,,1,36.09432465,139.7112992,
1187,E1124000007201,東公民館,埼玉県幸手市大字下宇和田58-6,,,,1,,,,,1,36.066434927217,139.76757007671,
1188,E1124000009201,長倉小学校,埼玉県幸手市大字下川崎242,1,,,1,,,,,1,36.085682582014,139.70921591034,
1189,E1124000010201,西中学校,埼玉県幸手市大字下川崎387,1,,,1,,,,,1,36.082660520632,139.70954742588,
1190,E1124000011201,東埼玉総合病院（駐車場）,埼玉県幸手市大字吉野517-5,,,,1,,,,,,36.053354381522,139.72307740196,
1191,E1124000012201,武道館,埼玉県幸手市大字幸手1957-1,,,,1,,,,,1,36.071837094508,139.72975087198,
1192,E1124000013201,日本保健医療大学幸手北キャンパス,埼玉県幸手市大字幸手1961-2,1,,,1,,,,,1,36.072783835902,139.73091603366,
1193,E1124000014201,さくら小学校,埼玉県幸手市大字幸手72,1,,,1,,,,,1,36.070195472474,139.73076315687,
1194,E1124000018201,上高野小学校,埼玉県幸手市大字上高野1009,1,,,1,,,,,1,36.066425622932,139.71233902785,
1195,E1124000019201,南公民館,埼玉県幸手市大字上高野1194,,,,1,,,,,1,36.06209617619,139.71309611286,
1196,E1124000021201,権現堂川小学校,埼玉県幸手市大字神明内570,1,,,1,,,,,1,36.074692882596,139.74264405454,
1197,E1124000023201,西公民館,埼玉県幸手市大字千塚117,,,,1,,,,,1,36.088115465012,139.70938070016,
1198,E1124000024201,旧吉田幼稚園,埼玉県幸手市大字惣新田1478,,,,1,,,,,,36.055703260572,139.77389194054,
1199,E1124000025201,吉田小学校,埼玉県幸手市大字惣新田3159,1,,,1,,,,,1,36.065824000837,139.77238270191,
1200,E1124000026201,保健福祉総合センター（ウェルス幸手）,埼玉県幸手市大字天神島1030-1,1,,,1,,,,,,36.068728578637,139.73647151468,
1201,E1124000027201,北公民館,埼玉県幸手市大字内国府間867,,,,1,,,,,1,36.091244,139.722183,
1202,E1124000028202,権現堂公園４号公園,埼玉県幸手市大字内国府間887-3,,,,1,,1,,,,36.091702,139.723419,
1203,E1124000029201,市民文化体育館（アスカル）,埼玉県幸手市大字平須賀2380-1,1,,,1,,,,,1,36.06736764663,139.7369615469,
1204,E1124000030201,東中学校,埼玉県幸手市大字平須賀2912-3,1,,,1,,,,,1,36.069982313228,139.753302913716,
1205,E1124000032201,老人福祉センター,埼玉県幸手市大字木立1513,,,,1,,,,,1,36.074100427095,139.75033414396,
1206,E1124000033201,幸手総合公園,埼玉県幸手市大字木立1779-1,,,,1,,,,,,36.082537487583,139.75233507189,
1207,E1124000034201,海洋センター,埼玉県幸手市大字木立1779-3,,,,1,,,,,1,36.084445022231,139.75003910098,
1208,E1124000035201,幸手小学校,埼玉県幸手市中3-11-41,1,,,1,,,,,1,36.076038346379,139.72219695677,
1209,E1124000037201,八代小学校,埼玉県幸手市平須賀1-14,1,,,1,,,,,1,36.055314341677,139.7439803397,
1210,E1124000044201,日本保健医療大学幸手南キャンパス,埼玉県幸手市平須賀2-555,1,,,1,,,,,1,36.0592225403597,139.72900036408,
