NO,共通ID,施設・場所名,住所,指定緊急避難場所との住所同一,その他市町村長が必要と認める事項,受入対象者,緯度,経度,備考
1,E1620600001111,滑川中学校,富山県滑川市下島54,1,,,36.75506786,137.3403253,
2,E1620600002111,西加積地区公民館,富山県滑川市下梅沢31-1,1,,,36.7469894,137.3433662,
3,E1620600003111,西地区コミュニティホール（滑川西地区公民館）,富山県滑川市加島町194,1,,,36.76039958,137.3336211,
4,E1620600004111,田中小学校,富山県滑川市加島町207,1,,,36.75954963,137.333855,
5,E1620600005111,滑川高等学校,富山県滑川市加島町45,1,,,36.7590012,137.3313478,
6,E1620600006121,カモメ荘,富山県滑川市吉浦13,,,要配慮者,36.7927517249106,137.372173511586,
7,E1620600007111,浜加積地区公民館,富山県滑川市曲渕333,1,,,36.77550644,137.3634532,
8,E1620600008111,同朋保育園,富山県滑川市吾妻町357-6,1,,,36.76775007,137.3409534,
9,E1620600009111,滑川市民交流プラザ（３階・４階部分）,富山県滑川市吾妻町426,1,,,36.76850946,137.3449446,
10,E1620600009113,滑川東地区公民館,富山県滑川市吾妻町426,1,,,36.76722673,137.3444887,
11,E1620600009112,滑川市立図書館,富山県滑川市吾妻町426,1,,,36.76750175,137.3442875,
12,E1620600010111,フットボールセンター富山,富山県滑川市高月町129,1,,,36.75790646,137.3223086,
13,E1620600011111,認定こども園たかつき保育園,富山県滑川市高月町72,1,,,36.7573672314493,137.326033632123,
14,E1620600012111,東部小学校,富山県滑川市四ツ屋134,1,,,36.77545884,137.3747164,
15,E1620600013111,滑川コミュニティ防災センター,富山県滑川市四間町690-1,1,,,36.76519984,137.3430761,
16,E1620600014111,滑川市民会館大ホール,富山県滑川市寺家町104,1,,,36.76386235,137.3410854,
17,E1620600015111,寺家小学校,富山県滑川市寺家町98,1,,,36.76547468,137.3406262,
18,E1620600016111,中加積保育園,富山県滑川市小林69,1,,,36.73964921,137.3652971,
19,E1620600018111,希望幼稚園,富山県滑川市上小泉2005,1,,,36.75904211,137.3430116,
20,E1620600019111,滑川市社会福祉センター,富山県滑川市上小泉412-2,1,,,36.76111566,137.3494832,
21,E1620600020111,認定こども園上小泉保育園,富山県滑川市上小泉668,1,,,36.75791315,137.3475299,
22,E1620600021111,児童館,富山県滑川市上小泉800,1,,,36.760995031328,137.3475121878,
23,E1620600022111,西部小学校,富山県滑川市上島471,1,,,36.75094284,137.3492417,
24,E1620600023111,同朋幼稚園,富山県滑川市常盤町630,1,,,36.7687705,137.343459,
25,E1620600024111,地域交流センター「青志会館」,富山県滑川市清水町13-9,1,,,36.76501094,137.3448474,
26,E1620600025111,中加積地区公民館,富山県滑川市赤浜573,1,,,36.73471185,137.3640027,
27,E1620600026121,清寿荘,富山県滑川市赤浜573-1,,,要配慮者,36.7352721838325,137.364017407183,
28,E1620600027111,南部小学校,富山県滑川市赤浜727,1,,,36.736067,137.3683235,
29,E1620600028111,東加積コミュニティセンター（東加積地区公民館）,富山県滑川市大崎野244,1,,,36.74971189,137.3996555,
30,E1620600029111,東加積小学校,富山県滑川市大崎野45,1,,,36.7453655,137.3956495,
31,E1620600030111,幼保連携型きたかづみ認定こども園,富山県滑川市大島新509-1,1,,,36.75954569,137.3752592,
32,E1620600031111,北加積小学校,富山県滑川市中塚425,1,,,36.75873559,137.3755783,
33,E1620600032111,北加積コミュニティ防災センター（北加積地区公民館）,富山県滑川市中塚432,1,,,36.75923003,137.3750627,
34,E1620600033111,早月中学校,富山県滑川市中野島1260,1,,,36.76424068,137.3684608,
35,E1620600035111,早月加積地区公民館,富山県滑川市追分3801,1,,,36.77651907,137.3828088,
36,E1620600036111,坪川保育所,富山県滑川市坪川1180,1,,,36.77505697,137.35153,
37,E1620600037111,滑川市民健康センター,富山県滑川市田中新町127,1,,,36.76055242,137.3388813,
38,E1620600038111,働く婦人の家,富山県滑川市田中新町129,1,,,36.76079309,137.3386667,
39,E1620600050111,中滑川複合施設（３階部分）,富山県滑川市田中新町39-5,1,,,36.761821284986,137.34016157673,
40,E1620600040111,童和保育園,富山県滑川市堀江1796,1,,,36.7332852,137.3518073,
41,E1620600041111,山加積コミュニティセンター（山加積地区公民館）,富山県滑川市本江308,1,,,36.72729833,137.3844354,
42,E1620600042111,みのわ健康休養施設（みのわ温泉）,富山県滑川市蓑輪28,1,,,36.72762494,137.4366874,
43,E1620600043111,滑川市農村環境改善センター,富山県滑川市野町1684-1,1,,,36.76342324,137.36931,
44,E1620600044121,なごみ苑,富山県滑川市野町1686,,,要配慮者,36.7634009971504,137.368123121085,
45,E1620600045111,滑川市農村研修センター,富山県滑川市野町363,1,,,36.76288899,137.3684445,
46,E1620600046111,サン・アビリティーズ滑川,富山県滑川市柳原1537-2,1,,,36.76942074,137.3557498,
47,E1620600047111,滑川市総合体育センター,富山県滑川市柳原238,1,,,36.76988106,137.3573097,
48,E1620600049121,富山医療福祉専門学校,富山県滑川市柳原字大門149-9,,,要配慮者,36.7698653215699,137.358732017169,
49,E1620400001111,上中島多目的交流センター,富山県魚津市下椿8,1,,,36.77587802,137.4102478,
50,E1620400005111,新川高校,富山県魚津市吉島1350,1,,,36.82353591,137.4243828,
51,E1620400006111,東部中学校,富山県魚津市吉島1934,1,,,36.83131952,137.4127167,
52,E1620400008111,清流小学校,富山県魚津市吉島432,1,,,36.82723634,137.423007,
53,E1620400009111,魚津高校,富山県魚津市吉島945,1,,,36.83027589,137.4123006,
54,E1620400010111,旧上中島小学校体育館,富山県魚津市吉野1263,1,,,36.78668484,137.4093265,
55,E1620400012111,新川文化ホール,富山県魚津市宮津110,1,,,36.804519,137.407997,
56,E1620400013111,旧松倉保育園,富山県魚津市金山谷2899-2,1,,,36.78571624,137.4178469,
57,E1620400014111,下中島コミュニティセンター,富山県魚津市慶野172-2,1,,,36.802283,137.402605,
58,E1620400016111,旧松倉小学校体育館,富山県魚津市鹿熊11,1,,,36.76946275,137.4278999,
59,E1620400018111,星の杜小学校,富山県魚津市住吉203,1,,,36.803896196237,137.397910200494,
60,E1620400020111,桃山運動公園,富山県魚津市出字桃山36,1,,,36.79662544,137.4328371,
61,E1620400028111,北陸職業能力開発大学校,富山県魚津市川縁1289-1,1,,,36.79143413,137.3976536,
62,E1620400029111,村木コミュニティセンター,富山県魚津市村木町1-21,1,,,36.819962,137.4005464,
63,E1620400030111,上野方コミュニティセンター,富山県魚津市大海寺野1370,1,,,36.80717575,137.4268273,
64,E1620400031111,旧上野方小学校体育館,富山県魚津市大海寺野1373,1,,,36.80640611,137.4274421,
65,E1620400032111,西布施地域活性化センター,富山県魚津市長引野1290-3,1,,,36.8319610513834,137.464085705678,
66,E1620400034111,新川学びの森天神山交流館,富山県魚津市天神野新147-1,1,,,36.82636643,137.446512,
67,E1620400035111,天神コミュニティセンター,富山県魚津市天神野新220,1,,,36.83107682,137.4412375,
68,E1620400036111,片貝コミュニティセンター,富山県魚津市島尻818,1,,,36.79250865355,137.47078557515,
69,E1620400039111,魚津工業高校,富山県魚津市浜経田3338,1,,,36.85359337,137.4218563,
70,E1620400040111,経田コミュニティセンター,富山県魚津市浜経田466,1,,,36.84853294,137.4163934,
71,E1620400041111,経田小学校,富山県魚津市浜経田665-3,1,,,36.84986394,137.418559,
72,E1620400042111,道下コミュニティセンター,富山県魚津市北鬼江2-14-15,1,,,36.83022489,137.4041105,
73,E1620400045111,道下小学校,富山県魚津市北鬼江2741,1,,,36.83230506,137.4062548,
74,E1620400046111,ありそドーム,富山県魚津市北鬼江2898-3,1,,,36.830059,137.400626,
75,E1620400047111,よつば小学校,富山県魚津市本江1041,1,,,36.81631431,137.4092129,
76,E1620400051111,大町コミュニティセンター,富山県魚津市本町1-1-10,1,,,36.81225851,137.393905,
77,E1620400050111,旧大町小学校,富山県魚津市本町1-10-39,1,,,36.81322989,137.3972934,
78,E1620400052111,新川みどり野高校,富山県魚津市木下新144,1,,,36.84845186,137.4300142,
79,E1620400057111,本江地域交流センター,富山県魚津市友道1375-1,1,,,36.815585,137.407293,
80,E1620400054111,西部中学校,富山県魚津市友道212,1,,,36.81422025,137.4024682,
81,E1620400056111,加積コミュニティセンター,富山県魚津市六郎丸1062,1,,,36.82399639,137.4279473,
82,E1620200001111,北日本新聞社西部本社,富山県高岡市あわら町13-50,1,,,36.756180045655,137.02387717781,
83,E1620200002121,特別養護老人ホームはるかぜ,富山県高岡市オフィスパーク13,,,要配慮者,36.67233141639,136.99899715092,
84,E1620200003121,障害者支援施設　志貴野苑,富山県高岡市葦附1239-27,,,要配慮者,36.685180153581,137.0101657381,
85,E1620200004111,高岡市立芳野中学校,富山県高岡市駅南2-5-1,1,,,36.73734554,137.02044074048,
86,E1620200005111,下関地域交流センター（公民館）,富山県高岡市駅南3-1-30,1,,,36.73820164,137.0168645,
87,E1620200006111,富山県立高岡商業高等学校,富山県高岡市横田286,1,,,36.75805374,136.9930076,
88,E1620200007112,高岡市立高岡西部小学校,富山県高岡市横田町3-4-1,1,,,36.750917,137.002008,
89,E1620200009111,高岡市立西部保育園,富山県高岡市横田本町4-5,1,,,36.7508195,136.9993191,
90,E1620200189111,石友ホーム（株）,富山県高岡市下牧野36-2,1,,,36.777313,137.073363,
91,E1621100001111,いきいき長寿館,富山県高岡市下牧野385-1,1,,,36.78286897,137.069807,
92,E1620200011111,高岡市中田コミュニティセンター,富山県高岡市下麻生1108,1,,,36.68419782,137.0221375,
93,E1620200012111,高岡市商工会中田支所,富山県高岡市下麻生1292,1,,,36.68483638,137.019823,
94,E1620200013121,だいご中田館,富山県高岡市下麻生89-2,,,要配慮者,36.693623112738,137.01943636298,
95,E1620200014121,障害者支援施設　志貴野ホーム,富山県高岡市下麻生字天洞5340,,,要配慮者,36.693479943027,137.01333233254,
96,E1620200015121,特別養護老人ホームあさひ苑,富山県高岡市角561,,,要配慮者,36.766574228268,137.03768847368,
97,E1620200017111,県営高岡武道館,富山県高岡市関72-1,1,,,36.738372816957,137.022535,
98,E1620200018111,高岡商工ビル,富山県高岡市丸の内1-40,1,,,36.753391000243,137.02058222778,
99,E1620200019111,高岡市立中央保育園,富山県高岡市丸の内2-25,1,,,36.75172924783,137.01847076931,
100,E1620200020111,研精体育館（旧横田小学校）,富山県高岡市宮田町9-1,1,,,36.747263,136.993379,
101,E1620200021111,高岡市立成美小学校,富山県高岡市京町1-1,1,,,36.75472646,137.0153475,
102,E1620200022121,地域密着型小規模特別養護老人ホーム雅　京田,富山県高岡市京田281-1,,,要配慮者,36.73107877,137.0124391,
103,E1620200023121,介護老人保健施設おおぞら,富山県高岡市京田490,,,要配慮者,36.72835052,137.0166738,
104,E1620200024121,高岡老人保健施設長寿苑,富山県高岡市京田72,,,要配慮者,36.732179726394,137.01669953069,
105,E1620200026111,東洋通信スポーツセンター（高岡市民体育館）,富山県高岡市古城1-8,1,,,36.749009455076,137.02368073492,
106,E1620200028111,高岡龍谷高等学校,富山県高岡市古定塚4-1,1,,,36.753265328499,137.03369602883,
107,E1620200029111,伊勢領公民館,富山県高岡市戸出伊勢領321-2,1,,,36.69262986,136.97543722394,
108,E1620200030111,アステラス製薬（株）高岡工場,富山県高岡市戸出栄町30,1,,,36.69073367106,136.98805560052,
109,E1620200031121,つくしの家といで,富山県高岡市戸出吉住503,,,要配慮者,36.678926213285,136.99487855953,
110,E1620200032111,高岡市立戸出中学校,富山県高岡市戸出光明寺2000,1,,,36.67572194,136.9822329,
111,E1620200033111,（財）高岡南錬成館,富山県高岡市戸出市野瀬592,1,,,36.6919695,136.9821968,
112,E1620200034111,高岡市スポーツ健康センター,富山県高岡市戸出西部金屋743,1,,,36.66603997,137.0015581,
113,E1620200035111,高岡市立戸出東部小学校,富山県高岡市戸出大清水33,1,,,36.68233711,136.9881731,
114,E1620200193111,といでこども園,富山県高岡市戸出町1-5-111,1,,,36.682375,136.985242,
115,E1620200036111,高岡市戸出コミュニティセンター,富山県高岡市戸出町2-13-4,1,,,36.681847527553,136.98059684047,
116,E1620200038111,富山県立高岡南高等学校,富山県高岡市戸出町3-4-2,1,,,36.685675546979,136.97868865767,
117,E1620200039111,高岡市商工会戸出支所,富山県高岡市戸出町3-8-10,1,,,36.683273176072,136.97917173558,
118,E1620200040111,高岡市立戸出西部小学校,富山県高岡市戸出町5-11-1,1,,,36.68302916,136.9691943,
119,E1620200041111,高岡市立志貴野中学校,富山県高岡市広小路7-1,1,,,36.754941276334,137.0240344963,
120,E1620200042111,高岡市文化芸能館,富山県高岡市江尻1321-1,1,,,36.75600289853,137.02955115582,
121,E1620200043122,高岡市立こまどり支援学校,富山県高岡市江尻字村前1289,1,,要配慮者,36.756482836983,137.02944688281,
122,E1620200043121,富山県立高志支援学校高等部こまどり分教室,富山県高岡市江尻字村前1289,1,,要配慮者,36.756365596554,137.0296723927,
123,E1620200044111,高岡市立高陵中学校,富山県高岡市高陵町4-1,1,,,36.74277664,137.02394096931,
124,E1620200045111,高岡市里山交流センター,富山県高岡市国吉1324-1,1,,,36.7573035,136.9605651,
125,E1620200046111,国吉地域交流センター（公民館）,富山県高岡市国吉662,1,,,36.75474162,136.9694537,
126,E1620200047111,高岡愛育園,富山県高岡市佐加野1701,1,,,36.75643546,136.9712928,
127,E1620200048111,国吉義務教育学校,富山県高岡市佐加野2384,1,,,36.75491526,136.9675512,
128,E1620200050111,佐野地域交流センター（公民館）,富山県高岡市佐野276-5,1,,,36.72009639,136.99165,
129,E1620200051111,高岡市立佐野保育園,富山県高岡市佐野376,1,,,36.72066828,136.9905074,
130,E1620200052111,高岡市立南条小学校,富山県高岡市佐野3838,1,,,36.72384669,136.9859549,
131,E1620200053111,高岡第一学園附属第三幼稚園,富山県高岡市佐野645,1,,,36.727129087709,136.98807642209,
132,E1620200054111,（社）国吉光徳保育園,富山県高岡市細池425,1,,,36.75823407,136.9726126,
133,E1620200055111,（株）高岡市衛生公社本社,富山県高岡市材木町731,1,,,36.776426969208,137.0493895,
134,E1620200056111,小勢地域交流センター（公民館）,富山県高岡市三ケ9-1,1,,,36.70541799,136.968315,
135,E1620200057111,東五位地域交流センター（公民館分館）,富山県高岡市柴野内島2-1,1,,,36.73396307,136.9638133,
136,E1620200192111,高岡市立五位小学校,富山県高岡市柴野内島202,1,,,36.730002,136.965373,
137,E1620200058111,認定こども園（社）般若野保育園,富山県高岡市若杉118-5,1,,,36.67900312,137.0309735,
138,E1620200059111,二上地域交流センター（公民館）,富山県高岡市守護町2-4-73,1,,,36.76888327333,137.0112934315,
139,E1620200060111,高岡市少年育成センター,富山県高岡市守護町2-4-9,1,,,36.769198247574,137.0112905807,
140,E1620200061111,守山地域交流センター（公民館）,富山県高岡市守山130,1,,,36.77675894,136.9984889,
141,E1620200062111,高岡御車山会館,富山県高岡市守山町47-1,1,,,36.746657883915,137.00977864224,
142,E1620200063121,特別養護老人ホーム香野苑,富山県高岡市上渡161,,,要配慮者,36.729381170566,136.95764462328,
143,E1620200064111,高岡市立牧野中学校,富山県高岡市上牧野123-1,1,,,36.77318393,137.0682955,
144,E1620200066111,高岡市立中田小学校,富山県高岡市常国418,1,,,36.68317516,137.0262889,
145,E1620200067121,高岡市社会福祉協議会館,富山県高岡市清水町1-7-30,1,,要配慮者,36.74092771,137.0029337,
146,E1620200068111,高岡市埋蔵文化財センター,富山県高岡市西広谷249,1,,,36.761502563852,136.9226204828,
147,E1620200069121,富山県立高岡聴覚総合支援学校,富山県高岡市西藤平蔵700,1,,要配慮者,36.71289232,136.99208652513,
148,E1620200070111,伏木海陸運送（株）,富山県高岡市石丸704-10,1,,,36.769446228283,137.09448745582,
149,E1620200071111,荒井学園高岡向陵高等学校,富山県高岡市石瀬281-1,1,,,36.75281917561,137.04343236376,
150,E1620200072111,塩谷建設（株）記念会館,富山県高岡市石瀬6-1,1,,,36.74602713,137.0405556,
151,E1620200073111,石堤地域交流センター（公民館）,富山県高岡市石堤459,1,,,36.742486755981,136.94194124178,
152,E1620200075111,横田地域交流センター（公民館）,富山県高岡市千石町1-16,1,,,36.7484604,136.9964188,
153,E1620200077111,（旧）高岡市立川原小学校,富山県高岡市川原町13-10,1,,,36.750624,137.009936,
154,E1620200078111,高岡市竹平記念体育館,富山県高岡市早川222-1,1,,,36.751837527014,136.98816554233,
155,E1620200079121,特別養護老人ホーム藤園苑,富山県高岡市早川390-1,,,要配慮者,36.746676311117,136.98812506746,
156,E1620200080121,特別養護老人ホーム鳳鳴苑,富山県高岡市蔵野町3,,,要配慮者,36.722896723129,136.97800176072,
157,E1620200082111,太田地域交流センター（公民館）,富山県高岡市太田3382-2,1,,,36.82057159,137.0241917,
158,E1620200083111,高岡市立太田小学校,富山県高岡市太田4619,1,,,36.82090784,137.02423,
159,E1620200084121,特別養護老人ホーム雨晴苑,富山県高岡市太田58,,,要配慮者,36.815369818385,137.01510563254,
160,E1620200086121,老人保健施設アルカディア雨晴,富山県高岡市太田桜谷23-1,,,要配慮者,36.81517277543,137.03384950185,
161,E1620200087111,川原地域交流センター（公民館）,富山県高岡市大町11-4,1,,,36.750804764285,137.01091025397,
162,E1620200088111,成美地域交流センター（公民館）,富山県高岡市大坪町3-7-56,1,,,36.75967141,137.018987,
163,E1620200089121,特別養護老人ホームだいご苑,富山県高岡市醍醐1257,,,要配慮者,36.696082853197,136.96162998466,
164,E1620200090121,（社福）たかおか万葉福祉会かたかご苑,富山県高岡市滝新15,1,,要配慮者,36.675301718378,137.03146506998,
165,E1620200091121,特別養護老人ホーム志貴野長生寮,富山県高岡市滝新21-1,1,,要配慮者,36.6783071,137.0304565,
166,E1620200091111,養護老人ホーム志貴野長生寮,富山県高岡市滝新21-1,1,,,36.677541286851,137.0303063172,
167,E1620200092111,富山県立高岡工芸高等学校,富山県高岡市中川1-1-20,1,,,36.750164415857,137.02630568413,
168,E1620200093111,富山県立高岡高等学校,富山県高岡市中川園町1-1,1,,,36.751159453385,137.02900137117,
169,E1620200094111,富山県高岡文化ホール,富山県高岡市中川園町13-1,1,,,36.750352864871,137.0284612791,
170,E1620200095111,高岡市立高陵小学校,富山県高岡市中川町5-1,1,,,36.743730940586,137.02290024418,
171,E1620200096111,高岡市立牧野小学校,富山県高岡市中曽根246,1,,,36.77324298,137.078151,
172,E1620200097111,高岡第一学園牧野みどり保育園,富山県高岡市中曽根2691,1,,,36.77063037,137.0742816,
173,E1620200098111,高岡市立牧野公民館,富山県高岡市中曽根740-1,1,,,36.76744239,137.0767444,
174,E1620200099111,高岡第一学園附属第五幼稚園,富山県高岡市中曽根740-7,1,,,36.7678047,137.077214,
175,E1620200100111,高岡市立中田中学校,富山県高岡市中田260,1,,,36.68419709,137.0135875,
176,E1620200101111,㈱パナケイア製薬,富山県高岡市中田4576,1,,,36.67855714,137.0215713,
177,E1620200102111,北陸自動車学校,富山県高岡市中保75,1,,,36.724553289544,136.96877465582,
178,E1620200104111,福田地域交流センター（公民館）,富山県高岡市辻411,1,,,36.7299195,136.9781915,
179,E1620200105121,富山県立高岡支援学校,富山県高岡市東海老坂831,,,要配慮者,36.789034554405,136.9988293,
180,E1620200106111,富山県立高岡高等支援学校,富山県高岡市東海老坂950,1,,,36.783510906173,136.99733877117,
181,E1620200107111,高岡市立下関小学校,富山県高岡市東上関8,1,,,36.736198108419,137.01896372884,
182,E1620200108111,定塚地域交流センター（公民館）,富山県高岡市東中川町10-15,1,,,36.746493436914,137.02666795715,
183,E1620200109111,高岡市立東五位公民館,富山県高岡市内島151,1,,,36.7337188,136.9671858,
184,E1620200110111,（旧）高岡市立五位小学校,富山県高岡市内島3516,1,,,36.734715,136.965627,
185,E1620200111111,北陸コカ・コーラボトリング（株）,富山県高岡市内島3550,1,,,36.731738247136,136.96406901349,
186,E1620200113121,特別養護老人ホーム二上万葉苑,富山県高岡市二上町1004,,,要配慮者,36.774277584434,137.00808696931,
187,E1620200114111,高岡市立万葉小学校,富山県高岡市二上町1100,1,,,36.77563209,137.0071114,
188,E1620200115111,万葉社会福祉センター,富山県高岡市二上町166-2,1,,,36.77302413,137.0207397,
189,E1620200116111,富山大学高岡キャンパス体育館,富山県高岡市二上町180,1,,,36.773994,137.021702,
190,E1620200117111,高岡市立二塚小学校,富山県高岡市二塚1260,1,,,36.71337054,137.0098631,
191,E1620200118111,二塚地域交流センター（公民館）,富山県高岡市二塚2211-3,1,,,36.71409266,137.0067141,
192,E1620200119111,富山県産業創造センター（高岡テクノドーム）,富山県高岡市二塚322-5,1,,,36.721348683135,137.01797982513,
193,E1620200120111,能町地域交流センター（公民館）,富山県高岡市能町1461-1,1,,,36.76768285733,137.04041628685,
194,E1620200121111,高岡市立能町小学校,富山県高岡市能町南2-110,1,,,36.766104888181,137.04237266746,
195,E1620200122121,あしつきふれあいの郷,富山県高岡市博労本町4-1,1,,要配慮者,36.74411733,137.0007584,
196,E1620200122111,高岡市ふれあい福祉センター,富山県高岡市博労本町4-1,1,,,36.74352841551,137.00167299206,
197,E1620200123111,高岡市立博労小学校,富山県高岡市博労本町5-1,1,,,36.743114569491,137.00337193069,
198,E1620200125121,介護老人保健施設やすらぎ,富山県高岡市美幸町1-1-53,,,要配慮者,36.756009641959,136.99815670185,
199,E1620200126111,トヨタモビィリティ富山（株）高岡,富山県高岡市美幸町1-1-72,1,,,36.755466425067,136.99914259392,
200,E1620200127111,高岡市立高岡西部中学校,富山県高岡市美幸町2-4-1,1,,,36.75425881,136.9948123,
201,E1620200128111,西条地域交流センター（公民館）,富山県高岡市美幸町2-6-22,1,,,36.755225732199,136.99434325582,
202,E1620200129111,高岡市立牧野かぐら保育園,富山県高岡市姫野654-5,1,,,36.77335704264,137.08488978163,
203,E1620200130111,富山県立伏木高等学校,富山県高岡市伏木一宮2-11-1,1,,,36.801939130831,137.04925355159,
204,E1620200132111,高岡市立伏木中学校,富山県高岡市伏木古府3-1-1,1,,,36.79467682,137.0492428,
205,E1620200133111,高岡市立古府小学校,富山県高岡市伏木古府元町4-1,1,,,36.78887782,137.0466243,
206,E1620200135121,特別養護老人ホームふしき苑,富山県高岡市伏木国分1-10-10,1,,要配慮者,36.800231144358,137.0542202951,
207,E1620200136111,（旧）高岡市立伏木公民館分館,富山県高岡市伏木国分1-7-8,1,,,36.80270523,137.052687,
208,E1620200139111,高岡市立伏木小学校,富山県高岡市伏木東一宮17-1,1,,,36.795850703617,137.05440577302,
209,E1620200140111,高岡市万葉スポーツセンター,富山県高岡市伏木本町1-24,1,,,36.796533248696,137.05793062513,
210,E1620200141111,高岡市伏木コミュニティセンター,富山県高岡市伏木湊町13-1,1,,,36.79692515,137.0630405,
211,E1620200144111,古府地域交流センター（公民館）,富山県高岡市伏木矢田上町9-20,1,,,36.78739148,137.0471244,
212,E1620200145111,高岡市福岡にぎわい交流館,富山県高岡市福岡町下蓑355-2,1,,,36.708775254292,136.93196280489,
213,E1620200146111,花尾集会所,富山県高岡市福岡町花尾318,,,,36.74241402,136.9092764,
214,E1620200147111,高岡市五位山交流館,富山県高岡市福岡町五位356,,,,36.74315651,136.8734489,
215,E1620200148111,五位集会所,富山県高岡市福岡町五位814,1,,,36.74721244,136.8757774,
216,E1620200150111,高岡市立山王トレーニングセンター,富山県高岡市福岡町江尻50-1,1,,,36.701032122039,136.93788185768,
217,E1620200151111,高岡第一学園福岡ひばり園,富山県高岡市福岡町江尻50-5,1,,,36.70152572,136.9381342,
218,E1620200152111,山王地域交流センター（公民館）,富山県高岡市福岡町江尻50-7,1,,,36.7013461,136.937678,
219,E1620200153111,高岡市立福岡中学校,富山県高岡市福岡町荒屋敷350,1,,,36.706253974115,136.91695483439,
220,E1620200154111,高岡市福岡Ｂ＆Ｇ海洋センター,富山県高岡市福岡町三日市579-1,1,,,36.71734852,136.9291154,
221,E1620200155111,小野集会所,富山県高岡市福岡町小野字二十谷1161-1,1,,,36.73123163,136.8760985,
222,E1620200156111,高岡地区林業総合センター,富山県高岡市福岡町上向田117,1,,,36.70669403,136.9051821,
223,E1620200157111,高岡市立西五位トレーニングセンター,富山県高岡市福岡町上向田41-1,1,,,36.70973126,136.9117735,
224,E1620200158111,富山県立福岡高等学校,富山県高岡市福岡町上蓑561,1,,,36.70341767,136.927576,
225,E1620200159121,特別養護老人ホームアルテン赤丸,富山県高岡市福岡町赤丸1103-1,,,要配慮者,36.737304555488,136.93224694048,
226,E1620200160111,赤丸地域交流センター（公民館）,富山県高岡市福岡町赤丸675,1,,,36.73371555,136.9378424,
227,E1620200161111,高岡市立赤丸トレーニングセンター,富山県高岡市福岡町赤丸676,1,,,36.73353002,136.9378693,
228,E1620200162111,高岡市ふくおか総合文化センター,富山県高岡市福岡町大滝44,1,,,36.707660291177,136.92470643069,
229,E1620200163111,高岡市立大滝トレーニングセンター,富山県高岡市福岡町大滝849,1,,,36.6974216,136.9200248,
230,E1620200164111,大滝地域交流センター（公民館）,富山県高岡市福岡町大滝849-1,1,,,36.69736999,136.9197083,
231,E1620200165121,老人保健施設さくら苑,富山県高岡市福岡町大野145,,,要配慮者,36.719666129918,136.93571866746,
232,E1620200166111,高岡市立福岡小学校,富山県高岡市福岡町大野15,1,,,36.71434733,136.9320022,
233,E1620200167111,木楽館,富山県高岡市福岡町土屋108-1,1,,,36.71476498,136.9195383,
234,E1620200168112,西五位地域交流センター（公民館）,富山県高岡市福岡町土屋115-1,1,,,36.7157516,136.920764,
235,E1620200168111,高岡市立福岡あおぞらこども園,富山県高岡市福岡町土屋115-1,1,,,36.71538608,136.9207855,
236,E1620200169111,福岡さくら会館,富山県高岡市福岡町福岡新579-1,1,,,36.712665915458,136.93139064233,
237,E1620200170111,高岡第一学園高岡第一高等学校,富山県高岡市本郷2-1-1,1,,,36.75813323,137.0002195,
238,E1620200171111,高岡第一学園附属第一幼稚園,富山県高岡市本郷2-1-35,1,,,36.75675792,136.99927,
239,E1620200172111,旧高岡市立平米小学校,富山県高岡市本町12-1,1,,,36.750777593062,137.01543463069,
240,E1620200173111,平米地域交流センター（公民館）,富山県高岡市本町6-15,1,,,36.751047956014,137.01594286931,
241,E1620200174111,高岡市生涯学習センター,富山県高岡市末広町1-7,1,,,36.743023938999,137.01441732039,
242,E1620200174112,富山県立志貴野高等学校,富山県高岡市末広町1-7,1,,,36.742871713934,137.01455177487,
243,E1620200175111,高岡市立南星中学校,富山県高岡市木津1395,1,,,36.736412094639,136.99992248651,
244,E1620200176111,高岡市立木津小学校,富山県高岡市木津312-1,1,,,36.73993728,136.9961648,
245,E1620200177111,木津地域交流センター（公民館）,富山県高岡市木津613-1,1,,,36.73827784,136.99753,
246,E1620200195121,在宅介護総合支援センターまいけ,富山県高岡市野村23-1,,,要配慮者,36.737715,137.027237,
247,E1620200178111,高岡市立野村小学校,富山県高岡市野村405,1,,,36.74410646,137.0345495,
248,E1620200179111,高岡市立野村公民館,富山県高岡市野村588-1,1,,,36.74274651,137.0359079,
249,E1620200180121,特別養護老人ホームのむら藤園苑,富山県高岡市野村921-1,,,要配慮者,36.750790281489,137.03598399445,
250,E1620200181111,（旧）高岡市立千鳥丘小学校,富山県高岡市立野1863,1,,,36.719658,136.958697,
251,E1620200182121,ワークスたかおか事業所（アシストたての）,富山県高岡市立野2412,,,要配慮者,36.724172417371,136.95550964907,
252,E1620200183111,立野地域交流センター（公民館）,富山県高岡市立野2689,1,,,36.724254101791,136.95590556256,
253,E1620200184111,高岡市立五位中学校,富山県高岡市立野500,1,,,36.72827507,136.9651619,
254,E1620200185111,野村地域交流センター（公民館分館）,富山県高岡市蓮花寺578-1,1,,,36.739963805782,137.03489891428,
255,E1620200186121,介護老人保健施設きぼう,富山県高岡市和田1055,,,要配慮者,36.735020268966,136.98323958281,
256,E1620200187121,老人保健施設しきのケアセンター,富山県高岡市鷲北新480,,,要配慮者,36.766924690452,137.03745726137,
257,E1620200188111,（社福）坂ノ下福祉会能町保育園,富山県高岡市鷲北新54-2,1,,,36.76116077,137.0358952,
258,E1620700001111,東布施保育所,富山県黒部市阿弥陀堂529,1,,,36.83681202,137.4766694,
259,E1620700002111,東布施公民館（防災コミュニティセンター）,富山県黒部市阿弥陀堂529-1,1,,,36.837149,137.476645,
260,E1620700003111,宇奈月温泉総湯,富山県黒部市宇奈月温泉256-11,1,,,36.816318756896,137.58272219923,
261,E1620700004111,芸術創造センター（セレネ）,富山県黒部市宇奈月温泉6-3,1,,,36.81341352,137.585376,
262,E1620700005111,宇奈月公民館,富山県黒部市宇奈月温泉643,1,,,36.81534959,137.582366,
263,E1620700006111,愛本公民館,富山県黒部市宇奈月町愛本新2076,1,,,36.869794,137.552921,
264,E1620700007111,浦山公民館,富山県黒部市宇奈月町浦山1012,1,,,36.86387191,137.5167412,
265,E1620700008111,うらやま保育園,富山県黒部市宇奈月町浦山1254,1,,,36.8637773,137.5178329,
266,E1620700009111,宇奈月小学校,富山県黒部市宇奈月町浦山205-1,1,,,36.8667751,137.5221669,
267,E1620700010111,生涯学習文化スクエア,富山県黒部市宇奈月町浦山2100-2,1,,,36.86338053,137.5255883,
268,E1620700011111,ふれあい福祉センター,富山県黒部市宇奈月町浦山2111,1,,,36.86324952,137.5261406,
269,E1620700012111,宇奈月体育センター,富山県黒部市宇奈月町浦山2112,1,,,36.86297668,137.5265179,
270,E1620700013111,音沢公民館,富山県黒部市宇奈月町音澤1422-2,1,,,36.8369116,137.5642499,
271,E1620700014111,下立公民館,富山県黒部市宇奈月町下立3118,1,,,36.8587448,137.5395242,
272,E1620700015111,宇奈月友学館（図書館）,富山県黒部市宇奈月町下立682,1,,,36.86037899,137.5425807,
273,E1620700016111,宇奈月麦酒館,富山県黒部市宇奈月町下立687,1,,,36.86080339,137.5417146,
274,E1620700017111,旧宇奈月中学校,富山県黒部市宇奈月町下立825,1,,,36.85971367,137.5449755,
275,E1620700018111,下立保育所,富山県黒部市宇奈月町下立827,1,,,36.85923906,137.5428399,
276,E1620700019111,内山公民館,富山県黒部市宇奈月町内山1260,1,,,36.84779578,137.5574142,
277,E1620700020111,石田学童保育施設,富山県黒部市岡153,1,,,36.867958627876,137.42277850887,
278,E1620700021111,石田公民館,富山県黒部市岡165-1,1,,,36.86812504,137.4247813,
279,E1620700022111,荻生公民館,富山県黒部市荻生2716,1,,,36.87890274,137.470928,
280,E1620700023111,荻生保育所,富山県黒部市荻生2718,1,,,36.87845518,137.4703631,
281,E1620700024111,農業者トレ一ニングセンタ一,富山県黒部市荻生2719,1,,,36.878938,137.470488,
282,E1620700025111,荻生小学校,富山県黒部市荻生2754,1,,,36.87995216,137.4723655,
283,E1620700026111,ふれあいハウス宮野,富山県黒部市吉城寺14,1,,,36.86321181,137.4744922,
284,E1620700027111,村椿小学校,富山県黒部市吉田225,1,,,36.89928052,137.4260622,
285,E1620700028111,村椿保育所,富山県黒部市吉田253,1,,,36.90071138,137.4258196,
286,E1620700029111,村椿公民館,富山県黒部市吉田4260-2,1,,,36.90565165,137.4258755,
287,E1620700030111,吉田科学館,富山県黒部市吉田574-1,1,,,36.90131856,137.4256422,
288,E1620700031111,黒部市郷土文化保存伝習館,富山県黒部市宮野272,1,,,36.86674523,137.4784931,
289,E1620700032111,宮野運動公園体育館,富山県黒部市宮野44,1,,,36.86561121,137.4780605,
290,E1620700033111,中央児童センター,富山県黒部市金屋464-1,1,,,36.88652276,137.4438566,
291,E1620700034111,大布施公民館,富山県黒部市金屋64,1,,,36.88669439,137.4430305,
292,E1620700035111,大布施保育所,富山県黒部市金屋68,1,,,36.88685443,137.4426803,
293,E1620700036111,ふれあい交流館あこや～の,富山県黒部市窪野97,1,,,36.84734282,137.4534891,
294,E1620700037111,旧鷹施中学校,富山県黒部市荒町485,1,,,36.85440684,137.4320342,
295,E1620700038111,富山県技術専門学院新川センター,富山県黒部市三日市10,1,,,36.87963066,137.4546387,
296,E1620700039111,三島保育所,富山県黒部市三日市1151,1,,,36.87135576,137.4424934,
297,E1620700040111,桜井高等学校,富山県黒部市三日市1334,1,,,36.87026879,137.4497287,
298,E1620700041111,三日市公民館,富山県黒部市三日市1349,1,,,36.87198127,137.4499209,
299,E1620700042111,国際文化センターコラーレ,富山県黒部市三日市20,1,,,36.87969294,137.4533635,
300,E1620700043111,三日市保育所,富山県黒部市三日市2454-3,1,,,36.87149259,137.4536859,
301,E1620700044111,東部児童センタ一,富山県黒部市三日市2581-1,1,,,36.87359264,137.4539419,
302,E1620700045111,旧働く婦人の家,富山県黒部市三日市2890-1,1,,,36.87593399,137.4507197,
303,E1620700046111,旧黒部市民会館,富山県黒部市三日市2981,1,,,36.87548806,137.4508905,
304,E1620700047111,明峰中学校,富山県黒部市山田新2062,1,,,36.87237578,137.4624017,
305,E1620700048111,旧東布施小学校,富山県黒部市釈迦堂1192,1,,,36.83183069,137.4873435,
306,E1620700076112,旧東布施公民館,富山県黒部市釈迦堂923,1,,,36.835522,137.483867,
307,E1620700049111,若栗公民館,富山県黒部市若栗1180-1,1,,,36.87449938,137.4940894,
308,E1620700050111,若栗保育所,富山県黒部市若栗1320-1,1,,,36.87306662,137.494123,
309,E1620700051111,若栗小学校,富山県黒部市若栗1337,1,,,36.87274701,137.4950689,
310,E1620700052111,地域観光ギャラリー,富山県黒部市若栗3212-1,1,,,36.873771869504,137.4812702063,
311,E1620700053111,中央小学校,富山県黒部市植木118,1,,,36.88273776,137.4457559,
312,E1620700054111,さくら幼稚園,富山県黒部市植木68,1,,,36.88161782,137.4462887,
313,E1620700055111,錬成館,富山県黒部市新天66,1,,,36.86834024,137.454197,
314,E1620700056111,桜井小学校,富山県黒部市新牧野11-2,1,,,36.86681003,137.448987,
315,E1620700057111,勤労青少年ホーム,富山県黒部市新牧野220,1,,,36.86635729,137.4462615,
316,E1620700058111,生地小学校,富山県黒部市生地経新1004,1,,,36.89384651,137.4161232,
317,E1620700059111,生地こども園,富山県黒部市生地中区242,1,,,36.88951179,137.4186164,
318,E1620700060111,生地公民館,富山県黒部市生地中区361,1,,,36.89189068,137.4191349,
319,E1620700061111,石田農林漁業体験実習館,富山県黒部市石田1005,1,,,36.86066309,137.4153802,
320,E1620700062111,石田こども園,富山県黒部市石田6510,1,,,36.86705204,137.419083,
321,E1620700063111,石田小学校,富山県黒部市石田6536,1,,,36.86744123,137.422463,
322,E1620700064111,シルバーワークプラザ,富山県黒部市前沢24-1,1,,,36.86612289,137.4570102,
323,E1620700065111,前沢公民館,富山県黒部市前沢27-1,1,,,36.86609033,137.4573763,
324,E1620700066111,前沢保育所,富山県黒部市前沢65-4,1,,,36.86405898,137.454524,
325,E1620700067111,清明中学校,富山県黒部市中新30,1,,,36.88636326,137.427873,
326,E1620700068111,田家公民館,富山県黒部市田家新16,1,,,36.85557688,137.4384796,
327,E1620700069111,田家学童保育施設,富山県黒部市田家新474,1,,,36.854661831807,137.44117110311,
328,E1620700070111,田家保育所,富山県黒部市田家新545,1,,,36.85405842,137.4408331,
329,E1620700071111,たかせ小学校,富山県黒部市田家新810,1,,,36.8528081,137.4406421,
330,E1620700072111,東布施トレ一ニングセンタ一,富山県黒部市田籾1474,1,,,36.82403589,137.5080799,
331,E1620700073111,旧生地幼稚園,富山県黒部市飯沢750,1,,,36.894285,137.418288,
332,E1620700074111,黒部市総合体育センター,富山県黒部市堀切1142,1,,,36.882034,137.428193,
333,E1620700075111,布施山会館,富山県黒部市本野186-2,1,,,36.852822,137.478789,
334,E1621100002111,高岡地区陸運事業協同組合,富山県射水市沖塚原747-1,,,,36.756345,137.068515,
335,E1621100003111,下村小学校,富山県射水市加茂中部1051,1,,,36.740643,137.146939,
336,E1621100004111,下村保育園,富山県射水市加茂中部817-1,,,,36.739164,137.147868,
337,E1621100005111,下村体育館,富山県射水市加茂中部843,1,,,36.740998,137.149688,
338,E1621100006111,下村コミュニティセンター,富山県射水市加茂中部893,1,,,36.740765103327,137.148566811406,
339,E1621100009111,堀岡小学校,富山県射水市海竜町118-2,1,,,36.773013,137.126161,
340,E1621100010111,堀岡保育園,富山県射水市海竜町118-4,,,,36.772205,137.12665,
341,E1621100012111,海竜スポーツランド,富山県射水市海竜町29,1,,,36.771549,137.134575,
342,E1621100013111,海老江こども園,富山県射水市海老江1057,,,,36.76469454,137.1486313,
343,E1621100014111,海老江コミュニティセンター,富山県射水市海老江1082,1,,,36.764269,137.149175,
344,E1621100015111,東明小学校,富山県射水市海老江七軒1347,1,,,36.758502,137.155126,
345,E1621100016111,富山高等専門学校・射水キャンパス,富山県射水市海老江練合1-2,1,,,36.758878,137.1589,
346,E1621100017111,新湊総合体育館・新湊武道館,富山県射水市久々湊467,1,,,36.760473,137.092526,
347,E1621100018111,橋下条コミュニティセンター,富山県射水市橋下条1771,1,,,36.706933,137.080478,
348,E1621100019111,太閤山小学校,富山県射水市橋下条926,1,,,36.709984,137.089409,
349,E1621100020111,新湊南部中学校,富山県射水市鏡宮193-1,1,,,36.754552,137.084185,
350,E1621100022111,大門農村環境改善センター・コミュニティセントー,富山県射水市串田1395,1,,,36.707019,137.044465,
351,E1621100023111,櫛田コミュニティセンター,富山県射水市串田864-1,1,,,36.694923,137.040822,
352,E1621100024111,小杉地区センター,富山県射水市戸破1032-3,,,,36.71209154,137.103711,
353,E1621100025111,小杉文化ホール,富山県射水市戸破1500,1,,,36.713713,137.100092,
354,E1621100026111,片山学園初等科（体育館棟アリーナ）,富山県射水市戸破1511-5,,,,36.7124363372991,137.099578576092,
355,E1621100027111,小杉中学校,富山県射水市戸破2013,1,,,36.717969,137.095633,
356,E1621100028111,戸破児童館,富山県射水市戸破2475,,,,36.720725,137.107021,
357,E1621100028112,小杉東部保育園,富山県射水市戸破2475,,,,36.720714,137.10667,
358,E1621100029111,戸破コミュニティセンター,富山県射水市戸破2917-1,1,,,36.720683,137.104255,
359,E1621100030111,小杉総合体育センター,富山県射水市戸破3111,1,,,36.723428,137.113389,
360,E1621100031111,小杉小学校,富山県射水市戸破4100,1,,,36.72558,137.105391,
361,E1621100032111,いみず市民交流プラザ,富山県射水市戸破4200-11,1,,,36.7211941076067,137.096496054455,
362,E1621100033111,あおい幼稚園,富山県射水市戸破4401-1,,,,36.72546,137.103493,
363,E1621100035111,片口保育園,富山県射水市高場新町2-75,,,,36.755007,137.115986,
364,E1621100036111,黒河コミュニティセンター,富山県射水市黒河3106,1,,,36.70332,137.108752,
365,E1621100037111,黒河保育園,富山県射水市黒河3107-6,,,,36.703093,137.108573,
366,E1621100038111,富山県立大学,富山県射水市黒河5180,1,,,36.706493,137.097651,
367,E1621100039111,歌の森小学校,富山県射水市黒河560,1,,,36.708544,137.106509,
368,E1621100040111,小杉体育館,富山県射水市黒河712,1,,,36.712738,137.102692,
369,E1621100041111,作道コミュニティセンター,富山県射水市作道908,1,,,36.7484164645564,137.089915715282,
370,E1621100042111,作道小学校,富山県射水市作道913,1,,,36.747497,137.089086,
371,E1621100044111,三ケコミュニティセンター,富山県射水市三ケ1045-1,1,,,36.724983,137.092933,
372,E1621100045111,富山県立小杉高等学校,富山県射水市三ケ1520-1,1,,,36.725158,137.086092,
373,E1621100046111,埋蔵文化財センター,富山県射水市三ケ1769-10,,,,36.722454,137.097282,
374,E1621100047112,小杉西部こども園,富山県射水市三ケ933-1,,,,36.7241,137.097038,
375,E1621100047111,三ケ児童館,富山県射水市三ケ933-1,,,,36.724114,137.097382,
376,E1621100049111,新湊中央文化会館,富山県射水市三日曽根3-23,1,,,36.778867,137.081037,
377,E1621100050111,新湊交流会館,富山県射水市三日曽根9-18,1,,,36.779126,137.079405,
378,E1621100051111,七美幼稚園,富山県射水市七美1014,,,,36.753562,137.144004,
379,E1621100051112,七美体育館,富山県射水市七美1014,,,,36.753787,137.14374,
380,E1621100053111,七美コミュニティセンター,富山県射水市七美898,1,,,36.752584958352,137.14376578889,
381,E1621100054111,堀岡コミュニティセンター,富山県射水市射水町1-17-1,1,,,36.768355933241,137.12539453248,
382,E1621100056111,射水おおぞら保育園,富山県射水市小島516-1,,,,36.737328,137.066783,
383,E1621100057111,大島小学校,富山県射水市小島675-1,1,,,36.733256,137.06563,
384,E1621100058111,大島コミュニティセンター,富山県射水市小島700-1,1,,,36.732311,137.063853,
385,E1621100059111,庄西コミュニティセンター,富山県射水市庄西町1-17-48,1,,,36.789878,137.069332,
386,E1621100061111,旧・中伏木小学校,富山県射水市庄西町2-12-50,1,,,36.784787,137.062207,
387,E1621100062111,ＪＦＥミネラル㈱クロム＆リサイクル事業部体育館,富山県射水市庄西町2-9-38,1,,,36.7864512200875,137.062929647344,
388,E1621100064111,新湊うみいろこども園,富山県射水市庄川本町25-35,1,,,36.783235,137.070306,
389,E1621100065111,塚原保育園,富山県射水市松木633,,,,36.759462,137.065195,
390,E1621100066111,塚原小学校,富山県射水市松木715,1,,,36.759879,137.064385,
391,E1621100067111,塚原コミュニティセンター,富山県射水市松木761,1,,,36.7609,137.063836,
392,E1621100068111,大島体育館,富山県射水市新開発300,1,,,36.731923,137.076286,
393,E1621100069111,大島つばさ保育園,富山県射水市新開発380-1,,,,36.729474,137.077743,
394,E1621100070111,遊ぼ～館（大島中央公園屋内遊具場）,富山県射水市新開発424,,,,36.731153,137.074308,
395,E1621100071111,水戸田保育園,富山県射水市生源寺127-1,,,,36.705551,137.064452,
396,E1621100072111,水戸田コミュニティセンター,富山県射水市生源寺532-3,1,,,36.704289,137.064644,
397,E1621100074111,富山県立新湊高等学校,富山県射水市西新湊21-10,1,,,36.781317,137.075266,
398,E1621100075111,金山コミュニティセンター,富山県射水市青井谷1648,1,,,36.687387,137.075068,
399,E1621100075112,金山小学校,富山県射水市青井谷1648,1,,,36.687606,137.075578,
400,E1621100076111,金山保育園,富山県射水市青井谷8,,,,36.688505,137.076125,
401,E1621100078111,太閤山コミュニティセンター,富山県射水市太閤山8-4-1,1,,,36.70704,137.089388,
402,E1621100079111,太閤山あおい園,富山県射水市太閤山8-4-2,,,,36.706648,137.090096,
403,E1621100080111,大江保育園,富山県射水市大江1464,,,,36.729913,137.115924,
404,E1621100081111,大江コミュニティセンター,富山県射水市大江201,1,,,36.728661,137.117451,
405,E1621100082111,大島農村環境改善センター,富山県射水市大島北野252,1,,,36.748419,137.050867,
406,E1621100084111,大門コミュニティセンター,富山県射水市大門164-2,1,,,36.73416765,137.0478443,
407,E1621100085111,大門総合会館,富山県射水市大門67,1,,,36.733543,137.049701,
408,E1621100087111,池多保育園,富山県射水市池多641,,,,36.688387,137.116876,
409,E1621100089111,放生津保育園,富山県射水市中新湊17-10,,,,36.775582,137.08891,
410,E1621100090111,新湊放生津小学校,富山県射水市中新湊23-10,1,,,36.775522,137.089755,
411,E1621100091111,大門きらら保育園,富山県射水市中村111-1,,,,36.723077,137.055236,
412,E1621100092111,保健センター,富山県射水市中村38,,,,36.723314,137.056386,
413,E1621100093111,千成保育園,富山県射水市中太閤山11-2,,,,36.70249,137.095003,
414,E1621100094111,中太閤山小学校,富山県射水市中太閤山11-3,1,,,36.700339,137.094108,
415,E1621100095111,杉の子保育園,富山県射水市中太閤山11-4,,,,36.700019,137.093503,
416,E1621100096111,太閤山児童館,富山県射水市中太閤山13-3,,,,36.700854,137.096392,
417,E1621100097111,南太閤山コミュニティセンター,富山県射水市中太閤山13-3-1,1,,,36.700545,137.096511,
418,E1621100098111,中太閤山コミュニティセンター,富山県射水市中太閤山19-1,1,,,36.699047,137.087731,
419,E1621100099111,新湊つくりみちこども園,富山県射水市殿村115,,,,36.747961,137.091179,
420,E1621100100111,浅井コミュニティセンター,富山県射水市島1394-1,1,,,36.713469,137.038016,
421,E1621100101111,海老江児童センター,富山県射水市東明東町3-5,,,,36.762775,137.149635,
422,E1621100102111,小杉南中学校,富山県射水市南太閤山1-2,1,,,36.699633,137.096259,
423,E1621100103111,第三あおい幼稚園,富山県射水市南太閤山12-22,,,,36.697167,137.09641,
424,E1621100136111,あいあい保育園,富山県射水市南太閤山17-1-1,,,,36.694537,137.093692,
425,E1621100105111,小杉南福祉交流センター　つな～ぐ,富山県射水市南太閤山3-2-1,,,,36.698236,137.091256,
426,E1621100107111,富山県立大門高等学校,富山県射水市二口1-2,1,,,36.725423,137.063676,
427,E1621100106111,子ども子育て総合支援センター,富山県射水市二口1081,1,,,36.722450485112,137.0492142302,
428,E1621100108111,大門中学校,富山県射水市二口258,1,,,36.72814,137.056265,
429,E1621100109111,二口コミュニティセンター,富山県射水市二口3051,1,,,36.721573,137.05185,
430,E1621100110111,大門総合体育館,富山県射水市二口3142,1,,,36.72609,137.052918,
431,E1621100111111,大門小学校,富山県射水市二口417-1,1,,,36.724916,137.052309,
432,E1621100112111,大門わかば幼稚園,富山県射水市二口427-1,,,,36.724743,137.054874,
433,E1621100116111,東町東部荒屋東部公民館,富山県射水市八幡町2-3-30,,,,36.780534,137.095111,
434,E1621100117111,新湊中学校,富山県射水市八幡町3-14-4,1,,,36.776824,137.093087,
435,E1621100118111,射水市役所布目分庁舎別館,富山県射水市布目1,1,,,36.74465797,137.078461,
436,E1621100119111,片口コミュニティセンター,富山県射水市片口高場175-1,1,,,36.754720267266,137.11733646033,
437,E1621100121111,片口小学校,富山県射水市片口高場48,1,,,36.755292,137.118284,
438,E1621100125111,大島南部保育園,富山県射水市北野1494-2,,,,36.732675,137.054055,
439,E1621100127111,射北中学校,富山県射水市堀岡古明神20,1,,,36.76823,137.136335,
440,E1621100128111,本江コミュニティセンター,富山県射水市本江北142,1,,,36.752994,137.172212,
441,E1621100130111,新湊コミュニティセンター,富山県射水市本町1-12-24,1,,,36.783493,137.075051,
442,E1621100134111,放生津コミュニティセンター,富山県射水市立町10-20,1,,,36.779403,137.088356,
443,E1620900002111,南谷公民館,富山県小矢部市安楽寺248,1,,,36.677328,136.84723,
444,E1620900003111,若林公民館,富山県小矢部市下中1,1,,,36.659116,136.909122,
445,E1620900004111,石動中学校（体育館）,富山県小矢部市観音町4-6,1,,,36.678767,136.863485,
446,E1620900005111,教育センター,富山県小矢部市岩尾滝1073,1,,,36.702146,136.816053,
447,E1620900006111,岩尾滝くつろぎ交流館,富山県小矢部市岩尾滝1240,1,,,36.702433,136.815305,
448,E1620900008111,南部公民館,富山県小矢部市興法寺213-2,1,,,36.608414,136.891853,
449,E1620900010112,荒川公民館,富山県小矢部市芹川184,1,,,36.68833,136.898459,
450,E1620900012111,大谷中学校（体育館）,富山県小矢部市金屋本江630,1,,,36.664873,136.894355,
451,E1620900067111,いなば農協旧正得支店,富山県小矢部市五社381-1,1,,,36.680939,136.915507,
452,E1620900013111,石動小学校（体育館）,富山県小矢部市後谷1151,1,,,36.674021,136.856515,
453,E1620900016111,東部公民館,富山県小矢部市桜町1284,1,,,36.686792,136.875165,
454,E1620900017111,道の駅メルヘンおやべ,富山県小矢部市桜町1535-1,1,,,36.689456,136.876681,
455,E1620900018111,桜町ＪＯＭＯＮパーク,富山県小矢部市桜町字中出1716-1,1,,,36.687647,136.873112,
456,E1620900020112,市民体育館,富山県小矢部市城山町1-1,1,,,36.678732,136.86463,
457,E1620900020111,市民交流プラザ,富山県小矢部市城山町1-1,1,,,36.678177,136.865571,
458,E1620900065111,文化スポーツセンター,富山県小矢部市埴生字八俵2124-1,1,,,36.669393,136.854064,
459,E1620900023111,津沢小学校（体育館）,富山県小矢部市新西222,1,,,36.626347,136.893176,
460,E1620900024113,水島保育所,富山県小矢部市水島109-1,1,,,36.641315,136.901423,
461,E1620900024111,水島スポーツセンター,富山県小矢部市水島109-1,1,,,36.641474,136.901053,
462,E1620900024112,水島公民館,富山県小矢部市水島109-1,1,,,36.640744,136.900852,
463,E1620900025111,大谷小学校（体育館）,富山県小矢部市水牧10,1,,,36.671517,136.898373,
464,E1620900026111,ＳＴ物流サービス㈱小矢部物流センター,富山県小矢部市水牧123,1,,,36.66783519,136.8950689,
465,E1620900028111,津沢コミュニティプラザ（津沢公民館含む）,富山県小矢部市清水369-1,1,,,36.625759,136.901611,
466,E1620900029111,となみ野高等学校,富山県小矢部市清水95-1,1,,,36.61897,136.901601,
467,E1620900030111,津沢中学校（体育館）,富山県小矢部市清沢1231,1,,,36.619196,136.89774,
468,E1620900068111,株式会社ゴールドウイン富山本店,富山県小矢部市清沢210,1,,,36.626687,136.896617,
469,E1620900031111,若林運動広場体育館,富山県小矢部市西中209,1,,,36.658479,136.908617,
470,E1620900032111,小矢部園芸高等学校,富山県小矢部市西中210,1,,,36.658793,136.908693,
471,E1620900033111,東部小学校（体育館）,富山県小矢部市西中野320,1,,,36.685676,136.87631,
472,E1620900034111,石動高等学校（体育館）,富山県小矢部市西町6-33,1,,,36.674937,136.861998,
473,E1620900036111,埴生保育所,富山県小矢部市石坂1,1,,,36.659798,136.85146,
474,E1620900037111,埴生公民館,富山県小矢部市石坂65,1,,,36.658275,136.851322,
475,E1620900039111,松沢公民館,富山県小矢部市赤倉106,1,,,36.662554,136.880507,
476,E1620900040111,武道館,富山県小矢部市泉町2-30,1,,,36.672684,136.873372,
477,E1620900043111,㈱北陸ＬＩＸＩＬ製作所　小矢部工場,富山県小矢部市浅地130,1,,,36.63695752,136.8683465,
478,E1620900044113,薮波スポーツセンター,富山県小矢部市浅地672-1,1,,,36.63862,136.874262,
479,E1620900044111,薮波公民館,富山県小矢部市浅地672-1,1,,,36.638525,136.873862,
480,E1620900045111,サイクリングターミナル,富山県小矢部市浅地字浄土寺119-9,1,,,36.622534,136.873831,
481,E1620900049111,東蟹谷公民館,富山県小矢部市藤森5277-1,1,,,36.630372,136.85382,
482,E1620900050111,蟹谷中学校（体育館）,富山県小矢部市藤森60,1,,,36.622511,136.854848,
483,E1620900052111,大和トランスポート㈱　研修センター　あすなろ,富山県小矢部市道坪野869-2,1,,,36.68547904,136.8377308,
484,E1620900053111,正得公民館,富山県小矢部市道明119,1,,,36.680847,136.916865,
485,E1620900055111,石動きらりこども園,富山県小矢部市畠中町9-10,1,,,36.678997,136.875971,
486,E1620900056111,蟹谷こども園,富山県小矢部市平桜6055,1,,,36.636204,136.853406,
487,E1620900057111,蟹谷小学校（体育館）,富山県小矢部市平桜字岡山80,1,,,36.627243,136.847519,
488,E1620900058111,北蟹谷スポーツセンター,富山県小矢部市末友26,1,,,36.633387,136.833797,
489,E1620900059111,北蟹谷公民館,富山県小矢部市末友27,1,,,36.634074,136.834131,
490,E1620900060111,大谷こども園,富山県小矢部市野寺80,1,,,36.665553,136.892111,
491,E1620900061111,宮島公民館,富山県小矢部市了輪18,1,,,36.703425,136.850019,
492,E1620900062111,農村環境改善センター,富山県小矢部市鷲島38-1,1,,,36.659857,136.87796,
493,E1632200014112,山加積公民館,富山県上市町黒川112,,,,36.716959780697,137.39600693629,土砂災害警戒区域内施設
494,E1632200026121,上市老人保健福祉施設つるぎの庭,富山県上市町森尻704,,,高齢者等,36.718024499074,137.35498521981,
495,E1632200011111,上市町体育センター,富山県上市町稗田35-3,1,,,36.695560035666,137.35373003256,「洪水」は利用不適
496,E1634300002111,朝日町文化体育センター　サンリーナ,富山県朝日町越306,1,,,36.944274942048,137.56466661593,
497,E1634300061111,さみさと小学校,富山県朝日町沼保770,1,,,36.955835,137.562012,
498,E1634300078111,あさひ野小学校,富山県朝日町藤塚31,1,,,36.919146,137.559128,
499,E1620800001111,砺波市多世代交流施設しょうとう,富山県砺波市安川1616,,地震、土砂災害時避難可能施設,,36.62790923,137.0106877,
500,E1620800003111,栴檀山体育館,富山県砺波市井栗谷6552,1,地震、水害時避難可能施設,,36.59858558,137.0326121,
501,E1620800003112,栴檀山農村集落センター,富山県砺波市井栗谷6552,1,地震、水害時避難可能施設,,36.59831857,137.0325853,
502,E1620800005111,砺波市文化会館,富山県砺波市花園町1-32,1,「洪水時」２階以上に避難,,36.6407943,136.9606681,
503,E1620800005112,砺波市農村環境改善センター,富山県砺波市花園町1-32,1,「洪水時」２階以上に避難,,36.64123245,136.9606255,
504,E1620800006111,油田体育館,富山県砺波市宮丸466-4,1,,,36.65582255,136.9683035,
505,E1620800007111,せんだんのＨＩＬＬ,富山県砺波市宮森新159,1,,,36.647984,137.028122,
506,E1620800007112,栴檀野農村振興会館,富山県砺波市宮森新159,1,,,36.64776202,137.0282909,
507,E1620800008111,若林地区農業集落センター若林公民館,富山県砺波市狐島186,,,,36.65279455,136.9216624,
508,E1620800010111,若林体育館,富山県砺波市狐島208-1,,,,36.65317589,136.9221659,
509,E1620800011111,夢の平コスモス荘,富山県砺波市五谷160,,,,36.58745332,137.0213597,
510,E1620800013111,五鹿屋公民館,富山県砺波市五郎丸1119-1,,,,36.6091122,136.9650022,
511,E1620800014111,出町中学校武道館,富山県砺波市広上町8-16,,,,36.63394233,136.9479345,
512,E1620800015111,いこいの家たかなみ,富山県砺波市高波753,,,,36.67242627,136.9428604,
513,E1620800016111,高波農業集落センター,富山県砺波市高波839,1,,,36.6748098,136.9413948,
514,E1620800017111,高波体育館,富山県砺波市高波842-2,,,,36.6743866,136.9412629,
515,E1620800018111,麦秋苑,富山県砺波市三郎丸183-2,,,,36.65456203,136.9686317,
516,E1620800019111,あぶらでん認定こども園,富山県砺波市三郎丸213-1,,,,36.65139248,136.9721848,
517,E1620800020111,油田自治振興会館,富山県砺波市三郎丸96,,「洪水時」２階以上に避難,,36.65541585,136.9681708,
518,E1620800021111,南部認定こども園,富山県砺波市鹿島153,,,,36.61172554,136.9511199,
519,E1620800022111,砺波南部小学校,富山県砺波市鹿島161,1,,,36.61241887,136.9512556,
520,E1620800023111,東部保育所,富山県砺波市秋元144-1,,,,36.65170193,136.9946257,
521,E1620800024111,南般若公会堂,富山県砺波市秋元636,,「洪水時」２階以上に避難,,36.65370681,136.9857099,
522,E1620800025111,砺波市出町子供歌舞伎曳山会館,富山県砺波市出町中央5-4,,「洪水時」２階以上に避難,,36.64090002,136.9557891,
523,E1620800026111,林地区振興会館,富山県砺波市小島64,,,,36.65364,136.94332,
524,E1620800027111,庄川ふれあいプラザ,富山県砺波市庄川町金屋1092,,,,36.57304815,136.9956843,
525,E1620800028111,旧東山見児童館,富山県砺波市庄川町金屋1378,,,,36.57224367,136.9906208,
526,E1620800029111,庄川児童館,富山県砺波市庄川町金屋1743,1,,,36.57270633,136.990229,
527,E1620800030111,庄川小学校,富山県砺波市庄川町金屋1748,1,,,36.57289527,136.9898781,
528,E1620800031111,庄川高砂会館,富山県砺波市庄川町金屋岩黒35-1,,,,36.56470728,136.9858815,
529,E1620800032111,庄川親雪体育館,富山県砺波市庄川町五ケ435,,,,36.59416697,136.9759592,
530,E1620800033111,種田コミュニティセンター,富山県砺波市庄川町五ケ436-1,,,,36.59448097,136.9759954,
531,E1620800034111,たねだの舎,富山県砺波市庄川町五ケ436-2,1,,,36.59464,136.97625,
532,E1620800036111,となみ野農業協同組合稲種センター,富山県砺波市庄川町五ケ445-2,,,,36.5949023706563,136.974737092,
533,E1620800091111,東部地区防災センター（庄川コミュニティ消防センター）,富山県砺波市庄川町小牧,,,,36.562354,137.003132,
534,E1620800038111,雄神体育館,富山県砺波市庄川町庄3600-1,,,,36.60259602,137.0007139,
535,E1620800040111,雄神集会センター,富山県砺波市庄川町庄393,,,,36.60412156,137.0012181,
536,E1620800041111,旧雄神保育所,富山県砺波市庄川町庄400,1,,,36.60304594,137.0007874,
537,E1620800043112,青島地区交流館,富山県砺波市庄川町青島3374-2,1,,,36.5806704,136.9861497,
538,E1620800044111,庄川生涯学習センター,富山県砺波市庄川町青島3607,,「洪水時」２階以上に避難,,36.57764462,136.9889882,
539,E1620800045111,庄川体育センター,富山県砺波市庄川町青島3936,,,,36.58047534,136.9891035,
540,E1620800046111,庄川中学校,富山県砺波市庄川町青島3938,1,,,36.58107929,136.9884457,
541,E1620800047111,庄川健康プラザ,富山県砺波市庄川町青島401,1,,,36.5770035047199,136.985827462394,
542,E1620800049111,出町小学校,富山県砺波市深江1-238,1,,,36.63198918,136.9493235,
543,E1620800051111,砺波東部小学校,富山県砺波市千保250,1,「洪水時」２階以上に避難,,36.65009596,136.9789077,
544,E1620800052111,太田認定こども園,富山県砺波市太田1439,,,,36.62876148,136.9893726,
545,E1620800054111,太田公会堂,富山県砺波市太田1568,,,,36.62950157,136.989227,
546,E1620800055111,太田体育館,富山県砺波市太田983,,,,36.62863364,136.9886963,
547,E1620800056111,ちゅうりっぷ認定こども園,富山県砺波市太郎丸2-29-2,,「洪水時」２階以上に避難,,36.63161559,136.9610879,
548,E1620800057111,となみ散居村ミュージアム,富山県砺波市太郎丸80,,,,36.62598463,136.9638888,
549,E1620800058111,鷹栖公民館,富山県砺波市鷹栖1051,,,,36.62871481,136.9253446,
550,E1620800059111,（株）スリーティ運輸ヘルスケァ事業部（２階研修室）,富山県砺波市鷹栖1907,,「洪水時」２階以上に避難,,36.623421885482,136.91728306879,
551,E1620800060111,砺波工業高校（体育館）,富山県砺波市鷹栖285-1,,「洪水時」２階以上に避難,,36.6307806,136.9320486,
552,E1620800061111,鷹栖小学校,富山県砺波市鷹栖490,1,,,36.62694382,136.9275597,
553,E1620800062111,砺波工業（株）,富山県砺波市中央町1-8,,「洪水時」２階以上に避難,,36.639275,136.954499,
554,E1620800064111,庄南小学校,富山県砺波市中野1216,1,「洪水時」２階以上に避難,,36.61607557,136.9844738,
555,E1620800065111,中野振興会館,富山県砺波市中野239,,,,36.60727846,136.9859881,
556,E1620800066111,タワーパートナーズセミコンダクター（株）（３Ｆのみ使用可）,富山県砺波市東開発271,,,,36.6499497387039,137.001802924529,
557,E1620800067111,砺波高校（体育館）,富山県砺波市東幸町3-36,,「洪水時」２階以上に避難,,36.63604141,136.9604831,
558,E1620800068111,Ｂ＆Ｇ海洋センター,富山県砺波市東保20-1,,,,36.65952974,137.028339,
559,E1620800069111,東般若農村振興会館,富山県砺波市東保708,1,,,36.65857201,137.0179134,
560,E1620800070112,般若中学校,富山県砺波市徳万100,1,,,36.63225132,137.0147561,
561,E1620800070111,般若中学校　柔道場,富山県砺波市徳万100,1,,,36.63279147,137.0142823,
562,E1620800071111,般若農業構造改善センター,富山県砺波市徳万56,,,,36.63004428,137.0138424,
563,E1620800072111,富山県砺波青少年自然の家,富山県砺波市徳万字赤坂17-5,,,,36.6231172766747,137.023596314659,
564,E1620800073111,出町中学校,富山県砺波市表町18-29,1,,,36.63454927975,136.948689922413,
565,E1620800074111,出町認定こども園,富山県砺波市表町18-3,,,,36.63566571,136.9508112,
566,E1620800075111,砺波体育センター,富山県砺波市表町18-6,,,,36.6351435861977,136.949607411357,
567,E1620800077111,東野尻振興会館,富山県砺波市苗加4232,,,,36.61883437,136.9414056,
568,E1620800079111,栴檀野体育館,富山県砺波市福岡312,,,,36.64721396,137.0274231,
569,E1620800080111,庄下保育所,富山県砺波市矢木105,,,,36.63529415,136.9700556,
570,E1620800081111,庄下振興会館,富山県砺波市矢木24,,「洪水時」２階以上に避難,,36.63366568,136.9729892,
571,E1620800082111,庄西中学校,富山県砺波市矢木525,1,,,36.63882646,136.9793811,
572,E1620800083111,柳瀬体育館,富山県砺波市柳瀬10,,,,36.6471429,136.9970194,
573,E1620800084111,富山県西部体育センター,富山県砺波市柳瀬241,1,,,36.64246869,137.0004235,
574,E1620800085111,柳瀬農村婦人の家,富山県砺波市柳瀬573,,「洪水時」２階以上に避難,,36.64601305,136.9962594,
575,E1620800086111,庄東小学校,富山県砺波市頼成566,1,「洪水時」２階以上に避難,,36.63509727,137.0105807,
576,E1620800087111,北部認定こども園,富山県砺波市林1086,,,,36.6547869488074,136.945482478304,
577,E1620800088111,砺波北部小学校,富山県砺波市林1104,1,,,36.65253484,136.9438649,
578,E1620800089111,林ふれあい会館,富山県砺波市林858,,,,36.64805918,136.9485703,
579,E1621000002111,福野文化創造センター,富山県南砺市やかた100,,,,36.591357,136.918169,
580,E1621000004111,安居交流センター（安居地区会館）,富山県南砺市安居199-2,,,,36.599404,136.887219,
581,E1621000005111,コミュニティ菅の山,富山県南砺市安居300-1,,,,36.597201,136.886484,
582,E1621000007111,高瀬ふれあい体育館,富山県南砺市安清3174,,,,36.564062,136.9298,
583,E1621000008111,井口保育園,富山県南砺市井口116,,,,36.540955,136.928477,
584,E1621000009111,井口体験交流センター,富山県南砺市井口字持掛谷35,,,,36.526651,136.941048,
585,E1621000153111,井波市民センター,富山県南砺市井波520,,,,36.564959,136.9716,
586,E1621000013111,井波社会福祉センター,富山県南砺市井波521,,,,36.565315,136.971809,
587,E1621000014111,井波中学校体育館,富山県南砺市井波700-1,1,,,36.567018,136.972399,
588,E1621000015111,井波社会体育館,富山県南砺市井波700-110,,,,36.566999,136.97173,
589,E1621000016111,旅川福祉交流館,富山県南砺市院林82-1,,,,36.59148,136.910262,
590,E1621000018111,旅川体育館,富山県南砺市院林82-4,,,,36.591116,136.911099,
591,E1621000019111,なんと農業協同組合五箇山支店,富山県南砺市下梨2045,,,,36.4330552,136.9477,
592,E1621000021111,平若者センター「春光荘」（平交流センター）,富山県南砺市下梨2271,,,,36.432689,136.95096,
593,E1621000022111,平みどり保育園,富山県南砺市下梨2580,,,,36.433574,136.953022,
594,E1621000023111,平中学校体育館,富山県南砺市下梨446,1,,,36.431843,136.943763,
595,E1621000024111,上平小学校体育館,富山県南砺市皆葎1573,1,,,36.402344,136.924195,
596,E1621000025111,山野保育園,富山県南砺市岩屋155,1,,,36.581908,136.958452,
597,E1621000163111,温浴施設３７ＢＡＳＥ,富山県南砺市岩屋16-1,,,,36.57885,136.95564,
598,E1621000027111,福野北部体育館,富山県南砺市岩武新111,,,,36.609737,136.920105,
599,E1621000028111,いのくち椿館,富山県南砺市宮後188,1,,,36.543185,136.928442,
600,E1621000030111,なんと農業協同組合本店,富山県南砺市金戸268-1,1,,,36.5172703,136.8952,
601,E1621000032111,福野南部交流センター（玉成会館）,富山県南砺市広安333-3,,,,36.573168,136.916666,
602,E1621000033111,福野南部コミュニティセンター,富山県南砺市広安338-2,,,,36.573108,136.917022,
603,E1621000037111,福光東部かがやき保育園,富山県南砺市荒木1305-1,,,,36.5576775,136.8803801,
604,E1621000035111,福光東部小学校体育館,富山県南砺市荒木456,1,,,36.556028,136.888171,
605,E1621000036111,福光東部体育館,富山県南砺市荒木460,,,,36.556389,136.88624,
606,E1621000034111,吉江交流センター,富山県南砺市荒木5382-1,,,,36.55923,136.878981,
607,E1621000038111,吉江中学校体育館,富山県南砺市荒木581,1,,,36.55703,136.883039,
608,E1621000041111,高瀬交流センター,富山県南砺市高瀬724-2,,,,36.565666,136.948184,
609,E1621000043111,南蟹谷体育館,富山県南砺市砂子谷1441,1,,,36.592018,136.807954,
610,E1621000044111,南蟹谷交流センター,富山県南砺市砂子谷1500,,,,36.592112,136.808655,
611,E1621000045111,西太美交流センター,富山県南砺市才川七1744-3,1,,,36.526569,136.847071,
612,E1621000155113,笹嶋工業本社（旧社屋）,富山県南砺市三ツ屋28,1,,,36.584789,136.8918,
613,E1621000155112,笹嶋工業本社（新社屋）,富山県南砺市三ツ屋28,1,,,36.584345,136.8918,
614,E1621000046111,井波小学校体育館,富山県南砺市山見1368,1,,,36.565861,136.96256,
615,E1621000047111,井波総合文化センター,富山県南砺市山見1400,1,,,36.567412,136.963906,
616,E1621000048111,井波コミュニティプラザ「アスモ」（井波交流センター）,富山県南砺市山見1739-2,,,,36.566,136.968538,
617,E1621000050111,認定こども園井波にじいろ保育園,富山県南砺市山見2000-14,,,,36.566034,136.967038,
618,E1621000051111,福野体育館,富山県南砺市寺家321-1,,,,36.587489,136.916298,
619,E1621000053111,福野おひさま保育園,富山県南砺市柴田屋209,,,,36.596082,136.914305,
620,E1621000054112,南砺つばき学舎第１体育館,富山県南砺市蛇喰1001,1,,,36.541246,136.928541,
621,E1621000054111,南砺つばき学舎第２体育館,富山県南砺市蛇喰1001,1,,,36.54214,136.928762,
622,E1621000154111,井口市民センター（井口交流センター）,富山県南砺市蛇喰1009,,,,36.542095,136.9303,
623,E1621000161111,旧北山田保育園,富山県南砺市宗守458,,,,36.555263369662,136.9047790731,
624,E1621000055111,北山田交流センター,富山県南砺市宗守458-1,1,,,36.555693,136.904866,
625,E1621000056111,福光南部あおぞら保育園,富山県南砺市小坂694-8,,,,36.533956,136.857402,
626,E1621000057111,福光南部小学校体育館,富山県南砺市小坂708,1,,,36.532562,136.857579,
627,E1621000157111,ぬく森の郷（新館）,富山県南砺市小又311,1,,,36.567803,136.8137,
628,E1621000059111,上平高齢者コミュニティセンター「ことぶき館」,富山県南砺市上平細島1110,,,,36.401983,136.901641,
629,E1621000158111,上平市民センター,富山県南砺市上平細島879,,,,36.401754,136.8996,
630,E1621000060111,上梨コミュニティセンター,富山県南砺市上梨640,,,,36.411426,136.930703,
631,E1621000061112,城端市民センター,富山県南砺市城端1046,,,,36.512201,136.9005,
632,E1621000061111,城端伝統芸能会館,富山県南砺市城端1046,,,,36.512721,136.900365,
633,E1621000063111,城端小学校体育館,富山県南砺市城端1610,,,,36.511735,136.896975,
634,E1621000065111,城端別院善徳寺庫裏,富山県南砺市城端405,1,,,36.5162298,136.9014,
635,E1621000065112,城端別院善徳寺本堂,富山県南砺市城端405,1,,,36.5156134,136.9011,
636,E1621000066111,城端勤労青少年ホーム（城端交流センター）,富山県南砺市城端969-1,,,,36.51351,136.9008,
637,E1621000067111,なんと農業協同組合旧上平事務所,富山県南砺市新屋3,,,,36.3840141,136.8743,
638,E1621000068111,高瀬西交流センター,富山県南砺市森清3148,,,,36.563444,136.930257,
639,E1621000070111,みどり館,富山県南砺市菅沼855,,,,36.401981,136.88012,
640,E1621000072111,上平交流センター,富山県南砺市西赤尾町277,,,,36.38164439531,136.87184345883,
641,E1621000074111,上平自然環境活用センター「ささら館」,富山県南砺市西赤尾町72-1,,,,36.37747,136.87135,
642,E1621000075111,南山見交流センター,富山県南砺市川原崎15,1,,,36.552828,136.955037,
643,E1621000076111,石黒交流センター,富山県南砺市川西385,1,,,36.570738,136.86636,
644,E1621000077111,城端中学校体育館,富山県南砺市泉沢700,1,,,36.506725,136.894212,
645,E1621000079111,広瀬舘交流センター,富山県南砺市祖谷28-1,,,,36.540084,136.852498,
646,E1621000082111,五箇山青少年ふるさとセンター,富山県南砺市相倉163,,,,36.425166,136.935955,
647,E1621000083111,太美山交流センター,富山県南砺市太美1,,,,36.504512,136.847869,
648,E1621000085111,大鋸屋交流センター別館,富山県南砺市大鋸屋120,1,,,36.499294,136.900742,
649,E1621000086111,大鋸屋交流センター,富山県南砺市大鋸屋123,,,,36.498961,136.900165,
650,E1621000087112,旧山田保育園,富山県南砺市大塚60,1,,,36.539178201293,136.889111768,
651,E1621000087111,山田交流センター,富山県南砺市大塚60,1,,,36.539257,136.888697,
652,E1621000088111,南砺平高等学校体育館,富山県南砺市大島1203,,,,36.431311,136.953859,
653,E1621000102111,広瀬交流センター,富山県南砺市竹内241,1,,,36.552815,136.857727,
654,E1621000091111,東太美交流センター,富山県南砺市土生新522-3,,,,36.529335,136.863396,
655,E1621000092111,上平保育園,富山県南砺市東赤尾10,,,,36.383302,136.874298,
656,E1621000095111,たいらマウンテンスクール,富山県南砺市東中江790,1,,,36.44197,136.97228,
657,E1621000096111,福野児童センター「アルカス」,富山県南砺市二日町435-1,,,,36.594552,136.917783,
658,E1621000097111,福野小学校第１体育館,富山県南砺市二日町50,1,,,36.596066,136.915778,
659,E1621000097112,福野小学校第２体育館,富山県南砺市二日町50,1,,,36.59595,136.915027,
660,E1621000099111,山野交流センター,富山県南砺市飛騨屋20,,,,36.581859,136.957167,
661,E1621000100111,福野ひまわり保育園,富山県南砺市百町101-1,,,,36.590123,136.931678,
662,E1621000101111,福野東部体育館,富山県南砺市百町5-1,,,,36.58668,136.935976,
663,E1621000001112,南砺福野高等学校セミナーハウス（志学館）,富山県南砺市苗島443,1,,,36.589139238292,136.92910451864,
664,E1621000001113,南砺福野高等学校第２体育館,富山県南砺市苗島443,1,,,36.590468,136.928505,
665,E1621000001115,南砺福野高等学校第１体育館,富山県南砺市苗島443,1,,,36.590585,136.928098,
666,E1621000103111,福野Ｂ＆Ｇ海洋センター,富山県南砺市苗島4799,,,,36.587309,136.917032,
667,E1621000160111,福野市民センター,富山県南砺市苗島4880,,,,36.58798,136.9194,
668,E1621000104111,アクティブ東石黒,富山県南砺市布袋43-3,,,,36.578167,136.893039,
669,E1621000105111,福野西部交流センター,富山県南砺市布袋48-1,,,,36.578882,136.89322,
670,E1621000108111,福光青少年センター,富山県南砺市福光1137,,,,36.557837,136.870298,
671,E1621000108112,福光交流センター,富山県南砺市福光1137,,,,36.557893,136.869796,
672,E1621000110111,福光児童館「きっずらんど」,富山県南砺市福光1269-1,,,,36.552297,136.870647,
673,E1621000112111,楽蔵グリーンモール福光,富山県南砺市福光288-1,1,,,36.564176647353,136.87052189814,
674,E1621000113111,福光どんぐり保育園,富山県南砺市福光381-1,,,,36.564825,136.869188,
675,E1621000114111,福光福祉会館,富山県南砺市福光5260,,,,36.557624,136.87061,
676,E1621000115111,福光体育館,富山県南砺市福光616,,,,36.559395,136.863871,
677,E1621000117111,福光中学校体育館,富山県南砺市福光720,1,,,36.559663,136.863051,
678,E1621000118112,福野中学校第１体育館,富山県南砺市福野1339,1,,,36.59116,136.92466,
679,E1621000118113,福野中学校第２体育館,富山県南砺市福野1339,1,,,36.590893,136.925379,
680,E1621000120111,福光中部小学校体育館,富山県南砺市法林寺1,1,,,36.562213,136.861786,
681,E1621000121111,福光西部体育館,富山県南砺市法林寺18-2,,,,36.561093,136.861304,
682,E1621000123111,井波八乙女体育館,富山県南砺市北川166-1,,,,36.569708,136.971177,
683,E1621000126111,北野交流センター,富山県南砺市北野1193-1,,,,36.52825,136.918768,
684,E1621000128111,蓑谷交流センター,富山県南砺市蓑谷1167,1,,,36.509335,136.919694,
685,E1621000130111,福野北部交流センター（近思会館）,富山県南砺市野尻652-2,,,,36.604282,136.918959,
686,E1621000132111,福野東部交流センター（東部会館）,富山県南砺市野新393,,,,36.583218,136.934138,
687,E1621000133111,南山田交流センター,富山県南砺市野田1369,,,,36.522036,136.900647,
688,E1621000134111,城端西部体育館,富山県南砺市野田78-2,,,,36.517669,136.895195,
689,E1621000152111,利賀市民センター（利賀交流センター）,富山県南砺市利賀村171,,,,36.457523,137.0263,
690,E1621000135112,複合教育施設「アーパス」体育館,富山県南砺市利賀村184,1,,,36.456164,137.029292,
691,E1621000135111,利賀交流センター,富山県南砺市利賀村184,1,,,36.455981,137.029743,
692,E1621000136111,旧利賀小学校下原分校,富山県南砺市利賀村下原384,,,,36.528714,136.988463,
693,E1621000138111,利賀ささゆり保育園,富山県南砺市利賀村坂上33,,,,36.429564,137.005352,
694,E1621000142111,利賀中村体育館,富山県南砺市利賀村上百瀬50,,,,36.440004,137.038475,
695,E1621000146111,豆谷体験学習集会施設,富山県南砺市利賀村北豆谷2,,,,36.472782,137.032274,
696,E1621000147111,城端さくら保育園,富山県南砺市理休240,,,,36.513678,136.909224,
697,E1621000148111,城端東部体育館,富山県南砺市理休429,,,,36.512947,136.906053,
698,E1621000149111,桜ヶ池クアガーデン,富山県南砺市立野原東1184,,,,36.499841,136.871876,
699,E1621000150111,桜ヶ池農産物直売所,富山県南砺市立野原東1509,,,,36.500856,136.87167,
700,E1634200003111,小摺戸地区公民館,富山県入善町一宿622-1,1,,,36.89795748,137.5083834,
701,E1634200006112,横山地区交流防災センター,富山県入善町横山81,1,,,36.95510511,137.5185794,
702,E1634200006111,勤労者総合スポーツ施設【サンビレッジ】,富山県入善町横山81,1,,,36.95524657,137.5179839,
703,E1634200013111,舟見交流センター,富山県入善町舟見1863,1,,,36.88352191,137.5509796,
704,E1634200014111,社会体育館,富山県入善町舟見1870,1,,,36.88408022,137.5514929,
705,E1634200015111,ひばり野保育所,富山県入善町舟見584-1,1,,,36.89118725,137.5481185,
706,E1634200016111,ひばり野小学校,富山県入善町舟見590-1,1,,,36.89161463,137.5477427,
707,E1634200018111,こあら保育所,富山県入善町小摺戸394,1,,,36.89834276,137.5179218,
708,E1634200019111,黒東小学校,富山県入善町小摺戸402,1,,,36.89952339,137.5176813,
709,E1634200024111,上青小学校,富山県入善町上野210,1,,,36.9292464,137.4865588,
710,E1634200025111,さわすぎ保育所,富山県入善町上野255-1,1,,,36.9302861,137.488232,
711,E1634200026121,おあしす新川,富山県入善町上野2803,1,,要配慮者等,36.92449222,137.5024998,
712,E1634200027111,老人福祉センター,富山県入善町上野403-2,1,,,36.9305351,137.4916949,
713,E1634200028111,入善西中学校,富山県入善町上野549,1,,,36.92869751,137.4921164,
714,E1634200029111,産業展示会館,富山県入善町上野777-1,1,,,36.93294274,137.4919179,
715,E1634200032111,新屋公民館,富山県入善町新屋2541,1,,,36.89752999,137.522575,
716,E1634200035111,広域働く婦人の家,富山県入善町青木170-1,1,,,36.92441836,137.4814053,
717,E1634200037111,いいの保育所,富山県入善町東狐101-1,1,,,36.923822,137.45671,
718,E1634200038111,飯野小学校,富山県入善町東狐171,1,,,36.92402995,137.4591428,
719,E1634200039111,飯野コミュニティ防災センター,富山県入善町東狐171-1,1,,,36.92437303,137.4604142,
720,E1634200040111,勤労者福祉センター,富山県入善町入膳2973-10,1,,,36.93504355,137.5004553,
721,E1634200041111,町民会館,富山県入善町入膳3200,1,,,36.93416853,137.5016598,
722,E1634200042111,にゅうぜん保育所,富山県入善町入膳3837-1,1,,,36.936445947993,137.50383224542,
723,E1634200043111,入善小学校,富山県入善町入膳3945,1,,,36.93586875,137.5048504,
724,E1634200044111,入善高等学校（体育館・武道場・同窓会館・グラウンド）,富山県入善町入膳3963,1,,,36.93366766,137.505413,
725,E1634200045111,児童センター,富山県入善町入膳4517-3,1,,,36.93642107,137.5061967,
726,E1634200046111,屋内多目的施設,富山県入善町入膳456,1,,,36.923535477032,137.5059730572,
727,E1634200047111,総合体育館,富山県入善町入膳468,1,,,36.92406345,137.5040404,
728,E1634200048111,入善中学校,富山県入善町入膳4849,1,,,36.93816699,137.5068943,
729,E1634200050111,うるおい館,富山県入善町入膳5232-5,1,,,36.9385786,137.501385,
730,E1634200057111,野中地区交流センター,富山県入善町野中410,1,,,36.90378075,137.5461178,
731,E1634200061111,椚山公民館,富山県入善町椚山3529-1,1,,,36.93738913,137.5164186,
732,E1634200063111,桃李小学校,富山県入善町椚山813,1,,,36.94384619,137.5177597,
733,E1634200064111,とうり保育所,富山県入善町椚山846-1,1,,,36.942694,137.516465,
734,E1620500001111,海峰小学校,富山県氷見市阿尾1015,1,,,36.88473196,136.9879434,
735,E1620500011111,氷見市ふれあいスポーツセンター,富山県氷見市鞍川43-1,1,,,36.85272228,136.97424,
736,E1620500019111,八代自治会館,富山県氷見市磯辺14-1,1,,,36.91907109,136.949472,
737,E1620500021111,旧一刎小学校,富山県氷見市一刎721,1,,,36.91391384,136.9275955,
738,E1620500023111,氷見市稲積公民館,富山県氷見市稲積1281,1,,,36.87493424,136.9758702,
739,E1620500027111,旧灘浦小学校,富山県氷見市宇波1194,1,,,36.91604797,137.0098348,
740,E1620500039111,北部中学校,富山県氷見市加納135,1,,,36.8717517,136.971342,
741,E1620500041111,加納地域まちづくりセンター,富山県氷見市加納3693,1,,,36.86423085,136.969729,
742,E1620500062111,窪小学校,富山県氷見市窪1237,1,,,36.83898746,136.9911219,
743,E1620500079111,氷見高等学校,富山県氷見市幸町17-1,1,,,36.85349285,136.9800555,
744,E1620500097111,速川公民館（旧速川小学校）,富山県氷見市小久米93,1,,,36.84829383,136.9050734,
745,E1620500098111,灘浦小学校,富山県氷見市小境1420,1,,,36.91985973,137.0250209,
746,E1620500100111,西の杜学園,富山県氷見市小窪1379,1,,,36.85501381,136.9088449,
747,E1620500112111,碁石公民館,富山県氷見市上余川330,1,,,36.8865613,136.92864,
748,E1620500114111,久目地区交流館（旧久目小学校）,富山県氷見市触坂501,1,,,36.83115248,136.8904544,
749,E1620500126111,上庄小学校,富山県氷見市泉338,1,,,36.86678751,136.9430652,
750,E1620500130111,仏生寺公民館,富山県氷見市惣領1927,1,,,36.79742782,136.9432546,
751,E1620500145111,明和公民館（旧明和小学校）,富山県氷見市谷屋19,1,,,36.8697746,136.9118203,
752,E1620500162112,南部中学校,富山県氷見市朝日丘3-1,1,,,36.85011159,136.9804829,
753,E1620500162111,朝日丘小学校,富山県氷見市朝日丘3-1,1,,,36.85016012,136.9807467,
754,E1620500169111,赤毛コミュニティセンター,富山県氷見市坪池12-2,1,,,36.79917536,136.8732604,
755,E1620500175111,宮田小学校,富山県氷見市島尾258,1,,,36.82006017,137.0048128,
756,E1620500184111,十三中学校,富山県氷見市飯久保1406,1,,,36.80824132,136.9568948,
757,E1620500185111,十三公民館,富山県氷見市飯久保168,1,,,36.80863723,136.9573717,
758,E1620500186111,湖南小学校,富山県氷見市飯久保473,1,,,36.80938445,136.9635147,
759,E1620500193111,比美乃江小学校,富山県氷見市北大町13-50,1,,,36.86203543,136.9814816,
760,E1620500205111,十二町小学校,富山県氷見市万尾485,1,,,36.83264776,136.9588077,
761,E1620500210111,西條中学校,富山県氷見市柳田3223,1,,,36.8298442,137.0054968,
762,E1620500215111,余川公民館,富山県氷見市余川1180,1,,,36.88220683,136.9523261,
763,E1620100002111,旧安野屋小学校体育館,富山県富山市安野屋町1-1-42,1,,,36.69424,137.202615,
764,E1620100003111,庵谷地区公民館,富山県富山市庵谷575-1,1,,,36.508709,137.229834,
765,E1620100007111,奥田中学校,富山県富山市奥井町25-10,1,,,36.701854,137.225706,
766,E1620100008111,奥田小学校,富山県富山市奥田双葉町10-18,1,,,36.708122,137.221155,
767,E1620100009111,岡田公民館（旧上滝公民館岡田分館）,富山県富山市岡田781,1,,,36.582746,137.326586,
768,E1620100011111,興南中学校,富山県富山市下熊野728,1,,,36.634278,137.212192,
769,E1620100012111,奥田北小学校,富山県富山市下新北町3-72,1,,,36.719318,137.220611,
770,E1620100013111,大久保ふれあいセンター,富山県富山市下大久保1776-1,1,,,36.605104,137.208066,
771,E1620100014111,大久保小学校,富山県富山市下大久保2430,1,,,36.604529,137.204395,
772,E1620100015111,富山市民球場,富山県富山市下飯野30-1,1,,,36.730608,137.262086,
773,E1620100016111,富山東高校,富山県富山市下飯野荒田6-1,1,,,36.74095,137.256756,
774,E1620100017111,大山社会体育館,富山県富山市花崎378,1,,,36.611271,137.290665,
775,E1620100018111,大山総合体育センター,富山県富山市花崎386,1,,,36.610713,137.290695,
776,E1620100021111,蟹寺地区公民館,富山県富山市蟹寺153,1,,,36.461964,137.24361,
777,E1620100022111,富山県漕艇場,富山県富山市岩稲20-1,1,,,36.54777,137.226946,
778,E1620100023111,岩稲地区公民館,富山県富山市岩稲419,1,,,36.549843,137.224815,
779,E1620100024111,岩瀬小学校,富山県富山市岩瀬御蔵町1,1,,,36.754188,137.230574,
780,E1620100029111,富山短期大学,富山県富山市願海寺444,1,,,36.721183,137.139494,
781,E1620100316111,富山国際大学付属高等学校,富山県富山市願海寺水口444,1,,,36.722039,137.140475,
782,E1620100032111,熊野小学校,富山県富山市宮保602,1,,,36.629346,137.221072,
783,E1620100036111,富山総合支援学校,富山県富山市金屋4982,1,,,36.69228,137.165585,
784,E1620100037111,営農サポートセンター,富山県富山市月岡町3-101,1,,,36.634142,137.251327,
785,E1620100039111,古沢小学校,富山県富山市古沢501,1,,,36.691601,137.141257,
786,E1620100040111,中央小学校,富山県富山市五番町4-35,1,,,36.686964,137.219482,
787,E1620100041111,西部中学校,富山県富山市五福130,1,,,36.703321,137.190003,
788,E1620100042111,富山工業高校,富山県富山市五福2238,1,,,36.698519,137.193533,
789,E1620100043111,富山大学五福キャンパス,富山県富山市五福3190,1,,,36.699312,137.186103,
790,E1620100045111,五福小学校,富山県富山市五福4431-2,1,,,36.70228029,137.184582,
791,E1620100048111,富山大学附属小・中学校,富山県富山市五艘1300,1,,,36.705228,137.194911,
792,E1620100049111,呉羽高校,富山県富山市呉羽町2070-5,1,,,36.716828,137.161363,
793,E1620100050111,富山市民芸術創造センター,富山県富山市呉羽町2247-3,1,,,36.71697407,137.1647623,
794,E1620100051111,呉羽小学校,富山県富山市呉羽町6171,1,,,36.713886,137.169028,
795,E1620100052111,呉羽中学校,富山県富山市呉羽町6662,1,,,36.712375,137.164895,
796,E1620100054111,富山県技術専門学院,富山県富山市向新庄町1-14-48,1,,,36.700538,137.262473,
797,E1620100055111,富山第一高校,富山県富山市向新庄町5-1-54,1,,,36.706625,137.265264,
798,E1620100058111,新庄中学校,富山県富山市荒川5-4-18,1,,,36.694394,137.253705,
799,E1620100060111,神明小学校,富山県富山市高田147-2,1,,,36.686201,137.184558,
800,E1620100064111,大沢野小学校,富山県富山市高内144,1,,,36.577642,137.206353,
801,E1620100066111,萩浦小学校,富山県富山市高畠町2-11-28,1,,,36.74643,137.229759,
802,E1620100071111,船峅小学校,富山県富山市坂本1733,1,,,36.585483,137.223966,
803,E1620100072111,富山高等支援学校,富山県富山市坂本2600,1,,,36.586411,137.214291,
804,E1620100073111,船峅公民館,富山県富山市坂本482,1,,,36.583688,137.221539,
805,E1620100076111,笹津会館,富山県富山市笹津495,1,,,36.562368,137.213234,
806,E1620100077111,山室中学校,富山県富山市山室30-1,1,,,36.668552,137.240693,
807,E1620100079111,山室中部小学校,富山県富山市山室荒屋162-2,1,,,36.67185,137.253602,
808,E1620100081111,東部地区集会場（沢連）,富山県富山市山田宿坊823,1,,,36.583455,137.097037,
809,E1620100082111,西部地区集会場（清水）,富山県富山市山田清水7,1,,,36.589492,137.049224,
810,E1620100083111,山田交流促進センター,富山県富山市山田赤目谷145,1,,,36.579935,137.064937,
811,E1620100084111,南部地区集会場（谷）,富山県富山市山田谷425,1,,,36.551109,137.063537,
812,E1620100085111,山田総合体育センター,富山県富山市山田中瀬2,1,,,36.587471,137.084196,
813,E1620100086111,山田公民館,富山県富山市山田湯880,1,,,36.580053,137.080844,
814,E1620100087111,山田小・中学校,富山県富山市山田北山41,1,,,36.5847,137.080571,
815,E1620100089111,四方小学校,富山県富山市四方405,1,,,36.754912,137.195478,
816,E1620100093111,富山中部高校,富山県富山市芝園町3-1-26,1,,,36.695882,137.203698,
817,E1620100093112,芝園小学校,富山県富山市芝園町3-1-26,1,,,36.69669,137.204492,
818,E1620100093113,芝園中学校,富山県富山市芝園町3-1-26,1,,,36.697035,137.204354,
819,E1620100096111,猿倉コミュニティセンター,富山県富山市舟新81-1,1,,,36.560027,137.220895,
820,E1620100097111,下タ南部公民館（体育館）,富山県富山市舟渡66,1,,,36.470854,137.242972,
821,E1620100097112,下タ南部公民館,富山県富山市舟渡66,1,,,36.471098,137.24289,
822,E1620100098111,大沢野健康福祉センター（ウインディ）,富山県富山市春日96-1,1,,,36.561304,137.20223,
823,E1620100099111,旧小羽小学校（体育館）,富山県富山市小羽279,1,,,36.56497,137.189973,
824,E1620100100111,小羽公民館,富山県富山市小羽361,1,,,36.564573,137.191424,
825,E1620100101111,小見小学校,富山県富山市小見250,1,,,36.574347,137.384049,
826,E1620100103111,富山商業高校,富山県富山市庄高田413,1,,,36.693026,137.188356,
827,E1620100104111,月岡小学校,富山県富山市上千俵町500,1,,,36.622538,137.252915,
828,E1620100107111,旧大沢野北部地区福祉センター,富山県富山市上大久保187,1,,,36.586493,137.207665,
829,E1620100108111,上滝小学校,富山県富山市上滝517,1,,,36.609758,137.30096,
830,E1620100113111,新庄小学校,富山県富山市新庄町1-6-30,1,,,36.702115,137.251822,
831,E1620100115111,新庄北小学校,富山県富山市新庄本町2-4-11,1,,,36.711098,137.26298,
832,E1620100119111,雄峰高校,富山県富山市神通町2-12-10,1,,,36.701221,137.20677,
833,E1620100120111,針原小学校,富山県富山市針原中町523-1,1,,,36.729686,137.267702,
834,E1620100122111,富山学園,富山県富山市針日225,1,,,36.759721,137.260375,
835,E1620100125111,水橋中学校,富山県富山市水橋舘町443,1,,,36.75095,137.307017,
836,E1620100130111,三成小学校,富山県富山市水橋小路345,1,,,36.721096,137.292954,
837,E1620100131111,水橋東部小学校,富山県富山市水橋上桜木114,1,,,36.739732,137.324639,
838,E1620100133111,三成中学校,富山県富山市水橋石割70,1,,,36.722435,137.312816,
839,E1620100136111,旧上条小学校（体育館）,富山県富山市水橋石割99,1,,,36.72648514,137.31410801,
840,E1620100139111,水橋中部小学校,富山県富山市水橋町568,1,,,36.751667,137.307042,
841,E1620100141111,水橋西部小学校,富山県富山市水橋辻ヶ堂1919-2,1,,,36.752123,137.300039,
842,E1620100144111,富山大学杉谷キャンパス,富山県富山市杉谷2630,1,,,36.679788,137.141932,
843,E1620100145111,旧星井町小学校（体育館）,富山県富山市星井町2-7-29,1,,,36.684585,137.212977,
844,E1620100147111,旧清水町小学校（体育館）,富山県富山市清水町8-1-1,1,,,36.685612,137.224024,
845,E1620100148111,池多小学校,富山県富山市西押川1442,1,,,36.682891,137.120061,
846,E1620100149111,富山県呉羽青少年自然の家,富山県富山市西金屋8194,1,,,36.69551872,137.1507305,
847,E1620100150111,西笹津集落センター,富山県富山市西笹津258,1,,,36.556704,137.21581,
848,E1620100154111,西田地方小学校,富山県富山市西田地方町1-1-25,1,,,36.685099,137.20642,
849,E1620100155111,南部中学校,富山県富山市西田地方町2-10-10,1,,,36.682767,137.206632,
850,E1620100158111,東部小学校,富山県富山市石金1-5-44,1,,,36.69039,137.235636,
851,E1620100159111,龍谷富山高校,富山県富山市赤江町2-10,1,,,36.701249,137.219021,
852,E1620100161111,蜷川小学校,富山県富山市赤田75-1,1,,,36.654223,137.222151,
853,E1620100163111,大庄小学校,富山県富山市善名453,1,,,36.619067,137.279102,
854,E1620100167111,旧総曲輪小学校（体育館）,富山県富山市総曲輪4-4-7,1,,,36.690442,137.209585,
855,E1620100168111,草島小学校,富山県富山市草島93,1,,,36.745307,137.208025,
856,E1620100169111,太田小学校,富山県富山市太田14-2,1,,,36.653771,137.25095,
857,E1620100170111,富山高校,富山県富山市太郎丸1,1,,,36.672595,137.217398,
858,E1620100171111,富山視覚総合支援学校,富山県富山市大江干144,1,,,36.693803,137.267844,
859,E1620100174111,大泉中学校,富山県富山市大泉東町2-11-26,1,,,36.678994,137.228325,
860,E1620100176111,山室小学校,富山県富山市中市2-10-5,1,,,36.678746,137.240125,
861,E1620100178111,上滝中学校,富山県富山市中滝160,1,,,36.610404,137.292513,
862,E1620100179111,月岡中学校,富山県富山市中布目156,1,,,36.617282,137.251912,
863,E1620100180111,老田小学校,富山県富山市中老田317,1,,,36.707771,137.131882,
864,E1620100181111,細入南部公民館,富山県富山市猪谷851-1,1,,,36.473022,137.238392,
865,E1620100182111,猪谷関所館,富山県富山市猪谷978-4,1,,,36.471344,137.239315,
866,E1620100183111,長岡小学校,富山県富山市長岡9420,1,,,36.719782,137.189089,
867,E1620100184111,東部中学校,富山県富山市長江新町4-4-60,1,,,36.691451,137.242943,
868,E1620100185111,２０００年体育館,富山県富山市天正寺1400,1,,,36.680758,137.249973,
869,E1620100186111,桜谷小学校,富山県富山市田刈屋279,1,,,36.708279,137.199077,
870,E1620100187111,大広田小学校,富山県富山市田畑183,1,,,36.754252,137.252846,
871,E1620100189111,不二越工業高校,富山県富山市東石金町7-5,1,,,36.68511,137.238726,
872,E1620100190111,高朋高校,富山県富山市東富山寿町1-1-39,1,,,36.748776,137.252949,
873,E1620100192111,北部中学校,富山県富山市東富山寿町2-4-52,1,,,36.747919,137.249548,
874,E1620100193111,大山農村環境改善センター,富山県富山市東福沢1818,1,,,36.601655,137.254396,
875,E1620100194111,福沢小学校,富山県富山市東福沢46-4,1,,,36.603436,137.256935,
876,E1620100195111,藤ノ木小学校,富山県富山市藤木1246,1,,,36.686873,137.26815,
877,E1620100197111,広田小学校,富山県富山市鍋田22-53,1,,,36.713522,137.246989,
878,E1620100199111,光陽小学校,富山県富山市二口町1-4-1,1,,,36.673155,137.203756,
879,E1620100200111,日尾公民館（旧瀬戸集落センター）,富山県富山市日尾214-1,1,,,36.57709716998,137.27353321958,
880,E1620100201111,藤ノ木中学校,富山県富山市日俣222,1,,,36.691873,137.273544,
881,E1620100202111,新保小学校,富山県富山市任海888-2,1,,,36.634606,137.194799,
882,E1620100203111,旧八人町小学校（体育館）,富山県富山市八人町5-17,1,,,36.693392,137.217295,
883,E1620100205111,八幡小学校,富山県富山市八幡670,1,,,36.740874,137.196146,
884,E1620100206111,八尾スポーツアリーナ,富山県富山市八尾町井田101,1,,,36.601364,137.143735,
885,E1620100232111,八尾中学校,富山県富山市八尾町井田120-1,1,,,36.599681,137.14345,
886,E1620100208111,八尾コミュニティセンター,富山県富山市八尾町井田126,1,,,36.600419,137.143599,
887,E1620100209111,卯花公民館,富山県富山市八尾町下笹原42-1,1,,,36.564306,137.149697,
888,E1620100207111,八尾小学校,富山県富山市八尾町下笹原5320,1,,,36.576042,137.137924,
889,E1620100210111,八尾ゆめの森交流施設（中山間地活性化施設）,富山県富山市八尾町下笹原678-1,1,,,36.568937,137.140706,
890,E1620100211111,旧黒瀬谷公民館,富山県富山市八尾町樫尾162,1,,,36.571063,137.159632,
891,E1620100212111,桐谷防雪センター,富山県富山市八尾町桐谷2055,1,,,36.521121,137.181925,
892,E1620100213111,保内小学校,富山県富山市八尾町高善寺162,1,,,36.611102,137.136991,
893,E1620100214111,杉原小学校,富山県富山市八尾町黒田3636,1,,,36.600206,137.162715,
894,E1620100215111,仁歩公民館,富山県富山市八尾町三ッ松14-1,1,,,36.529579,137.097151,
895,E1620100216111,旧樫尾小学校,富山県富山市八尾町小長谷349,1,,,36.57542036,137.1550643,
896,E1620100217111,黒瀬谷公民館,富山県富山市八尾町小長谷352,1,,,36.575525,137.154166,
897,E1620100218111,八尾曳山展示館,富山県富山市八尾町上新町2898-1,1,,,36.576115,137.130619,
898,E1620100219111,保内公民館,富山県富山市八尾町新田101,1,,,36.605835,137.131552,
899,E1620100220111,野積公民館,富山県富山市八尾町水口242,1,,,36.548828,137.124731,
900,E1620100221111,杉原公民館,富山県富山市八尾町大杉12,1,,,36.601385,137.162867,
901,E1620100223111,室牧公民館,富山県富山市八尾町中242,1,,,36.570998,137.111785,
902,E1620100224111,八尾公民館,富山県富山市八尾町東町2108-10,1,,,36.5766724466199,137.136300654138,
903,E1620100225111,八尾ふらっと館,富山県富山市八尾町東町2149,1,,,36.578377,137.138104,
904,E1620100226111,大長谷交流センター,富山県富山市八尾町内名88,1,,,36.479269,137.080362,
905,E1620100227111,林業総合センター,富山県富山市八尾町梅苑町1-95-1,1,,,36.570275,137.136845,
906,E1620100227112,八尾農村環境改善センター,富山県富山市八尾町梅苑町1-95-1,1,,,36.570067,137.13743,
907,E1620100228111,広畑防雪センター,富山県富山市八尾町布谷1467-7,1,,,36.517951,137.114728,
908,E1620100229111,八尾行政サービスセンター,富山県富山市八尾町福島200,1,,,36.582861,137.137643,
909,E1620100230111,八尾高校,富山県富山市八尾町福島213,1,,,36.585078,137.130456,
910,E1620100233111,大沢野中学校,富山県富山市八木山550,1,,,36.590554,137.214272,
911,E1620100237111,浜黒崎小学校,富山県富山市浜黒崎3301-2,1,,,36.758354,137.27871,
912,E1620100241111,古里小学校,富山県富山市婦中町羽根43,1,,,36.655772,137.128327,
913,E1620100242111,古里公民館,富山県富山市婦中町羽根6,1,,,36.655346,137.127686,
914,E1620100244111,朝日公民館,富山県富山市婦中町下条281,1,,,36.674721,137.15117,
915,E1620100245111,朝日小学校,富山県富山市婦中町下条5518,1,,,36.67729,137.151804,
916,E1620100246111,しらとり支援学校,富山県富山市婦中町下邑2877,1,,,36.658931,137.127413,
917,E1620100247111,城山中学校,富山県富山市婦中町河原町561-5,1,,,36.64494,137.12249,
918,E1620100248111,婦中体育館音川分館,富山県富山市婦中町外輪野5230-1,1,,,36.629091,137.091937,
919,E1620100249111,音川小学校,富山県富山市婦中町外輪野5959,1,,,36.629737,137.094535,
920,E1620100250111,音川公民館,富山県富山市婦中町外輪野6324-1,1,,,36.629582,137.09371,
921,E1620100251111,宮川公民館,富山県富山市婦中町広田4178,1,,,36.622423,137.168305,
922,E1620100253111,神保小学校,富山県富山市婦中町高日附820,1,,,36.637099,137.135286,
923,E1620100254113,速星公民館,富山県富山市婦中町砂子田1-1,1,,,36.655822,137.163897,
924,E1620100254111,婦中体育館,富山県富山市婦中町砂子田1-1,1,,,36.654542,137.164155,
925,E1620100254112,婦中ふれあい館,富山県富山市婦中町砂子田1-1,1,,,36.655317,137.163895,
926,E1620100255111,速星公民館笹倉分館,富山県富山市婦中町笹倉433,1,,,36.66294,137.155858,
927,E1620100256111,神保公民館,富山県富山市婦中町上吉川403-1,1,,,36.638592,137.137184,
928,E1620100258111,鵜坂公民館,富山県富山市婦中町上田島18-1,1,,,36.669214,137.173742,
929,E1620100259111,鵜坂小学校,富山県富山市婦中町上田島68,1,,,36.668976,137.175487,
930,E1620100260111,婦中中央児童館,富山県富山市婦中町速星750-2,1,,,36.660122,137.160186,
931,E1620100261111,速星小学校,富山県富山市婦中町速星752,1,,,36.660884,137.159507,
932,E1620100262111,富山西高校,富山県富山市婦中町速星926,1,,,36.658545,137.164169,
933,E1620100263111,宮野小学校,富山県富山市婦中町地角399,1,,,36.630532,137.171727,
934,E1620100264111,婦中武道館,富山県富山市婦中町長沢428,1,,,36.645372,137.12311,
935,E1620100266111,速星中学校,富山県富山市婦中町板倉345-1,1,,,36.655306,137.164843,
936,E1620100267111,婦中熊野公民館,富山県富山市婦中町堀657,1,,,36.637931,137.168879,
937,E1620100268111,富山南高校,富山県富山市布市98,1,,,36.648532,137.237129,
938,E1620100270111,下タ北部公民館,富山県富山市布尻991,1,,,36.522055,137.232258,
939,E1620100273111,和合中学校,富山県富山市布目3967,1,,,36.749191,137.186049,
940,E1620100274111,倉垣小学校,富山県富山市布目4002,1,,,36.749091,137.191121,
941,E1620100276111,文珠寺公民館,富山県富山市文珠寺1300-4,1,,,36.603303,137.294895,
942,E1620100277111,東富山体育館,富山県富山市米田16-2,1,,,36.736956,137.247597,
943,E1620100278111,豊田小学校,富山県富山市米田2-1,1,,,36.729921,137.242089,
944,E1620100279111,片掛地区公民館,富山県富山市片掛1981-1,1,,,36.491155,137.235826,
945,E1620100314111,牧公民館,富山県富山市牧814,1,,,36.569757,137.354698,
946,E1620100284111,堀川小学校,富山県富山市堀川小泉町1-13-10,1,,,36.677019,137.220885,
947,E1620100286111,富山いずみ高校,富山県富山市堀川小泉町1-21-1,1,,,36.674841,137.220985,
948,E1620100287111,堀川中学校,富山県富山市堀川小泉町1-21-15,1,,,36.674792,137.222787,
949,E1620100289111,大山Ｂ＆Ｇ海洋センター体育館,富山県富山市本宮12,1,,,36.576731,137.432457,
950,E1620100291111,寒江小学校,富山県富山市本郷中部427,1,,,36.729679,137.153007,
951,E1620100292111,富山高等専門学校,富山県富山市本郷町13,1,,,36.650964,137.24413,
952,E1620100294111,堀川南小学校,富山県富山市本郷町282-3,1,,,36.663666,137.230448,
953,E1620100295111,総合体育館,富山県富山市湊入船町12-1,1,,,36.706757,137.214031,
954,E1620100298111,柳町小学校,富山県富山市柳町4-2-26,1,,,36.694607,137.223095,
955,E1620100301111,岩瀬中学校,富山県富山市蓮町4-3-10,1,,,36.742902,137.233021,
956,E1620100302111,富山北部高校,富山県富山市蓮町4-3-20,1,,,36.742437,137.234619,
957,E1620100303111,楜ヶ原集落センター,富山県富山市楜ケ原626-1,1,,,36.583075,137.284898,
958,E1620100305111,細入公民館,富山県富山市楡原1128,1,,,36.528619,137.229736,
959,E1620100306111,楡原公民館,富山県富山市楡原1280-1,1,,,36.532728,137.230925,
960,E1620100307111,神通碧小学校・楡原中学校,富山県富山市楡原405,1,,,36.53588,137.232867,
961,E1632300002111,町営立山芦峅体育館,富山県立山町芦峅寺8,1,,,36.577459526301,137.3842439735,
962,E1632300003111,芦峅公民館,富山県立山町芦峅寺86-1,1,,,36.582874,137.393264,
963,E1632300056111,立山コミュニティ消防センター,富山県立山町芦峅寺字ブナ坂50-3,,,,36.582099,137.444227,
964,E1632300005111,国立登山研修所,富山県立山町芦峅寺字ブナ坂6,,,,36.584364,137.446876,
965,E1632300006111,立山砂防事務所　別館,富山県立山町芦峅寺字ブナ坂61,,,,36.581791,137.445007,
966,E1632300007111,東峯地区集落センター,富山県立山町伊勢屋50,,,,36.614804,137.373412,
967,E1632300008111,立山友情館,富山県立山町榎1,,,,36.648787,137.321147,
968,E1632300009111,下段公民館,富山県立山町榎43,1,,,36.648505,137.32002,
969,E1632300010111,横江公民館,富山県立山町横江3,,,,36.58259058,137.3354748,
970,E1632300011111,あおぞら保育園,富山県立山町横沢1,1,,,36.684814,137.303353,
971,E1632300012112,上東地域活性化センター,富山県立山町下白岩16,1,,,36.652721,137.351337,
972,E1632300012111,町営上東体育館,富山県立山町下白岩16,1,,,36.653170965118,137.3508506928,
973,E1632300013111,岩峅保育所,富山県立山町岩峅寺105-8,1,,,36.606985,137.323574,
974,E1632300014111,岩峅公民館,富山県立山町岩峅寺21,1,,,36.607595,137.319469,
975,E1632300015111,立山小学校,富山県立山町宮路5,1,,,36.602842,137.323421,
976,E1632300016112,中央体育センター,富山県立山町向新庄123,1,,,36.648099,137.314023,
977,E1632300016111,立山町武道館,富山県立山町向新庄123,1,,,36.647713,137.313616,
978,E1632300017111,高野公民館,富山県立山町江崎113,,洪水時は2階以上に避難,,36.668659,137.330152,
979,E1632300018111,みどりの森保育園,富山県立山町高原八ツ屋108,1,,,36.656733,137.293047,
980,E1632300019111,新瀬戸公民館,富山県立山町新瀬戸19,,,,36.631168,137.340348,
981,E1632300020111,大森公民館,富山県立山町西大森1412,1,,,36.649563,137.292292,
982,E1632300021111,千垣公民館,富山県立山町千垣594-2,,,,36.574341,137.368748,
983,E1632300022111,グリ－ンビュー立山,富山県立山町千寿ケ原1,,,,36.58354233,137.4434317,
984,E1632300023111,元気交流ステーション,富山県立山町前沢1169,1,,,36.665343,137.314402,
985,E1632300023121,元気交流ステーション,富山県立山町前沢1169,1,,要配慮者,36.665353,137.314612,
986,E1632300024111,雄山高等学校,富山県立山町前沢1437-1,1,,,36.6653,137.309479,
987,E1632300025121,立山町防災児童館複合施設,富山県立山町前沢2385,,,要配慮者,36.663486,137.313705,
988,E1632300025112,立山町防災児童館複合施設,富山県立山町前沢2385,,,,36.663486,137.313705,
989,E1632300027111,五百石公民館,富山県立山町前沢2469,1,,,36.663507,137.315823,
990,E1632300029111,かがやき保育園,富山県立山町前沢2543-1,,,,36.661522,137.314454,
991,E1632300031111,立山中央小学校,富山県立山町前沢3051,1,,,36.655759,137.315666,
992,E1632300032111,雄山中学校,富山県立山町前沢3318,1,,,36.655962,137.313475,
993,E1632300034111,大日町公民館,富山県立山町蔵本新179-1,,,,36.6643,137.294036,
994,E1632300036111,立山町東谷農山村滞在施設,富山県立山町谷口1-1,,,,36.655707,137.355623,
995,E1632300037112,町営谷口体育館,富山県立山町谷口43,,,,36.654359389582,137.35807454598,
996,E1632300037111,立山町文化情報発信ステーション,富山県立山町谷口43,,,,36.65403802882,137.35804335093,
997,E1632300038111,谷口公民館,富山県立山町谷口7-2,,,,36.655877,137.355973,
998,E1632300039111,高原保育園,富山県立山町竹林45,1,洪水時は2階以上に避難,,36.678813,137.338165,
999,E1632300040111,町営新瀬戸体育館,富山県立山町中林241,1,,,36.630866779744,137.34200534312,
1000,E1632300041111,釜ケ渕小学校,富山県立山町道源寺685,1,,,36.630093,137.322569,
1001,E1632300042111,釜ケ渕公民館,富山県立山町道源寺900,1,,,36.634057,137.320768,
1002,E1632300043111,立山北部小学校,富山県立山町二ッ塚168,1,,,36.686492,137.316072,
1003,E1632300044111,新川公民館,富山県立山町二ッ塚85-5,,,,36.687907,137.316146,
1004,E1632300045111,町営日中上野体育館,富山県立山町日中上野80,1,,,36.660392725455,137.35046544181,
1005,E1632300046111,日中上野公民館,富山県立山町日中上野82,,,,36.660914,137.349446,
1006,E1632300048111,立山町消防署,富山県立山町米沢36,,,,36.661973,137.319351,
1007,E1632300050111,立山町総合公園,富山県立山町野沢1,1,,,36.658303,137.343758,
1008,E1632300051111,高野小学校,富山県立山町野町120,1,洪水時は2階以上に避難,,36.668069,137.331479,
1009,E1632300052111,利田公民館,富山県立山町利田1080,,洪水時は2階以上に避難,,36.681559,137.293541,
1010,E1632300053111,利田小学校,富山県立山町利田722,1,洪水時は2階以上に避難,,36.682091,137.292992,
