NO,共通ID,施設・場所名,住所,指定緊急避難場所との住所同一,その他市町村長が必要と認める事項,受入対象者,緯度,経度,備考
1,E1820800038121,社会福祉法人　緑進会特別養護老ホーム芦原メロン苑,福井県あわら市井江葭50-18,,,要配慮者,36.24031,136.218442,
2,E1820800002111,あわら市本荘小学校,福井県あわら市下番7-1,1,,,36.206267082913,136.19541023928,
3,E1820800004111,あわら市金津小学校,福井県あわら市花乃杜1-20-1,1,,,36.217592631852,136.22535562449,
4,E1821000050121,金津サンホーム,福井県あわら市花乃杜3-22-12,,,要配慮者,36.22233,136.224013,
5,E1820800041121,社会福祉法人　金津福祉会金津サンホーム,福井県あわら市花乃杜3-22-12,,,要配慮者,36.222183,136.224152,
6,E1820800006111,あわら市多目的共同利用施設さくらセンター,福井県あわら市柿原36-20,1,,,36.233589107834,136.23580962101,
7,E1820800007111,あわら市吉崎小学校,福井県あわら市吉崎8-55,1,,,36.286777679199,136.25391003202,
8,E1820800008111,熊坂農村環境改善センター,福井県あわら市熊坂42-20,1,,,36.23405718794,136.28787356148,
9,E1820800009111,あわら市農業者トレーニングセンター,福井県あわら市国影23-1,1,,,36.227916856886,136.20695448749,
10,E1820800010111,トリムパークかなづ,福井県あわら市山室67-60-1,1,,,36.216429574803,136.24960537157,
11,E1820800011111,あわら市金津中学校,福井県あわら市市姫1-5-1,1,,,36.209519241838,136.23216462298,
12,E1820800033111,あわら市中央公民館,福井県あわら市市姫1-9-18,1,,,36.212528,136.230962,
13,E1820800036121,医療法人　至捷会ナイスケア木村,福井県あわら市市姫3-23-4,,,要配慮者,36.208984,136.228607,
14,E1820800013111,福井県立金津高等学校,福井県あわら市市姫4-5-1,1,,,36.207880034106,136.22792477998,
15,E1820800037121,社会福祉法人　坂井福祉会ウエルネス木村,福井県あわら市自由ヶ丘2-15-23,,,要配慮者,36.21814,136.23558,
16,E1820800016111,あわら市芦原中学校,福井県あわら市舟津2-75,1,,,36.235059444803,136.19266685647,
17,E1820800015111,あわら市武道館,福井県あわら市舟津2-81,1,,,36.233192,136.19206,
18,E1820800018111,あわら市金津こども園,福井県あわら市春宮3-24-20,1,,,36.219363786751,136.23001389788,
19,E1820800035121,あわら市社会福祉協議会金津雲雀ケ丘寮,福井県あわら市春宮3-28-21,,,要配慮者,36.21992,136.227486,
20,E1820800020111,あわら市伊井小学校,福井県あわら市清間13-24,1,,,36.197261234151,136.24818931442,
21,E1820800021111,あわら市細呂木小学校,福井県あわら市滝63-8,1,,,36.238926142503,136.2535989205,
22,E1820800022111,あわら市金津東小学校,福井県あわら市中川18-10,1,,,36.196935035781,136.2689427203,
23,E1820800023111,あわら市新郷小学校,福井県あわら市中浜1-1,1,,,36.209844718883,136.17828716222,
24,E1820800024111,あわら市芦原小学校,福井県あわら市田中々2-25,1,,,36.221699877184,136.194286401,
25,E1820800034111,あわら市湯のまち公民館,福井県あわら市二面32-16,1,,,36.222469,136.194611,
26,E1820800039121,社会福祉法人　緑進会地域密着型介護老福祉施設湯の町メロン苑,福井県あわら市二面42-20,,,要配慮者,36.226734,136.19487,
27,E1820800040121,社会福祉法人　ハスの実の家,福井県あわら市二面87-26-2,,,要配慮者,36.239877,136.197681,
28,E1820800027111,あわら市波松小学校,福井県あわら市波松25-1,1,,,36.261805119252,136.20179744432,
29,E1820800028111,浜坂区民館,福井県あわら市浜坂4-5,1,,,36.286665309578,136.2467798393,
30,E1820800029111,あわら市北潟公民館,福井県あわら市北潟150-1,1,,,36.259155594739,136.22582235284,
31,E1820800030111,あわら市北潟小学校,福井県あわら市北潟35-11,1,,,36.264195576896,136.22301874735,
32,E1820800031111,あわら市剱岳公民館,福井県あわら市椚第18-10,1,,,36.202527569369,136.28449018202,
33,E1848300003111,佐分利小学校,福井県おおい町鹿野21-22-1,1,,,35.45117383721,135.57184048346,
34,E1848300004111,ふるさと交流センター,福井県おおい町鹿野42-27,1,,,35.453054,135.565565,
35,E1848300009111,総合町民体育館,福井県おおい町成和2-1-1,1,,,35.483592711844,135.61193365113,
36,E1848300011111,大島小学校,福井県おおい町大島60-6,1,,,35.527788486196,135.64604833862,
37,E1848300013111,はまかぜ交流センター（しーまいる）,福井県おおい町大島90-27,1,,,35.524559859118,135.64263957992,
38,E1848300015111,総合町民福祉センター,福井県おおい町本郷136-1-1,1,,,35.481329585621,135.6172596946,
39,E1848300016111,本郷小学校,福井県おおい町本郷80-7,1,,,35.472388650746,135.62262060119,
40,E1848300017121,いきいき長寿村（あみーシャン大飯）,福井県おおい町本郷82-14,1,,要配慮者,35.473365833444,135.62347169066,
41,E1848300019111,やまびこ会館,福井県おおい町万願寺27-81,1,,,35.456743131402,135.59987962698,
42,E1848300022111,ふれあいぬくもりセンター,福井県おおい町名田庄下78-2,,,,35.407528008236,135.6440888657,
43,E1848300023111,里山文化交流センター（ぶらっと）,福井県おおい町名田庄久坂3-21-1,1,,,35.399643248185,135.68177988776,
44,E1848300024111,さきやま会館,福井県おおい町名田庄三重47-48,1,,,35.405794922453,135.68394590066,
45,E1848300025111,名田庄中学校,福井県おおい町名田庄小倉2-9,1,,,35.403007653573,135.66597143142,
46,E1848300027111,名田庄小学校,福井県おおい町名田庄小倉6-1,1,,,35.402736556684,135.66730717151,
47,E1848300028111,久田の里交流センター,福井県おおい町名田庄虫鹿野3-5-1,1,,,35.39966,135.700469,
48,E1848300029111,流星館コンベンションホール,福井県おおい町名田庄納田終120-8,1,,,35.3946755592,135.587428318,
49,E1848300030111,大飯中学校,福井県おおい町野尻57-1,1,,,35.461981275168,135.60832279629,
50,E1832200001111,志比北小学校,福井県永平寺町岩野2-1,1,,,36.0958080139706,136.360893075359,
51,E1832200002111,永平寺生活改善センター,福井県永平寺町吉波23-10-33,1,,,36.0950379991,136.361385,
52,E1832200003121,志比北幼児園,福井県永平寺町吉波23-8-1,,,福祉施設又は医療機関に入所又は入院するに至らない在宅の要配慮者で一般避難所で特別な配慮を必要とする町が特定した者,36.095873,136.361763,
53,E1832200004111,上志比中学校,福井県永平寺町栗往波16-47,1,,,36.075249,136.39583,
54,E1832200005111,上志比小学校,福井県永平寺町栗往波26-15,1,,,36.071916,136.398969,
55,E1832200006111,永平寺緑の村ふれあいセンター,福井県永平寺町山10-1,1,,,36.0915668530445,136.325575101354,
56,E1832200038111,上志比公民館,福井県永平寺町山王24-9,,,,36.079636,136.39328,
57,E1832200008111,志比南小学校,福井県永平寺町市野々1-11,1,,,36.070387,136.326558,
58,E1832200009121,志比南幼児園,福井県永平寺町市野々2-19-1,,,福祉施設又は医療機関に入所又は入院するに至らない在宅の要配慮者で一般避難所で特別な配慮を必要とする町が特定した者,36.069498,136.327797,
59,E1832200010111,松岡多目的集会センター（ざおう荘）,福井県永平寺町松岡吉野25-18,1,,,36.072173,136.296059,
60,E1832200011111,吉野小学校,福井県永平寺町松岡吉野26-3,1,,,36.0730448189318,136.295750670733,
61,E1832200034121,松岡福祉総合センター（翠荘）,福井県永平寺町松岡吉野堺15-44,,,福祉施設又は医療機関に入所又は入院するに至らない在宅の要配慮者で一般避難所で特別な配慮を必要とする町が特定した者,36.087248,136.297597,
62,E1832200013112,松岡中学校,福井県永平寺町松岡吉野堺61-10-1,1,,,36.0863196668469,136.299669384274,
63,E1832200013111,松岡中学校武道場,福井県永平寺町松岡吉野堺61-10-1,1,,,36.086795,136.299871,
64,E1832200014121,御陵幼児園,福井県永平寺町松岡兼定島38-6,,,福祉施設又は医療機関に入所又は入院するに至らない在宅の要配慮者で一般避難所で特別な配慮を必要とする町が特定した者,36.106817,136.289206,
65,E1832200015111,御陵小学校,福井県永平寺町松岡兼定島39-15,1,,,36.1079737057381,136.289463107126,
66,E1832200016111,福井県立大学体育館,福井県永平寺町松岡兼定島4-1-1,1,,,36.1082066212361,136.27718268631,
67,E1832200016112,福井県立大学交流センター,福井県永平寺町松岡兼定島4-1-1,1,,,36.1085620037367,136.278132188309,
68,E1832200017111,松岡ふるさと学習館,福井県永平寺町松岡松ケ原4-803,1,,,36.093141,136.28764,
69,E1832200019111,松岡公民館,福井県永平寺町松岡神明1-129,1,,,36.093886,136.300768,
70,E1832200020111,松岡小学校,福井県永平寺町松岡神明3-132,1,,,36.0909990173674,136.300422618846,
71,E1832200039111,永平寺町立図書館,福井県永平寺町松岡神明3-89-1,,,,36.091896,136.300018,
72,E1832200035121,やすらぎの郷,福井県永平寺町石上15-44,,,福祉施設又は医療機関に入所又は入院するに至らない在宅の要配慮で一般避難所で特別な配慮を必要とする町が特定した者,36.072031,136.400502,
73,E1832200024111,上志比文化会館サンサンホール,福井県永平寺町石上29-67-1,1,,,36.07075,136.403239,
74,E1832200025111,志比小学校,福井県永平寺町谷口1-70,1,,,36.094606,136.334279,
75,E1832200028111,永平寺中学校,福井県永平寺町東古市22-46,1,,,36.098772,136.328724,
76,E1832200029121,永平寺老人福祉センター（永寿苑）,福井県永平寺町飯島6-34,,,福祉施設又は医療機関に入所又は入院するに至らない在宅の要配慮者で一般避難所で特別な配慮を必要とする町が特定した者,36.089855,136.356645,
77,E1820900001111,越前市いまだて芸術館,福井県越前市粟田部町11-1-1,1,,,35.91873680856,136.24743286226,
78,E1820900122111,花筐公民館・児童館,福井県越前市粟田部町41-11-1,1,,,35.913966,136.241056,
79,E1820900002111,花筐小学校,福井県越前市粟田部町41-12,1,,,35.914179871116,136.23967554318,
80,E1820900004111,瓜生水と緑公園体育館,福井県越前市瓜生町19-7-1,1,,,35.926682,136.183401,
81,E1820900009111,コミュニティーセンター柳荘,福井県越前市家久町105-10-1,1,,,35.920463237519,136.17190049834,
82,E1820900013111,越前市今立体育センター,福井県越前市岩本町1-9,1,,,35.909886343311,136.24068746522,
83,E1820900022111,神山小学校,福井県越前市広瀬町102-43,1,,,35.88537915048,136.1356486696,
84,E1820900110111,神山公民館,福井県越前市広瀬町102-55-2,1,,,35.88588,136.135578,
85,E1820900028111,大虫小学校,福井県越前市高森町14-15,1,,,35.906207730044,136.1414242853,
86,E1820900033111,国高小学校,福井県越前市国高1-15-5,1,,,35.912326042695,136.1854113661,
87,E1820900112111,国高公民館,福井県越前市国高2-324-13,1,,,35.911359,136.189841,
88,E1820900037111,武生東小学校,福井県越前市国府2-9-12,1,,,35.908562052505,136.16804062214,
89,E1820900037112,武生東公民館,福井県越前市国府2-9-12,1,,,35.909004,136.167799,
90,E1820900038111,王子保小学校,福井県越前市今宿町5-14,1,,,35.865845341026,136.16821963423,
91,E1820900040111,武生第六中学校,福井県越前市四郎丸町16-1,1,,,35.865806299599,136.15864229706,
92,E1820900116111,王子保公民館,福井県越前市四郎丸町65-2-1,1,,,35.867465,136.168878,
93,E1820900049111,北日野小学校,福井県越前市小野谷町2-2,1,,,35.889224638386,136.1902613122,
94,E1820900124111,南中山公民館・児童館,福井県越前市西庄境町21-7-1,1,,,35.929197,136.248169,
95,E1820900053111,万葉中学校,福井県越前市西尾谷町48-18,1,,,35.892126377929,136.21309123085,
96,E1820900057111,武生第三中学校,福井県越前市村国2-3-56,1,地震時のみ開設,,35.905996237314,136.17507573516,
97,E1820900114111,大虫公民館・大虫体育館,福井県越前市丹生郷町13-20-1,1,,,35.907671,136.141524,
98,E1820900067111,味真野小学校,福井県越前市池泉町9-1,1,,,35.891024201288,136.2328395459,
99,E1820900126111,越前市武道館,福井県越前市中央1-8-15,1,,,35.900936,136.156507,
100,E1820900068111,武生西小学校,福井県越前市中央2-2-13,1,,,35.902421569683,136.15729100651,
101,E1820900107111,武生西公民館,福井県越前市中央2-5-35,1,,,35.902104,136.156535,
102,E1820900071111,岡本小学校,福井県越前市定友町10-15,1,,,35.915028677542,136.24446073897,
103,E1820900123111,"岡本公民館
（今立生涯学習センター）",福井県越前市定友町10-2-2,1,,,35.913823,136.244871,
104,E1820900072111,白山小学校,福井県越前市都辺町24-2,1,,,35.888217094802,136.05390707556,
105,E1820900073111,武生第五中学校,福井県越前市都辺町36-73,1,,,35.888702203371,136.05637728531,
106,E1820900121111,白山公民館,福井県越前市都辺町36-84,1,,,35.887877,136.055768,
107,E1820900115111,坂口公民館,福井県越前市湯谷町24-18-1,1,,,35.8599,136.08711,
108,E1820900075111,坂口小学校,福井県越前市湯谷町24-25,1,,,35.858872093839,136.08670581933,
109,E1820900076111,服間小学校,福井県越前市藤木町12-11,1,,,35.935633868944,136.26443362756,
110,E1820900125111,"服間公民館
（服間改善センター）",福井県越前市藤木町12-39-1,1,,,35.934705,136.263773,
111,E1820900113111,福井県立武生高等学校,福井県越前市八幡1-25-15,1,,,35.910569,136.175706,
112,E1820900108111,武生南公民館,福井県越前市武生柳町12-27,1,,,35.895308,136.164081,
113,E1820900083111,武生南小学校,福井県越前市武生柳町13-20,1,,,35.89435160146,136.16422381619,
114,E1820900109111,"福井県立武生商工高等学校
工業キャンパス",福井県越前市文京1-14-16,1,,,35.888981,136.162321,
115,E1820900085111,武生第一中学校,福井県越前市平出1-6-1,1,,,35.908154143041,136.15784998379,
116,E1820900094111,北新庄小学校,福井県越前市北町47-6,1,,,35.913951680512,136.21063030393,
117,E1820900118111,北新庄公民館・北新庄体育館,福井県越前市北町54-25,1,,,35.912676,136.211048,
118,E1820900119111,福井県立武生東高等学校,福井県越前市北町89-10,1,,,35.908127,136.217516,
119,E1820900099111,吉野小学校,福井県越前市本保町17-1,1,,,35.9262783918,136.15663151837,
120,E1820900111111,吉野公民館,福井県越前市本保町19-6,1,,,35.92643,136.158283,
121,E1820900120111,味真野公民館,福井県越前市味真野町7-2-1,1,,,35.887386,136.226679,
122,E1820900102111,武生第二中学校,福井県越前市妙法寺町42-15,1,,,35.887235077995,136.1608302766,
123,E1820900104111,南越中学校,福井県越前市野岡町28-4,1,,,35.926345068397,136.24915000127,
124,E1820900117111,北日野公民館・北日野体育館,福井県越前市矢放町21-11,1,,,35.88965,136.188679,
125,E1820900106111,丹南総合公園体育館,福井県越前市余田町50-4-1,1,,,35.929862,136.154163,
126,E1842300005111,越前町営織田勤労者体育館,福井県越前町下河原37-16-6,,,,35.950037,136.057137,
127,E1842300007111,越前町立織田中学校,福井県越前町下河原37-2-10,,,,35.949138,136.054111,
128,E1842300014111,越前町立宮崎中学校,福井県越前町樫津20-20,,,,35.936969,136.087651,
129,E1842300019111,越前町立朝日中学校,福井県越前町気比庄51-5-1,,,,35.979839,136.133913,
130,E1842300021111,朝日体育館,福井県越前町気比庄57-57,,,,35.979807,136.130841,
131,E1842300031111,越前町立宮崎小学校,福井県越前町江波122-1,,,,35.940567,136.075195,
132,E1842300032111,宮崎コミュニティセンター,福井県越前町江波50-80-1,,,,35.94604,136.076183,
133,E1842300034111,宮崎中央保育所,福井県越前町江波67-14,1,,,35.9440886573494,136.074800341857,
134,E1842300043111,越前町立萩野小学校,福井県越前町細野73-23,,,,35.977979,136.06208,
135,E1842300055111,越前町立四ケ浦小学校,福井県越前町小樟42-175,1,,,35.945911,135.990154,
136,E1842300063111,越前陶芸村文化交流会館,福井県越前町小曽原7-8,,,,35.933042,136.059614,
137,E1842300065111,越前町生涯学習センター糸生分館,福井県越前町小倉89-53,,,,35.994111,136.094642,
138,E1842300071111,越前町立糸生小学校,福井県越前町上糸生81-19,,,,35.996515,136.084486,
139,E1842300078111,越前町織田保健福祉センター,福井県越前町織田106-51-1,,,,35.957273,136.047852,
140,E1842300079111,織田農村環境改善センター,福井県越前町織田109-57,,,,35.956869,136.048378,
141,E1842300083111,織田コミュニティセンター,福井県越前町織田36-1,,,,35.960955,136.056119,
142,E1842300097111,越前町営アクティブランド体育館,福井県越前町厨71-326-1,1,,,35.919554,135.99687,
143,E1842300101111,越前町立図書館,福井県越前町西田中2-210,,,,35.976872,136.136728,
144,E1842300104111,越前町立常磐小学校,福井県越前町青野20-9,,,,35.961972,136.113118,
145,E1842300108111,越前町立織田小学校,福井県越前町大王丸20-17,,,,35.957074,136.045346,
146,E1842300110111,越前町立越前中学校,福井県越前町大樟14-19,1,,,35.93779,135.997614,
147,E1842300117111,越前町朝日Ｂ＆Ｇ海洋センター体育館,福井県越前町朝日22-35,,,,35.970376,136.118075,
148,E1842300121111,越前町立朝日小学校,福井県越前町天王5-7,,,,35.981263,136.129387,
149,E1842300128111,越前コミュニティセンター,福井県越前町道口1-24-1,,,,35.936177,135.99633,
150,E1842300131111,越前町生涯学習センター,福井県越前町内郡13-19-3,,,,35.973788,136.128606,
151,E1842300133111,福井県立丹生高等学校,福井県越前町内郡41-18-1,,,,35.975975,136.120852,
152,E1842300137111,越前町営越前体育館,福井県越前町梅浦60-1-2,,,,35.952656,135.984784,
153,E1842300138111,越前町越前地域福祉センター,福井県越前町梅浦60-15,,,,35.952825,135.98339,
154,E1842300139111,越前サブコミュニティセンター,福井県越前町梅浦60-2-1,,,,35.952886,135.98443,
155,E1842300150111,越前町健康交流ホール,福井県越前町米ノ46-12,,,,35.891483369066,135.99636183134,
156,E1842300154111,越前町立城崎小学校,福井県越前町茂原4-8-1,1,,,35.912399,135.998846,
157,E1832200036111,御陵公民館,福井県吉田郡永平寺町松岡兼定島36‐34,,,,36.107621,136.288441,
158,E1848100002111,若狭体育館,福井県高浜町安土2-1-2,1,,,35.494287,135.584012,
159,E1848100008111,高浜町立認定こども園ｃｏｃｏｋａｒａ,福井県高浜町薗部40-1-1,1,,,35.485718,135.559809,
160,E1848100003111,旧音海小中学校,福井県高浜町音海30-13,1,,,35.536276089136,135.51307997987,
161,E1848100004111,若狭高浜漁業協同組合　音海支所,福井県高浜町音海33-39,,,,35.537772,135.508036,
162,E1848100005111,高浜町道の駅　シーサイド高浜,福井県高浜町下車持46-10-1,1,,,35.48881119093,135.59614448112,
163,E1848100007111,瑞祥苑,福井県高浜町宮崎67-4-1,1,,,35.488360822727,135.5514394696,
164,E1848100009111,高浜中学校,福井県高浜町宮崎70-15,1,,,35.488978080037,135.55238574766,
165,E1848100010111,高浜小学校,福井県高浜町宮崎75-12-1,1,,,35.489141,135.54956,
166,E1848100012111,高浜町中央体育館,福井県高浜町宮崎92-1-1,1,,,35.484959,135.54421,
167,E1848100013111,高浜町Ｂ＆Ｇ海洋センター,福井県高浜町高森1-1,,,,35.485704,135.599386,
168,E1848100014111,青郷小学校高野分校,福井県高浜町高野17-2,1,,,35.491046590146,135.48341666626,
169,E1848100015111,内浦公民館,福井県高浜町山中104-4-2,1,,,35.517966,135.46387,
170,E1848100016111,内浦小中学校,福井県高浜町山中107-30,1,,,35.5193589991,135.467067,
171,E1848100017111,青郷小学校,福井県高浜町小和田69-40,1,,,35.485437030142,135.50289762553,
172,E1848100018111,旧神野小学校,福井県高浜町神野4-1-1,1,,,35.512508808589,135.49804140587,
173,E1848100020111,青郷保育所,福井県高浜町西三松13-54-1,,,,35.492508,135.510071,
174,E1848100021111,高浜町立三松センター,福井県高浜町西三松6-21-8,,,,35.496808,135.511451,
175,E1848100022111,青郷公民館,福井県高浜町青8-4-1,1,,,35.484278013195,135.50389878263,
176,E1848100024111,高浜町立西地区体育館,福井県高浜町中山13-26-6,,,,35.494777,135.51005,
177,E1848100025111,旧日引小学校,福井県高浜町日引21-6,1,,,35.54071241964,135.4695056196,
178,E1848100026111,高浜町文化会館,福井県高浜町立石12-1,1,,,35.485778278228,135.54144555605,
179,E1848100027111,高浜町中央図書館,福井県高浜町立石13-7,1,,,35.486284968001,135.54124170817,
180,E1848100029121,高浜町社会福祉センター,福井県高浜町緑ケ丘1-1-1,,,要配慮者,35.49283,135.508119,
181,E1848100030111,高浜町保健福祉センター,福井県高浜町和田117-68,1,,,35.489931,135.579467,
182,E1848100031111,和田公民館,福井県高浜町和田123-24-2,1,,,35.49164,135.578945,
183,E1848100032111,和田保育所,福井県高浜町和田124-3,1,,,35.491070411383,135.58052045366,
184,E1848100032112,和田小学校,福井県高浜町和田124-3,1,,,35.491415462214,135.5812768366,
185,E1821000002121,ディーパあかね,福井県坂井市丸岡町羽崎31-11-3,,,要配慮者,36.115168,136.262672,
186,E1821000004111,平章小学校,福井県坂井市丸岡町霞町2-41,1,,,36.153893,136.271221,
187,E1821000005111,鳴鹿小学校,福井県坂井市丸岡町楽間4-40,1,,,36.112278334874,136.30351906746,
188,E1821000006111,丸岡南中学校,福井県坂井市丸岡町高瀬15-2,1,,,36.124738058397,136.26927762698,
189,E1821000007111,竹田農山村交流センター　ちくちくぼんぼん,福井県坂井市丸岡町山口60-8,1,,,36.162277173128,136.33211494733,
190,E1821000049121,グループホームコミュニティかすみ,福井県坂井市丸岡町女形谷58-16,,,,36.1627,136.291072,
191,E1821000009121,ライフかすみ,福井県坂井市丸岡町女形谷59-17,,,要配慮者,36.161523,136.29095,
192,E1821000051121,ハーツ丸岡ハイム,福井県坂井市丸岡町小黒74-10,,,要配慮者,36.139796,136.278945,
193,E1821000011111,長畝小学校,福井県坂井市丸岡町松川2-131,1,,,36.154515889402,136.27926572157,
194,E1821000012111,磯部小学校,福井県坂井市丸岡町上安田7-24,1,,,36.122740690404,136.25643421098,
195,E1821000013111,高椋小学校,福井県坂井市丸岡町寅国2-13,1,,,36.143784770297,136.26960608466,
196,E1821000014111,丸岡中学校,福井県坂井市丸岡町寅国5-15,1,,,36.142869567838,136.26881793844,
197,E1821000015121,丸岡総合福祉保健センター,福井県坂井市丸岡町八ケ郷21-7-1,,,要配慮者,36.160493,136.282877,
198,E1821000016121,長寿園,福井県坂井市丸岡町八ケ郷22-4,,,要配慮者,36.139836,136.296542,
199,E1821000017121,長寿の郷,福井県坂井市丸岡町八ケ郷22-5,,,要配慮者,36.160528,136.278253,
200,E1821000018111,明章小学校,福井県坂井市丸岡町油為頭14-5,1,,,36.123831699861,136.28441689815,
201,E1821000019121,豊楽園,福井県坂井市坂井町下関42-4-1,,,要配慮者,36.190824,136.228712,
202,E1821000020121,潟池野,福井県坂井市坂井町下関42-4-2,,,要配慮者,36.190795,136.228355,
203,E1821000048121,坂井老人福祉センター志游館,福井県坂井市坂井町下新庄19-1,,,要配慮者,36.166196,136.223308,
204,E1821000022111,木部小学校,福井県坂井市坂井町高柳117-1,1,,,36.182606952871,136.17101689757,
205,E1821000023111,坂井中学校,福井県坂井市坂井町上新庄28-21,1,,,36.16546430796,136.22668588095,
206,E1821000024111,兵庫小学校,福井県坂井市坂井町上兵庫65-5,1,,,36.167737483747,136.20373962475,
207,E1821000025121,坂井ケアセンター,福井県坂井市坂井町折戸1-58,,,要配慮者,36.171822,136.169996,
208,E1821000026111,東十郷小学校,福井県坂井市坂井町長畑27-1,1,,,36.162802312109,136.23713723184,
209,E1821000027111,大関小学校,福井県坂井市坂井町東24-3,1,,,36.185079840887,136.22006086659,
210,E1821000028121,三国運動公園健康管理センター,福井県坂井市三国町運動公園1-4-1,,,要配慮者,36.227059,136.14512,
211,E1821000029111,加戸小学校,福井県坂井市三国町加戸30-1,1,,,36.231500004276,136.17358826257,
212,E1821000030121,白楽荘,福井県坂井市三国町梶49-18,,,要配慮者,36.246209,136.155115,
213,E1821000031111,三国中学校,福井県坂井市三国町錦1-7-3,1,,,36.21593673969,136.15569321216,
214,E1821000032111,三国南小学校,福井県坂井市三国町山王1-1-50,1,,,36.211459824716,136.15536084656,
215,E1821000033111,三国西小学校,福井県坂井市三国町山岸31-1,1,,,36.191186453925,136.14365037168,
216,E1821000034121,東尋坊ひまわりの丘,福井県坂井市三国町陣ケ岡16-13-18,,,要配慮者,36.238401,136.142212,
217,E1821000035113,雄島小学校,福井県坂井市三国町陣ケ岡16-3,1,,,36.236985400083,136.13957275331,
218,E1821000036111,三国北小学校,福井県坂井市三国町緑ケ丘1-4-1,1,,,36.218375115052,136.15059689393,
219,E1821000037111,春江小学校,福井県坂井市春江町境28-28,1,,,36.129656737921,136.22358914485,
220,E1821000047121,春江総合福祉センターいちい荘,福井県坂井市春江町江留中10-15-1,,,要配慮者,36.13766,136.2124,
221,E1821000040111,春江中学校,福井県坂井市春江町江留中15-15,1,,,36.136356913424,136.21302320714,
222,E1821000041111,大石小学校,福井県坂井市春江町上小森5-7-1,1,,,36.15561877832,136.18853913801,
223,E1820100753121,ガーデンハイツ春江,福井県坂井市春江町針原48-28-1,,,要配慮者,36.128529,136.207108,
224,E1821000042121,ガーデンハイツ春江,福井県坂井市春江町針原48-28-1,,,要配慮者,36.128587,136.207432,
225,E1821000043121,プライムハイツ春江,福井県坂井市春江町針原59-2,,,要配慮者,36.127644,136.208712,
226,E1821000044111,春江西小学校,福井県坂井市春江町西太郎丸3-3,1,,,36.132740033445,136.20248660535,
227,E1820100752121,リハビリ施設陽和縁,福井県坂井市春江町西長田40-46,,,要配慮者,36.156844,136.201278,
228,E1821000045111,春江東小学校,福井県坂井市春江町中筋29-1,1,,,36.128971357175,136.23680550662,
229,E1821000046121,ケアセンターゆり,福井県坂井市春江町本堂27-1-1,,,要配慮者,36.138858,136.203952,
230,E1820100754121,ケアセンターゆり,福井県坂井市春江町本堂27-1-1,,,要配慮者,36.138562,136.204047,
231,E1820700002121,陽だまりさばえ,福井県鯖江市旭町4-9-10,,,要配慮者,35.949167,136.186571,
232,E1820700002122,介護医療院　かがやき,福井県鯖江市旭町4-9-10,,,要配慮者,35.950112,136.18824,
233,E1820700003111,北中山小学校,福井県鯖江市磯部町25-11,,,,35.953506,136.24303,
234,E1820700004111,新横江公民館,福井県鯖江市横越町1-43-2,,,,35.942068,136.200713,
235,E1820700005111,豊公民館,福井県鯖江市下野田町26-8-1,,,,35.946028,136.152201,
236,E1820700006111,豊小学校,福井県鯖江市下野田町39-29,,,,35.94368,136.151372,
237,E1820700007111,河和田公民館,福井県鯖江市河和田町19-6-1,,,,35.951025,136.274064,
238,E1820700008121,エレガント・セニ－ル・ガーデン,福井県鯖江市吉江町31-7-1,,,要配慮者,35.986745,136.168356,
239,E1820700011121,神明ケアセンター,福井県鯖江市幸町1-2-2,,,要配慮者,35.973158,136.181088,
240,E1820700012111,鯖江公民館,福井県鯖江市桜町1-1-16,,,,35.945398,136.183004,
241,E1820700017111,中央中学校,福井県鯖江市三六町1-1-50,,,,35.969352,136.179939,
242,E1820700018111,神明公民館,福井県鯖江市三六町1-4-12,,,,35.970542,136.178779,
243,E1820700026111,鯖江中学校,福井県鯖江市小黒町2-12-1,,,,35.952214,136.17475,
244,E1820700027122,鯖江きらめきグループホーム,福井県鯖江市小黒町3-10-21,,,要配慮者,35.955736,136.173617,
245,E1820700027121,鯖江きらめきハウス,福井県鯖江市小黒町3-10-21,,,要配慮者,35.955743,136.173727,
246,E1820700031111,鯖江東小学校,福井県鯖江市新横江2-6-37,1,,,35.93998,136.198755,
247,E1820700034111,鳥羽小学校,福井県鯖江市神明町4-1-38,,,,35.979476,136.187863,
248,E1820700041111,神明小学校,福井県鯖江市水落町4-13-23,,,,35.97017,136.18438,
249,E1820700042111,立待小学校,福井県鯖江市杉本町1-5,,,,35.983594,136.169495,
250,E1820700046111,立待公民館,福井県鯖江市杉本町702-2,,,,35.983217,136.173925,
251,E1820700050111,河和田小学校,福井県鯖江市西袋町67-8,,,,35.953129,136.278859,
252,E1820700052121,介護事業所　ありんこ,福井県鯖江市西大井町12-38-2,,,要配慮者,35.959372,136.138477,
253,E1820700055111,吉川小学校,福井県鯖江市大倉町22-1,,,,35.961888,136.157268,
254,E1820700056111,吉川公民館,福井県鯖江市大倉町5-14-1,,,,35.963028,136.157197,
255,E1820700058111,片上小学校,福井県鯖江市大野町16-6,1,,,35.974001,136.231606,
256,E1820700059121,ことぶき荘,福井県鯖江市大野町3-1,,,要配慮者,35.977982,136.228538,
257,E1820700060111,片上公民館,福井県鯖江市大野町6-8-1,,,,35.973694,136.230833,
258,E1820700061111,中河公民館,福井県鯖江市中野町203-8,,,,35.95626,136.209071,
259,E1820700063121,鯖江ケアセンター　みどり荘,福井県鯖江市中野町33-20-1,,,要配慮者,35.948015,136.206231,
260,E1820700066111,中河小学校,福井県鯖江市中野町73-16,,,,35.953979,136.208496,
261,E1820700070111,進徳小学校,福井県鯖江市長泉寺町2-5-1,,,,35.954627,136.185112,
262,E1820700071121,もんざえもん,福井県鯖江市鳥羽3-1-29-1,,,要配慮者,35.984634,136.185661,
263,E1820700075111,惜陰小学校,福井県鯖江市日の出町6-37,1,,,35.942298,136.186416,
264,E1820700078121,おしどり荘,福井県鯖江市別司町41-30,,,要配慮者,35.947608,136.26044,
265,E1820700081121,グレースフルわかたけ,福井県鯖江市本町2-2-17,,,要配慮者,35.946003,136.184845,
266,E1820700087111,東陽中学校,福井県鯖江市落井町32-7,,,,35.95109,136.230003,
267,E1820700088111,北中山公民館,福井県鯖江市落井町41-33-1,,,,35.951806,136.237782,
268,E1820700089121,ライフトレーニングセンター,福井県鯖江市和田町9-1-1,,,要配慮者,35.947429,136.138624,
269,E1820700089122,ライトワークセンター,福井県鯖江市和田町9-1-1,,,要配慮者,35.947612,136.138206,
270,E1850100001111,三宅保育所,福井県若狭町井ノ口29-27-1,1,,,35.46276,135.851872,
271,E1850100002111,三宅公民館,福井県若狭町井ノ口37-8,1,,,35.462649645755,135.8559732236,
272,E1850100003111,三宅小学校,福井県若狭町井ノ口49-11,1,,,35.462486516945,135.84945897188,
273,E1850100004111,上中中学校,福井県若狭町井ノ口55-5-1,1,,,35.460512082162,135.854718,
274,E1850100055111,三十三公民館,福井県若狭町井崎59-24,1,,,35.510253,135.900318,
275,E1850100005111,わかば保育園,福井県若狭町瓜生37-1,1,,,35.462006489346,135.87539039236,
276,E1850100006111,水月花,福井県若狭町海山51-13,1,,,35.591207,135.867819,
277,E1850100007111,県立美方高等学校,福井県若狭町気山114,1,,,35.5867579991,135.912135,
278,E1850100008111,気山公民館,福井県若狭町気山176-15-1,1,,,35.580688,135.909185,
279,E1850100009111,気山小学校,福井県若狭町気山310-9-1,1,,,35.579464334488,135.91261379085,
280,E1850100010111,ののはな保育園,福井県若狭町玉置50-1,1,,,35.477352304368,135.82506394195,
281,E1850100011111,旧熊川小学校,福井県若狭町熊川43-25-1,1,,,35.445965515992,135.90149104309,
282,E1850100012111,熊川公民館,福井県若狭町熊川43-37,1,,,35.4458599991,135.900011,
283,E1850100013111,野木公民館,福井県若狭町兼田1-29,1,,,35.47316535755,135.83810893607,
284,E1850100014111,鳥羽小学校,福井県若狭町三田26-3-1,1,,,35.5062,135.870232,
285,E1850100015111,鳥羽公民館,福井県若狭町三田27-17,1,,,35.506938906313,135.87080705423,
286,E1850100016111,三方小学校,福井県若狭町三方50-9,1,,,35.552905312961,135.91218295759,
287,E1850100017111,上中体育館,福井県若狭町市場13-8,1,,,35.460209866107,135.85618850926,
288,E1850100018111,パレア若狭,福井県若狭町市場18-18,1,,,35.461267080369,135.85983908144,
289,E1850100019111,歴史文化館,福井県若狭町市場20-17,1,,,35.462217079384,135.8568430172,
290,E1850100022111,旧岬保育所,福井県若狭町小川12-1,1,,,35.606094344548,135.84577781427,
291,E1850100024111,三方Ｂ＆Ｇ海洋センター,福井県若狭町上野4-1-3,1,,,35.5090017693,135.901313649,
292,E1850100025111,みそみ小学校,福井県若狭町上野5-6-1,1,,,35.509656730833,135.90048456165,
293,E1850100032111,みさきち,福井県若狭町神子14-4,1,,,35.61636148064,135.83984206019,
294,E1850100039111,とばっ子保育園,福井県若狭町大鳥羽38-36-1,1,,,35.508657364454,135.86697575801,
295,E1850100040111,リブラ若狭,福井県若狭町中央1-2,1,,,35.549009649303,135.90918056332,
296,E1850100046111,西田公民館,福井県若狭町田井21-7-1,1,,,35.559135261801,135.86983500881,
297,E1850100047111,梅の里小学校,福井県若狭町田井23-10-1,1,,,35.55925,135.868621,
298,E1850100048111,旧明倫小学校,福井県若狭町藤井2-43,1,,,35.535475,135.907673,
299,E1850100049111,野木小学校,福井県若狭町武生15-7-1,1,,,35.476041159838,135.82980172883,
300,E1850100050111,三方中学校,福井県若狭町北前川48-10,1,,,35.549946,135.912561,
301,E1850100051111,三方体育館,福井県若狭町北前川48-50,1,,,35.55049521467,135.91295652128,
302,E1850100053111,瓜生公民館,福井県若狭町脇袋12-3-2,1,,,35.471345756473,135.87179323536,
303,E1850100054111,上中小学校,福井県若狭町脇袋7-17,1,,,35.472546472597,135.87244939354,
304,E1820600006111,勝山南部中学校（体育館）,福井県勝山市旭毛屋町3401,1,,,36.047314,136.510819,
305,E1820600010121,福祉健康センター「すこやか」,福井県勝山市郡町1-1-50,,,要支援者　※家族等も受入対象とする,36.068386,136.496323,
306,E1820600011111,勝山中部中学校（体育館）,福井県勝山市郡町1-3-34,1,,,36.06937,136.500121,
307,E1820600012111,村岡まちづくり会館,福井県勝山市郡町2-2-7,,,,36.071578,136.503238,
308,E1820600014111,村岡小学校（体育館）,福井県勝山市郡町2-9-1,1,,,36.072615,136.504688,
309,E1820600015111,生涯学習センター「友楽喜」,福井県勝山市郡町3-415,,,,36.073212,136.495911,
310,E1820600018111,勝山市民会館,福井県勝山市元町1-5-16,,,,36.061296,136.50017,
311,E1820600019111,勝山市教育会館,福井県勝山市元町1-5-6,,,,36.061957,136.50116,
312,E1820600022111,成器南小学校（体育館）,福井県勝山市元町3-10-38,1,,,36.04994,136.505597,
313,E1820600024111,荒土小学校（体育館）,福井県勝山市荒土町伊波2-28,1,,,36.083017,136.475003,
314,E1820600023111,勝山北部中学校（体育館）,福井県勝山市荒土町伊波21-2,1,,,36.077835,136.464784,
315,E1820600025111,道の駅「恐竜渓谷かつやま」,福井県勝山市荒土町松ケ崎1-17,,,,36.071055,136.479026,
316,E1820600026111,荒土児童ホール,福井県勝山市荒土町松田8-3,,,,36.081407,136.475972,
317,E1820600027111,荒土まちづくり会館,福井県勝山市荒土町松田8-4,,,,36.081319,136.476158,
318,E1820600031111,Ｂ＆Ｇ勝山海洋センター,福井県勝山市荒土町新保8-101,,,,36.074371,136.484702,
319,E1820600032111,鹿谷児童センター,福井県勝山市鹿谷町本郷31-23,,,,36.05621634724,136.46413472884,
320,E1820600033111,鹿谷まちづくり会館,福井県勝山市鹿谷町本郷31-7,,,,36.056136698093,136.46432824537,
321,E1820600034111,鹿谷小学校（体育館）,福井県勝山市鹿谷町本郷34-1,1,,,36.05691739869,136.46486563558,
322,E1820600036111,成器西小学校（体育館）,福井県勝山市昭和町1-6-81,1,,,36.061585,136.505524,
323,E1820600038111,勝山市体育館ジオアリーナ,福井県勝山市昭和町2-4-20,,,,36.0648907520834,136.509979019588,
324,E1820600038121,勝山市体育館ジオアリーナ,福井県勝山市昭和町2-4-20,,,要支援者　※家族等も受入対象とする,36.0648907520834,136.509979019588,
325,E1820600045111,三室小学校（体育館）,福井県勝山市遅羽町大袋40-67,1,,,36.040074727808,136.49228972024,
326,E1820600046111,遅羽まちづくり会館,福井県勝山市遅羽町大袋48-42,,,,36.04204,136.495082,
327,E1820600047111,遅羽児童館,福井県勝山市遅羽町大袋48-55,,,,36.041857,136.495275,
328,E1820600051111,平泉寺小学校（体育館）,福井県勝山市平泉寺町平泉寺164-12,1,,,36.035794,136.532418,
329,E1820600052111,平泉寺児童館,福井県勝山市平泉寺町平泉寺167-18,,,,36.034277,136.531564,
330,E1820600053111,平泉寺まちづくり会館,福井県勝山市平泉寺町平泉寺170-110,,,,36.034308,136.530909,
331,E1820600054111,市民交流センター,福井県勝山市片瀬町1-402,,,,36.053254,136.515604,
332,E1820600058111,北郷小学校（体育館）,福井県勝山市北郷町東野13-25,1,,,36.085683,136.428993,
333,E1820600059111,北郷まちづくり会館,福井県勝山市北郷町東野18-24,,,,36.085495,136.434487,
334,E1820600060111,猪野瀬まちづくり会館,福井県勝山市北市7-4,,,,36.043133,136.510104,
335,E1820600061111,北谷町コミュニティセンター,福井県勝山市北谷町河合26-2-1,,,,36.105241,136.558401,
336,E1820600062111,かつやま子どもの村小・中学校,福井県勝山市北谷町河合5-3,1,,,36.108382,136.56312,
337,E1820600064111,林業者健康トレーニングセンター,福井県勝山市毛屋町1408,,,,36.043851,136.511118,
338,E1820600067111,野向町コミュニティセンター,福井県勝山市野向町龍谷15-1,,,,36.090291,136.4912,
339,E1820600068111,野向児童館,福井県勝山市野向町龍谷50-16,,,,36.091998,136.494347,
340,E1820600066111,野向小学校（体育館）,福井県勝山市野向町龍谷50-9,,,,36.092408,136.495084,
341,E1820400002111,内外海コミュニティセンター,福井県小浜市阿納尻43-10-1,1,,,35.532156,135.764679,
342,E1820400003111,小浜市立内外海小学校,福井県小浜市阿納尻45-9,1,,,35.531804099072,135.76452950361,
343,E1820400005111,小浜市立小浜中学校,福井県小浜市雲浜2-1-1,1,,,35.507214717731,135.74604878552,
344,E1820400006111,小浜市立小浜小学校,福井県小浜市駅前町13-29,1,,,35.49191134562,135.75166081868,
345,E1820400008111,遠敷児童センター,福井県小浜市遠敷1-202,1,,,35.484561616591,135.7813997938,
346,E1820400013111,遠敷コミュニティセンター,福井県小浜市遠敷71-8,1,,,35.47814957653,135.7810490776,
347,E1820400014111,旧遠敷小学校,福井県小浜市遠敷72-17,1,,,35.479230319892,135.78175221971,
348,E1820400016121,小浜市総合福祉センター,福井県小浜市遠敷84-3-4,,,要配慮者,35.485006,135.78132,
349,E1820400018111,小浜市立中名田小学校,福井県小浜市下田14-13-1,1,,,35.430437553387,135.6621760471,
350,E1820400019111,中名田コミュニティセンター,福井県小浜市下田52-19,1,,,35.427045,135.671172,
351,E1820400020111,加斗コミュニティセンター,福井県小浜市加斗30-35,1,,,35.48067168833,135.67036009442,
352,E1820400022111,宮川コミュニティセンター,福井県小浜市加茂2-17-2,1,,,35.492923,135.821113,
353,E1820400023111,福井県立大学小浜キャンパス,福井県小浜市学園町1-1,1,,,35.510025285737,135.75969192587,
354,E1820400024111,小浜市立小浜美郷小学校,福井県小浜市金屋39-8,1,,,35.485442280973,135.78578497757,
355,E1820400025111,国富コミュニティセンター,福井県小浜市栗田11-3-2,1,,,35.499999525832,135.77354981987,
356,E1820400028111,小浜市立小浜第二中学校,福井県小浜市後瀬町8-10,1,,,35.494523323498,135.74982974532,
357,E1820400029111,小浜市民体育館,福井県小浜市後瀬町9-38,1,,,35.494402921278,135.75209005724,
358,E1820400038111,旧国富小学校,福井県小浜市次吉27-15,1,,,35.501043293232,135.77343180267,
359,E1820400044111,小浜コミュニティセンター,福井県小浜市小浜日吉91-3,1,,,35.494062036336,135.73855066659,
360,E1820400046111,松永コミュニティセンター,福井県小浜市上野28-7,1,,,35.474288132558,135.79601961826,
361,E1820400047111,旧松永小学校,福井県小浜市上野30-1,1,,,35.474847441924,135.79483535895,
362,E1820400049111,小浜市立雲浜小学校,福井県小浜市城内2-2-7,1,,,35.505437229003,135.74297506433,
363,E1820400050111,雲浜コミュニティセンター,福井県小浜市城内2-5-16,1,,,35.505487742393,135.74359336603,
364,E1820400086111,福井県立若狭高等学校,福井県小浜市千種1-6-13,1,,,35.497833,135.75029,
365,E1820400064111,小浜市働く婦人の家,福井県小浜市大手町4-1,1,,,35.494942556198,135.74470213207,
366,E1820400066111,小浜市文化会館,福井県小浜市大手町7-32,1,,,35.496322110559,135.74627046623,
367,E1820400067111,旧宮川小学校,福井県小浜市竹長14-10-3,1,,,35.496553281101,135.81776843714,
368,E1820400068111,口名田コミュニティセンター,福井県小浜市中井41-9,1,,,35.454794,135.714716,
369,E1820400069111,小浜市立口名田小学校,福井県小浜市中井43-15,1,,,35.455735944806,135.71561136872,
370,E1820400071111,旧田烏小学校,福井県小浜市田烏61-4,1,,,35.538947784892,135.83707434386,
371,E1820400075111,小浜市健康管理センター,福井県小浜市南川町4-31,1,,,35.493539,135.754028,
372,E1820400077111,小浜市立加斗小学校,福井県小浜市飯盛59-32,1,,,35.48249807894,135.67775048061,
373,E1820400079111,小浜市立西津小学校,福井県小浜市北塩屋18-19,1,,,35.513465007723,135.75426372097,
374,E1820400080111,西津コミュニティセンター,福井県小浜市北塩屋22-2,1,,,35.513075899412,135.7532273732,
375,E1820400082111,福井県立若狭高等学校海洋キャンパス,福井県小浜市堀屋敷2-5-2,1,,,35.508874,135.746481,
376,E1820400084111,小浜市立今富小学校,福井県小浜市和久里15-2-5,1,,,35.486275141486,135.7569219432,
377,E1820400085111,今富コミュニティセンター,福井県小浜市和久里18-18,1,,,35.48579738938,135.75868407626,
378,E1820500008111,上庄小学校,福井県大野市稲郷27-11,,,,35.951355,136.524187,
379,E1820500009111,Ｂ＆Ｇ海洋センター,福井県大野市稲郷43-17-1,,,,35.949173,136.523676,
380,E1820500010111,上庄公民館,福井県大野市稲郷43-2,,,,35.949156,136.522816,
381,E1820500011111,上庄中学校,福井県大野市稲郷74-25,,,,35.9468,136.517998,
382,E1820500081111,下山地区集会施設,福井県大野市下山43-45,,,,35.92053,136.638838,
383,E1820500013111,フレアール和泉,福井県大野市下山63-2-24,,,,35.922103,136.644946,
384,E1820500014111,小山公民館,福井県大野市下舌10-9,,,,35.960879,136.491901,
385,E1820500015111,小山小学校,福井県大野市下舌9-1-1,,,,35.961658,136.490818,
386,E1820500017121,介護老保健施設ビハーラ大野,福井県大野市牛ケ原154-1-1,,,要配慮者,35.993767,136.465995,
387,E1820500018111,乾側公民館,福井県大野市牛ケ原66-1,,,,35.995399,136.467546,
388,E1820500018112,旧乾側小学校,福井県大野市牛ケ原66-1,,,,35.995631,136.467942,
389,E1820500019111,エキサイト広場総合体育施設,福井県大野市桜塚町601,,,,35.97164,136.503565,
390,E1820500021121,障害者支援施設　むつみ園,福井県大野市篠座16-13,,,要配慮者,35.9585,136.499,
391,E1820500022121,救護施設　大野荘,福井県大野市篠座17-23,,,要配慮者,35.957878,136.497999,
392,E1820500024121,特別養護老ホーム大野和光園,福井県大野市篠座79-11,,,要配慮者,35.96487,136.500902,
393,E1820500025121,障害者支援施設　希望園,福井県大野市篠座79-53,,,要配慮者,35.964259,136.50137,
394,E1820500027111,有終南小学校,福井県大野市春日2-8-30,,,,35.976066,136.49405,
395,E1820500030111,大納地区集会施設,福井県大野市上大納37-4-2,,,,35.886901,136.615638,
396,E1820500031111,和泉体育館,福井県大野市上大納38-16,,,,35.883081,136.607366,
397,E1820500032111,富田小学校,福井県大野市上野42-3,,,,35.990667,136.538659,
398,E1820500033111,富田公民館,福井県大野市上野42-6-1,,,,35.990922,136.539818,
399,E1820500034111,学びの里「めいりん」,福井県大野市城町9-1,,,,35.985705,136.486207,
400,E1820500035111,開成中学校,福井県大野市新庄16-7,,,,35.976642,136.484826,
401,E1820500036111,ぶるー夢森目,福井県大野市森目22-7,,,,36.010087,136.526152,
402,E1820500040111,五箇公民館,福井県大野市西勝原13-1-5,,,,35.967433,136.597095,
403,E1820500043121,医療法厚生会在宅医療部　さくらグループ,福井県大野市中津川32-33,,,要配慮者,36.000548,136.497804,
404,E1820500044111,青少年教育センター,福井県大野市中野57-6-1,,,,35.999836,136.496366,
405,E1820500045111,下庄小学校,福井県大野市中野町2-1-1,,,,35.993395,136.488815,
406,E1820500046111,下庄公民館,福井県大野市中野町3-1-16,,,,35.992665319382,136.491385,
407,E1820500048111,職業訓練センター,福井県大野市中挾1-1601-1,,,,35.985203,136.505841,
408,E1820500082111,和泉公民館,福井県大野市朝日17-5,,,,35.906066,136.66663,
409,E1820500052111,和泉地域交流センター,福井県大野市朝日25-5,,,,35.905271,136.662565,
410,E1820500053111,和泉ふれあい会館,福井県大野市朝日26-30-1,,,,35.904276,136.661454,
411,E1820500054111,和泉小中学校,福井県大野市朝日34-3,,,,35.902203,136.658566,
412,E1820500055121,大野市保健センター,福井県大野市天神町1-19,,,要配慮者,35.978826142667,136.48713932143,
413,E1820500056121,県民せいきょう　大野きらめき,福井県大野市天神町3-21,,,要配慮者,35.979064,136.488568,
414,E1820500057111,尚徳中学校,福井県大野市土打45-9,,,,35.989743,136.543326,
415,E1820500063111,あっ宝んど,福井県大野市南新在家26-101,,,,36.012379,136.512972,
416,E1820500064111,六呂師自然楽舎,福井県大野市南六呂師169-124-3,,,,36.013125925049,136.57623815787,
417,E1820500065111,ミルク工房　奥越前,福井県大野市南六呂師１６９字東上谷野,,,,36.02019117351,136.5730894374,
418,E1820500068111,有終東小学校,福井県大野市美里町901,,,,35.984739,136.5058,
419,E1820500069112,阪谷小学校,福井県大野市伏石11-14,,,,35.984703,136.573773,
420,E1820500069111,阪谷公民館,福井県大野市伏石11-14,,,,35.985182288287,136.57353438029,
421,E1820500070111,スターランドさかだに,福井県大野市蓑道1-4,,,,35.990261,136.581151,
422,E1820500071111,まちなか交流センター,福井県大野市明倫町3-37,,,,35.983842,136.486959,
423,E1820500073111,文化会館,福井県大野市有明町11-10,,,,35.983701,136.500271,
424,E1820500076111,陽明中学校,福井県大野市陽明町3-202,,,,35.993427,136.498099,
425,E1820500078111,旧蕨生小学校,福井県大野市蕨生126-32,,,,35.971526,136.551048,
426,E1820500080121,特別養護老ホーム福井県済生会聖和園,福井県大野市蕨生158-35,,,要配慮者,35.982128,136.547267,
427,E1838200003111,池田町開発センター,福井県池田町稲荷35-5,1,,,35.890640612237,136.34397494164,
428,E1838200004111,池田小学校,福井県池田町稲荷6-1,1,,,35.888829967315,136.34079858513,
429,E1838200005111,渓流温泉「冠荘」,福井県池田町志津原14-17,1,,,35.863655,136.363661,
430,E1838200010111,農村ｄｅ合宿キャンプセンター,福井県池田町菅生23-42,1,,,35.857909778968,136.30405201272,
431,E1838200014111,能楽の里文化交流会館,福井県池田町薮田5-1,1,,,35.894683245998,136.34488842559,
432,E1820200002111,東浦体育館,福井県敦賀市阿曽77-12,1,,,35.72088045,136.0988779,
433,E1820200004111,東郷公民館（東郷コミュニティーセンター）,福井県敦賀市井川33-12,1,,,35.649754586721,136.08997150681,
434,E1820200005111,中郷体育館,福井県敦賀市羽織町34,1,,,35.633335,136.076236,
435,E1820200006111,中郷公民館,福井県敦賀市羽織町36-1,1,,,35.634035654856,136.07603219427,
436,E1820200138111,中郷小学校,福井県敦賀市岡山町2162,1,,,35.63094181,136.0707347,
437,E1820200008111,角鹿小中学校,福井県敦賀市角鹿町6-1,1,,,35.65497994,136.0774657,
438,E1820200009121,敦賀温泉病院,福井県敦賀市吉河41-1-5,,,要配慮者,35.636676900879,136.0852980255,
439,E1820200010121,常磐荘,福井県敦賀市金山50-19-1,,,要配慮者,35.622604959066,136.03315419719,
440,E1820200011111,金山体育館,福井県敦賀市金山58-13-1,1,,,35.6248261,136.0337138,
441,E1820200012111,粟野中学校,福井県敦賀市金山78-1-1,1,,,35.62843277,136.0480025,
442,E1820200135121,敦賀市立子ども発達支援センター　パラレル,福井県敦賀市櫛川41-2-3,,,要配慮者,35.655437,136.04393,
443,E1820200014111,児童文化センター,福井県敦賀市櫛川42-2-1,1,,,35.65691708,136.0434734,
444,E1820200016121,ヒバリヒルズ,福井県敦賀市櫛林32-5-2,,,要配慮者,35.623757089513,136.04284793502,
445,E1820200017121,ほっと地域リハビリセンター敦賀,福井県敦賀市沓見141-2-1,,,要配慮者,35.644117904373,136.03214058246,
446,E1820200019111,敦賀気比高等学校,福井県敦賀市沓見164-1,1,,,35.64505672,136.0305492,
447,E1820200020111,沓見小学校,福井県敦賀市沓見66-2-10,1,,,35.64030532,136.0194482,
448,E1820200021121,アイホーム,福井県敦賀市結城町13-24,,,要配慮者,35.655181184568,136.06394607324,
449,E1820200022111,敦賀西小学校,福井県敦賀市結城町8-6,1,,,35.65426162,136.0658241,
450,E1820200024111,東浦公民館,福井県敦賀市五幡32-8-1,1,,,35.70834223466,136.08997765283,
451,E1820200027111,黒河小学校,福井県敦賀市御名25-5,1,,,35.61428325,136.0489993,
452,E1820200028111,粟野公民館,福井県敦賀市御名53-19,1,,,35.618488386488,136.04970106364,
453,E1820200029121,敦賀市社会福祉協議会地域リハビリセンター「ぬくもりの里」,福井県敦賀市御名70-11-2,,,要配慮者,35.608794989624,136.04801043966,
454,E1820200030121,つるが生協在宅総合センター和,福井県敦賀市公文名1-6,,,要配慮者,35.622988094974,136.06007693698,
455,E1820200031111,粟野南小学校,福井県敦賀市公文名31-2-1,1,,,35.61864084,136.0536173,
456,E1820200033121,グループホーム　あかり苑,福井県敦賀市高野2-1-1,,,要配慮者,35.63594704444,136.08717265952,
457,E1820200034121,小規模多機能ホーム「こばやし」,福井県敦賀市砂流50-37-7,,,要配慮者,35.622311782694,136.04142704452,
458,E1820200035121,デイサービス　こばやし,福井県敦賀市砂流50-40-1,,,要配慮者,35.623205699879,136.04098716224,
459,E1820200036111,市民文化センター,福井県敦賀市桜町7-1,1,,,35.659141,136.071186,
460,E1820200040111,西公民館,福井県敦賀市三島町2-19-8,1,,,35.647825499625,136.06437370742,
461,E1820200041111,敦賀工業高等学校,福井県敦賀市山泉13-1,1,,,35.62163456,136.0674909,
462,E1820200043121,あすかデイサービスセンター,福井県敦賀市山泉73-914-4,,,要配慮者,35.615225168737,136.06249907917,
463,E1820200044121,県民せいきょう敦賀きらめきあったかホーム,福井県敦賀市市野々町2-1554,,,要配慮者,35.621746742993,136.05122689455,
464,E1820200045111,武道館,福井県敦賀市曙町11-80,1,,,35.65519422,136.0741409,
465,E1820200046111,北公民館,福井県敦賀市曙町11-91,1,,,35.655851396158,136.07486236813,
466,E1820200047111,旧敦賀北小学校,福井県敦賀市曙町11-94,1,,,35.65625078,136.0755906,
467,E1820200049121,敦賀ケアセンターかくだ「あおい」,福井県敦賀市昭和町2-11-5,,,要配慮者,35.641808892942,136.06100887719,
468,E1820200050121,敦賀ケアセンターかくだ,福井県敦賀市昭和町2-20-16,,,要配慮者,35.639629096941,136.05864853325,
469,E1820200051121,リバーサイド気比の杜,福井県敦賀市昭和町2-2801,,,要配慮者,35.64007730051,136.06348137795,
470,E1820200056121,第３渓山荘あおぞら,福井県敦賀市松島町2-6-35,,,要配慮者,35.651857075042,136.05926011188,
471,E1820200057111,松原小学校,福井県敦賀市松島町27-22,1,,,35.65541595,136.0557576,
472,E1820200058111,松陵中学校,福井県敦賀市松葉町1-1,1,,,35.65250779,136.0494747,
473,E1820200059111,市立体育館,福井県敦賀市松葉町1-2,1,,,35.652563,136.048744,
474,E1820200060111,敦賀高等学校,福井県敦賀市松葉町2-1,1,,,35.65115601,136.0488813,
475,E1820200061111,旧常宮小学校,福井県敦賀市常宮13-25,1,,,35.68927251,136.0287155,
476,E1820200062111,旧西浦小中学校,福井県敦賀市色33-1-2,1,,,35.73339799,136.0320011,
477,E1820200063111,松原公民館,福井県敦賀市新松島町22-48,1,,,35.647364900101,136.05190098959,
478,E1820200064121,敦賀ケアセンターかくだ「あずさ」,福井県敦賀市新松島町8-30,,,要配慮者,35.648460045969,136.05444527832,
479,E1820200070111,東浦小中学校,福井県敦賀市杉津19-12-1,1,,,35.73787711,136.1010499,
480,E1820200071111,敦賀南小学校,福井県敦賀市清水町1-10-40,1,,,35.65149199,136.0769928,
481,E1820200072111,気比中学校,福井県敦賀市清水町1-11-41,1,,,35.65096145,136.0766614,
482,E1820200074111,ハートフル・スクール,福井県敦賀市赤崎39-8,1,,,35.68556018,136.0878081,
483,E1820200077121,エメラルドハウスデイサービスセンター,福井県敦賀市中81-1-1,,,要配慮者,35.639413456505,136.08738123642,
484,E1820200078121,湯の里ナーシングホーム,福井県敦賀市中81-1-11,,,要配慮者,35.638583256612,136.08736309199,
485,E1820200079121,渓山荘,福井県敦賀市中81-1-5,,,要配慮者,35.638874709038,136.08791339734,
486,E1820200081121,かくだデイサービスセンター「さくら」,福井県敦賀市中央町2-10-34,,,要配慮者,35.645738083447,136.05400857722,
487,E1820200083121,松原のいろ幸,福井県敦賀市鋳物師町12-16-5,,,要配慮者,35.651127376436,136.05422765217,
488,E1820200084121,グループホーム　幸,福井県敦賀市鋳物師町1904-1,,,要配慮者,35.65004142284,136.05232064755,
489,E1820200086121,どりぃむはうす,福井県敦賀市長谷36-3-1,,,要配慮者,35.612728548684,136.04077731919,
490,E1820200087121,敦賀市立やまびこ園,福井県敦賀市長谷47-21,,,要配慮者,35.609766381048,136.04504711196,
491,E1820200088111,粟野スポーツセンター,福井県敦賀市長谷47-54,1,,,35.61184177,136.043725,
492,E1820200093121,気比の風,福井県敦賀市津内町3-6-21,,,要配慮者,35.647147801142,136.06958426981,
493,E1820200094121,グループホーム明峰夢,福井県敦賀市津内町3-7-17,,,要配慮者,35.647572441157,136.06989357897,
494,E1820200096121,通所リハビリセンターいずみ,福井県敦賀市鉄輪町1-2-55,,,要配慮者,35.643611996525,136.0729644504,
495,E1820200097121,第２渓山荘ぽっぽ,福井県敦賀市鉄輪町1-2-57,,,要配慮者,35.642873170187,136.07409403351,
496,E1820200098121,グループホーム　つくし,福井県敦賀市天筒町8-55,,,要配慮者,35.657623792167,136.07769728844,
497,E1820200099111,プラザ萬象,福井県敦賀市東洋町1-1,1,,,35.644276581373,136.0708318336,
498,E1820200101121,敦賀市社会福祉協議会地域リハビリセンター「あいあい」,福井県敦賀市東洋町4-1,,,要配慮者,35.643873943891,136.06937505752,
499,E1820200103121,デイサービスつむぎ,福井県敦賀市藤ケ丘町15-5,,,要配慮者,35.654547367003,136.08522260496,
500,E1820200104121,デイサービス雀の学校,福井県敦賀市堂44-1-1,,,要配慮者,35.629401836699,136.07175346187,
501,E1820200106121,グループホームひなた,福井県敦賀市道口63-13-1,,,要配慮者,35.631271227372,136.07195165628,
502,E1820200107121,駅前アクティブセンターステップ,福井県敦賀市白銀町10-13,,,要配慮者,35.647391125285,136.07261615264,
503,E1820200108121,リハビリ特化型デイサービス「Ｒ－ｓｔｙｌｅ」,福井県敦賀市白銀町10-15,,,要配慮者,35.647462393381,136.07248422587,
504,E1820200113111,愛発公民館,福井県敦賀市疋田37-1,1,,,35.60105718,136.1044003,
505,E1820200116121,デイサービスセンター　幸,福井県敦賀市平和町1-23,,,要配慮者,35.647719580465,136.04995680155,
506,E1820200119111,南公民館,福井県敦賀市本町2-1-20,1,,,35.65072526,136.0735258,
507,E1820200121111,敦賀市立看護大学,福井県敦賀市木崎78-2-1,1,,,35.64623694,136.0343181,
508,E1820200122121,グループホームみつばち　愛・心,福井県敦賀市野坂20-1,,,要配慮者,35.617023690867,136.03062047681,
509,E1820200123111,少年自然の家,福井県敦賀市野坂80-15,1,,,35.610391,136.031357,
510,E1820200125111,中央小学校,福井県敦賀市野神40-249,1,,,35.63898687,136.0502951,
511,E1820200128111,旧葉原小学校,福井県敦賀市葉原99-36,1,,,35.691509,136.118407,
512,E1820200130111,粟野小学校,福井県敦賀市莇生野47-11,1,,,35.62798032,136.0402063,
513,E1820200131121,眞盛苑,福井県敦賀市莇生野90-3,,,要配慮者,35.626727377606,136.04270312712,
514,E1840400001111,河野公民館,福井県南越前町河野15-16-1,,,,35.82497,136.068216,
515,E1840400005111,ふるさと交流センターきらめき,福井県南越前町古木48-2,1,,,35.794533,136.267636,
516,E1840400008111,河野小学校,福井県南越前町甲楽城13-1,,,,35.835714,136.055788,
517,E1840400009111,旧河野中学校,福井県南越前町甲楽城48-22-1,,,,35.837103,136.056538,
518,E1840400010121,河野保健福祉センター,福井県南越前町甲楽城7-31-1,,,要配慮者及びその家族,35.843325,136.045647,
519,E1840400010122,河野診療所,福井県南越前町甲楽城7-31-1,,,要配慮者及びその家族,35.843334,136.045609,
520,E1840400016111,旧今庄中学校,福井県南越前町今庄27-20,,,,35.777755,136.198082,
521,E1840400017111,今庄小学校,福井県南越前町今庄28-10-1,,,,35.780104,136.19838,
522,E1840400018111,今庄住民センター,福井県南越前町今庄74-14,,,,35.77356,136.200399,
523,E1840400019121,今庄診療所,福井県南越前町今庄84-24-1,,,要配慮者及びその家族,35.772846,136.200439,
524,E1840400020121,今庄老人保健施設,福井県南越前町今庄84-26,,,要配慮者及びその家族,35.772417,136.200801,
525,E1840400027111,南条活性化施設ホノケ,福井県南越前町上別所23-15-1,,,,35.818019,136.193294,
526,E1840400028111,今庄地区公民館鹿蒜分館,福井県南越前町新道24-25-1,,,,35.759779,136.169342,
527,E1840400031111,桜橋運動公園体育館,福井県南越前町赤萩38-3-3,,,,35.818368,136.09958,
528,E1840400036111,今庄地区公民館堺分館,福井県南越前町大門8-2-3,,,,35.749491,136.202523,
529,E1840400037111,堺地区体育館,福井県南越前町大門9-5-1,1,,,35.749935,136.203154,
530,E1840400041111,南条勤労者体育センター,福井県南越前町鋳物師45-14-6,,,,35.833713,136.200518,
531,E1840400042121,ほのぼの苑,福井県南越前町鋳物師5-10-1,,,要配慮者及びその家族,35.841874,136.197523,
532,E1840400045111,南条地区公民館,福井県南越前町東大道32-5,,,,35.833995,136.195074,
533,E1840400046111,南越前中学校,福井県南越前町東大道32-8,,,,35.834108,136.195801,
534,E1840400047111,南条小学校,福井県南越前町東大道第19-54,1,,,35.83653,136.195064,
535,E1840400052111,湯尾ふれあい会館,福井県南越前町湯尾54-43,,,,35.797733,136.194725,
536,E1840400053111,湯尾小学校,福井県南越前町湯尾88-2,,,,35.792197,136.198273,
537,E1840400057111,南越前文化会館,福井県南越前町牧谷29-15-1,,,,35.833081,136.199992,
538,E1840400060111,南条保健福祉センター,福井県南越前町脇本17-38-1,,,,35.843542,136.185118,
539,E1844200001111,美浜中央小学校,福井県美浜町河原市8-2,1,,,35.603162,135.946614,
540,E1844200002121,美浜町せせらぎ保育園,福井県美浜町河原市8-8,,,要配慮者,35.602242114999,135.946560470706,
541,E1844200003111,美浜町総合体育館,福井県美浜町久々子26-30,1,,,35.6028175552181,135.914116863901,
542,E1844200004121,美浜町みずうみ保育園,福井県美浜町久々子42-1-3,,,要配慮者,35.602812196482,135.91997184787,
543,E1844200006121,美浜町保健福祉センター「はあとぴあ」,福井県美浜町郷市25-20,,,要配慮者,35.5998455345586,135.941275442084,
544,E1844200007111,美浜西小学校,福井県美浜町金山14-1,1,,,35.60269391702,135.9229291951,
545,E1844200008121,美浜町あおなみ保育園,福井県美浜町佐田62-43,,,要配慮者,35.6277726540485,135.983620556739,
546,E1844200009111,美浜東小学校,福井県美浜町佐田69-4,1,,,35.628965,135.985332,
547,E1844200010111,北西郷公民館,福井県美浜町笹田15-1,1,,,35.611105,135.901507,
548,E1844200011111,耳公民館新庄分館,福井県美浜町新庄65-55,1,,,35.563667,135.973306,
549,E1844200012111,山東公民館菅浜分館,福井県美浜町菅浜70-8-2,1,,,35.661571,135.977221,
550,E1844200013111,美浜町エネルギー環境教育体験館,福井県美浜町丹生62-1,1,,,35.706411794753,135.97375914386,
551,E1844200014111,美浜中学校,福井県美浜町麻生37-5,1,,,35.603884,135.949281,
552,E1820100014111,豊公民館,福井県福井市みのり3-106-8,,,,36.050751,136.208059,
553,E1820100003121,しみずケアサポート,福井県福井市グリーンハイツ4-174,,,要配慮者,36.044132287766,136.16477506749,
554,E1820100004111,清水北小学校,福井県福井市グリーンハイツ5-101,,,,36.043006,136.164677,
555,E1820100005111,清水北公民館,福井県福井市グリーンハイツ5-131,,,,36.041524,136.164638,
556,E1820100019111,国見小学校,福井県福井市鮎川町109-3-3,,,,36.085558,136.031439,
557,E1820100020111,国見中学校,福井県福井市鮎川町109-9-2,,,,36.085331,136.031362,
558,E1820100021111,国見公民館,福井県福井市鮎川町133-1-3,1,,,36.094068858858,136.03190215584,
559,E1820100023121,小規模多機能ホームひびきの家,福井県福井市鮎川町91-37,,,要配慮者,36.091086708555,136.03275843782,
560,E1820100026111,福井刑務所練成館,福井県福井市一本木町52,,,,36.052657,136.226214,
561,E1820100027111,足羽第一中学校,福井県福井市稲津町83-1,,,,36.021136,136.250606,
562,E1820100030121,あさむつ苑,福井県福井市引目町21-9-2,,,要配慮者,36.022288666691,136.19728021226,
563,E1820100701121,県民せいきょう羽水きらめき,福井県福井市羽水1-107,,,要配慮者,36.042004,136.227112,
564,E1820100035111,羽水高等学校,福井県福井市羽水1-302,,,,36.042305,136.229036,
565,E1820100044111,森田栄保育園,福井県福井市栄町2-22,,,,36.107743,136.223135,
566,E1820100048111,一光小・中学校,福井県福井市下一光町6-34,,,,36.062008,136.069506,
567,E1820100049111,一光公民館,福井県福井市下一光町6-5,,,,36.062626,136.068369,
568,E1820100750121,河北寮,福井県福井市下河北町11-14,,,要配慮者,36.019398,136.216232,
569,E1820100050111,文殊小学校,福井県福井市下河北町53-1,,,,36.01321,136.231194,
570,E1820100051111,社西小学校,福井県福井市下江守町22-18,,,,36.048171,136.176968,
571,E1820100052111,科学技術高等学校,福井県福井市下江守町28,,,,36.046352,136.179037,
572,E1820100055111,清明小学校,福井県福井市下荒井町13-240,,,,36.025755,136.202706,
573,E1820100058111,清明公民館,福井県福井市下荒井町8-414,,,,36.026727,136.202158,
574,E1820100061111,森田小学校,福井県福井市下森田新町19-67,,,,36.107953,136.230964,
575,E1820100062111,森田公民館,福井県福井市下森田藤巻町2,,,,36.109438,136.226489,
576,E1820100067122,すまいる・厚生,福井県福井市下馬3-2302,,,要配慮者,36.040035,136.233856,
577,E1820100702121,多機能型支援事業所プラス,福井県福井市下馬3-805,,,要配慮者,36.039024,136.232071,
578,E1820100068121,ハウスやわらぎ,福井県福井市下六条町1-4,,,要配慮者,36.036011179162,136.23400650781,
579,E1820100069111,中小企業産業大学校,福井県福井市下六条町16-15,,,,36.035771,136.230653,
580,E1820100070121,特別養護老人ホームあさくら苑,福井県福井市下六条町18-32,,,要配慮者,36.035192460757,136.22946062677,
581,E1820100071121,六条ホームやわらぎ,福井県福井市下六条町217-4,,,要配慮者,36.036629529915,136.23423737096,
582,E1820100724121,特定非営利活動法人くまっこクラブふくい,福井県福井市加茂河原1-2-12,,,要配慮者,36.061035,136.196686,
583,E1820100073121,地域密着型特別養護老人ホームなの花,福井県福井市加茂河原3-1-22,,,要配慮者,36.063573010124,136.19344638965,
584,E1820100723121,グループホームわの家,福井県福井市加茂河原3-9-19,,,要配慮者,36.063663,136.192322,
585,E1820100076121,小規模多機能型居宅介護事業所やよいの里,福井県福井市加茂緑苑町402,,,要配慮者,36.054840946578,136.1915971751,
586,E1820100725121,わーくｏｎここね,福井県福井市加茂緑苑町411,,,要配慮者,36.053661,136.192017,
587,E1820100077121,第２藤島園そよかぜホーム,福井県福井市河合勝見町4-24-1,,,要配慮者,36.112929612907,136.20010694344,
588,E1820100078111,岡保公民館,福井県福井市河水町10-13,,,,36.051826,136.271886,
589,E1820100079111,岡保小学校,福井県福井市河水町18-8,,,,36.051708,136.273249,
590,E1820100739121,総合福祉施設あけぼの園,福井県福井市河水町5-1-1,,,要配慮者,36.054825,136.275467,
591,E1820100083111,西部保育園,福井県福井市花月2-10-10,,,,36.069283,136.208797,
592,E1820100085122,花むつ苑,福井県福井市花堂中1-5-6,,,要配慮者,36.039061621063,136.21526744784,
593,E1820100093121,介護療養型老人保健施設さくら,福井県福井市花堂東2-408,,,要配慮者,36.041666003571,136.22274419296,
594,E1820100097111,花堂保育園,福井県福井市花堂北2-23-25,,,,36.040063,136.210644,
595,E1820100100111,啓蒙小学校,福井県福井市開発1-1008,,,,36.077113,136.240562,
596,E1820100102111,啓蒙保育園,福井県福井市開発1-1910,,,,36.077277,136.243609,
597,E1820100103111,啓蒙公民館,福井県福井市開発1-2105,,,,36.077938,136.244333,
598,E1820100738121,アスピカケアセンターかいほつ,福井県福井市開発5-102-1,,,要配慮者,36.0853,136.237106,
599,E1820100108111,湊小学校,福井県福井市学園1-4-8,,,,36.069874,136.201763,
600,E1820100108112,湊公民館,福井県福井市学園1-4-8,,,,36.068796,136.202284,
601,E1820100113121,こしの渚苑,福井県福井市蒲生町1-90-1,,,要配慮者,36.038244049723,136.01110474872,
602,E1820100114111,越前水仙の里温泉波の華,福井県福井市蒲生町1-94,,,,36.037563,136.01012,
603,E1820100116121,アットホーム仁愛,福井県福井市乾徳4-4-10,,,要配慮者,36.071621870738,136.20565590354,
604,E1820100118111,福井商業高等学校,福井県福井市乾徳4-8-19,,,,36.073849,136.206104,
605,E1820100123121,愛全園,福井県福井市丸山町40-7,,,要配慮者,36.077612988429,136.25149322692,
606,E1820100124111,大安寺小・中学校,福井県福井市岸水町16-25-1,,,,36.109526,136.17413,
607,E1820100125111,松本保育園,福井県福井市幾久町7-17,,,,36.081302,136.226279,
608,E1820100126111,社西公民館,福井県福井市久喜津町65-23,,,,36.050812,136.177199,
609,E1820100129111,美山トレーニングセンター,福井県福井市境寺町2-7,,,,35.998411,136.363823,
610,E1820100130111,みやまこども園,福井県福井市境寺町36-3,,,,35.998329,136.364562,
611,E1820100132111,森田浜保育園,福井県福井市栗森町浜603,,,,36.114524,136.241609,
612,E1820100137111,豊小学校,福井県福井市月見3-9-1,,,,36.045824,136.211075,
613,E1820100703121,いちご月見の里,福井県福井市月見4-20-47,,,要配慮者,36.045563,136.204666,
614,E1820100705121,いちご月見亭,福井県福井市月見4-20-50,,,要配慮者,36.045624,136.204987,
615,E1820100704121,いちごデイセンターみのり,福井県福井市月見4-3-29,,,要配慮者,36.048172,136.203827,
616,E1820100139111,おさごえ民家園,福井県福井市月見5-4-48,,,,36.046306,136.199662,
617,E1820100145111,高志高等学校,福井県福井市御幸2-25-8,,,,36.05931,136.232274,
618,E1820100146111,御幸保育園,福井県福井市御幸2-7-29,,,,36.057148,136.230494,
619,E1820100148111,和田公民館,福井県福井市御幸4-9-20,,,,36.054433505932,136.23864981609,
620,E1820100150111,湊保育園,福井県福井市光陽1-9-8,,,,36.067587,136.203703,
621,E1820100707122,地域活動支援センターわいわい,福井県福井市光陽2-17-25,,,要配慮者,36.065731,136.198929,
622,E1820100707121,グループホームやすらぎの家,福井県福井市光陽2-17-25,,,要配慮者,36.065731,136.198929,
623,E1820100708121,きっずリハビリテーションサポート,福井県福井市光陽2-18-2,,,要配慮者,36.064594,136.198151,
624,E1820100152111,福井県社会福祉センター,福井県福井市光陽2-3-22,,,,36.067428843069,136.19811746747,
625,E1820100154111,光陽中学校,福井県福井市光陽4-7-1,,,,36.066921,136.194718,
626,E1820100163121,県民せいきょう江守きらめき,福井県福井市江守中町2-12,,,要配慮者,36.03719199393,136.19893437482,
627,E1820100165121,新田塚ハウス,福井県福井市江上町55-5,,,要配慮者,36.131062639092,136.1640581115,
628,E1820100718121,みんなの家みつばち,福井県福井市江端町1-4,,,要配慮者,36.029758,136.208939,
629,E1820100170122,えばたの郷,福井県福井市江端町20-1-3,,,要配慮者,36.02673,136.211578,
630,E1820100170121,えばたホームやわらぎ,福井県福井市江端町20-1-3,,,要配慮者,36.026035291739,136.21279893259,
631,E1820100172111,清明保育園,福井県福井市江端町32-67,,,,36.02778,136.210237,
632,E1820100174111,本郷公民館,福井県福井市荒谷町19-55,,,,36.116702,136.140894,
633,E1820100175111,酒生公民館,福井県福井市荒木新保町37-9-5,,,,36.033612,136.27171,
634,E1820100176111,高須城小学校,福井県福井市高須町71-31,,,,36.114393,136.106937,
635,E1820100187121,ケアハウス藤島園,福井県福井市高木中央3-1701,,,要配慮者,36.091964491919,136.23949978017,
636,E1820100187122,藤島園,福井県福井市高木中央3-1701,,,要配慮者,36.092393639781,136.23953733111,
637,E1820100189111,中藤屋内運動場,福井県福井市高木町64-11-1,,,,36.100455,136.234544,
638,E1820100190111,中藤島公民館,福井県福井市高木町64-11-4,,,,36.100352843299,136.23355629332,
639,E1820100742121,ネクステクノ,福井県福井市高柳1-1302,,,要配慮者,36.089748,136.243469,
640,E1820100743121,株式会社つばさ,福井県福井市高柳1-203,,,要配慮者,36.089794,136.242493,
641,E1820100197111,中藤小学校,福井県福井市高柳3-3001,,,,36.097119,136.24169,
642,E1820100201111,足羽中学校,福井県福井市今市町5-10,,,,36.006331,136.205638,
643,E1820100735121,みどりの森社会復帰センターこもれび,福井県福井市今泉町2-5-1,,,要配慮者,36.06646,136.262054,
644,E1820100204111,鶉小学校,福井県福井市砂子坂町4-31,,,,36.144788,136.146217,
645,E1820100205111,川西コミュニティーセンター（鶉公民館）,福井県福井市砂子坂町5-58,,,,36.143679,136.147303,
646,E1820100207121,かわにし苑,福井県福井市砂子坂町9-5,,,要配慮者,36.146145239256,136.1472642731,
647,E1820100206111,鶉こども園,福井県福井市砂子坂町６字20,,,,36.143487,136.145953,
648,E1820100209111,福井県立武道館,福井県福井市三ツ屋町8-1-1,,,,36.084885,136.194606,
649,E1820100211111,清水東公民館,福井県福井市三留町14-11-1,,,,36.03723,136.152291,
650,E1820100212111,清水東小学校,福井県福井市三留町69-2,,,,36.03793,136.153566,
651,E1820100214112,西藤島公民館,福井県福井市三郎丸1-1410,,,,36.079761,136.193559,
652,E1820100214111,西藤島小学校,福井県福井市三郎丸1-1410,,,,36.079548,136.193032,
653,E1820100215111,西藤島保育園,福井県福井市三郎丸1-1414,,,,36.079575,136.193925,
654,E1820100221111,河合小学校,福井県福井市山室町10-12,,,,36.11946,136.19318,
655,E1820100222111,河合保育園,福井県福井市山室町10-7,,,,36.118789,136.193087,
656,E1820100223111,日之出公民館,福井県福井市四ツ井1-7-24,,,,36.066268,136.235821,
657,E1820100226111,大安寺公民館,福井県福井市四十谷町5-20-1,,,,36.107708,136.175296,
658,E1820100228111,美山公民館下宇坂分館,福井県福井市市波町25-11-1,,,,36.018921744074,136.33106428836,
659,E1820100229111,美山楽く楽く亭,福井県福井市市波町26-15,,,,36.0183,136.332781,
660,E1820100230121,特別養護老人ホーム美山貴寿苑,福井県福井市市波町31-2,,,要配慮者,36.01619902405,136.33084069883,
661,E1820100231121,福井美山荘,福井県福井市市波町54-25,,,要配慮者,36.017985047967,136.32658026973,
662,E1820100232111,下宇坂小学校,福井県福井市市波町55-5,,,,36.015519,136.33279,
663,E1820100238121,介護老人保健施設九頭竜長生苑,福井県福井市寺前町2-2-2,,,要配慮者,36.103239677609,136.23420979884,
664,E1820100245121,特別養護老人ホーム　愛寿苑,福井県福井市若杉2-601,,,要配慮者,36.055230158128,136.19078541894,
665,E1820100246111,社中学校,福井県福井市若杉4-1402,,,,36.055646,136.184938,
666,E1820100247111,社北小学校,福井県福井市若杉4-143,,,,36.059496,136.185672,
667,E1820100722121,リハビリデイサービスわかすぎ,福井県福井市若杉4-1602,,,要配慮者,36.057289,136.184601,
668,E1820100249111,社北公民館,福井県福井市若杉4-308,,,,36.05829,136.186322,
669,E1820100251111,道守高等学校,福井県福井市若杉町35-21,,,,36.056199,136.180014,
670,E1820100254111,旭公民館,福井県福井市手寄2-1-1,,,,36.060607,136.226188,
671,E1820100255111,旭小学校,福井県福井市手寄2-2-5,,,,36.060198,136.228114,
672,E1820100258111,社保育園,福井県福井市種池1-811,,,,36.03527,136.191537,
673,E1820100259111,社南小学校,福井県福井市種池2-128,,,,36.037144,136.191784,
674,E1820100260111,社南公民館,福井県福井市種池2-206,,,,36.037151,136.190424,
675,E1820100261111,旧治水記念館,福井県福井市種池2-305,,,,36.037445,136.19056,
676,E1820100268121,足羽更正園,福井県福井市宿布町19-46-1,,,要配慮者,36.012878110082,136.30407299491,
677,E1820100713121,清風の杜,福井県福井市順化1-3-15,,,要配慮者,36.063717,136.215958,
678,E1820100728121,グループホームいちご和えの里,福井県福井市勝見3-20-12,,,要配慮者,36.053764,136.234116,
679,E1820100728122,いちご日和,福井県福井市勝見3-20-12,,,要配慮者,36.053764,136.234116,
680,E1820100731121,いちごライフ,福井県福井市勝見３－２０－１２いちごの森１階,,,要配慮者,36.053764,136.234116,
681,E1820100729121,Ｉ－ＷＩＬＬ,福井県福井市勝見３－２０－１２いちごの森２階,,,要配慮者,36.053764,136.234116,
682,E1820100278111,旧清水総合支所,福井県福井市小羽町27-1,,,,36.032371,136.136067,
683,E1820100287111,進明中学校,福井県福井市松本1-10-1,,,,36.072597,136.22967,
684,E1820100288121,松本ホームやわらぎ,福井県福井市松本1-2-19,,,要配慮者,36.071534273632,136.23256290832,
685,E1820100716121,花園在宅介護センター,福井県福井市松本1-36-15,,,要配慮者,36.075817,136.232101,
686,E1820100292111,北部保育園,福井県福井市松本2-7-26,,,,36.072048,136.228467,
687,E1820100293111,宝永小学校,福井県福井市松本3-15-1,,,,36.07295,136.223042,
688,E1820100294112,職員会館ビル,福井県福井市松本3-16-10,,,,36.07253,136.224325,
689,E1820100294111,福井合同庁舎,福井県福井市松本3-16-10,,,,36.07331,136.224107,
690,E1820100297111,宝永公民館,福井県福井市松本4-8-4,,,,36.07234,136.220237,
691,E1820100308111,森田東保育園,福井県福井市上森田4-302,,,,36.113224,136.235189,
692,E1820100312111,上北野保育園,福井県福井市上北野1-22-46,,,,36.062085,136.250257,
693,E1820100318111,森田中学校,福井県福井市上野本町37-12,,,,36.115789290581,136.23775129842,
694,E1820100322111,六条小学校,福井県福井市上莇生田町5-16,,,,36.026649,136.233508,
695,E1820100323111,一乗谷史跡公園センター,福井県福井市城戸ノ内町10-48,,,,36.003242857934,136.29798058469,
696,E1820100326111,成和中学校,福井県福井市城東3-10-1,,,,36.061612,136.238058,
697,E1820100332111,福井南高等学校,福井県福井市新開町15-12,,,,36.015555,136.218425,
698,E1820100744121,みらい,福井県福井市新田塚2-12-15,,,要配慮者,36.087765,136.205093,
699,E1820100343121,新田塚ハイツ,福井県福井市新田塚町506,,,要配慮者,36.088224927838,136.21011844703,
700,E1820100349111,福井農林高等学校,福井県福井市新保町49-1,,,,36.079113,136.253059,
701,E1820100352111,清水南小学校,福井県福井市真栗町15-33,,,,36.014753,136.148132,
702,E1820100354111,東安居小学校,福井県福井市水越2-503,,,,36.066199,136.187652,
703,E1820100355111,川西中学校,福井県福井市水切町39-24,,,,36.143583,136.144543,
704,E1820100356111,足羽高等学校,福井県福井市杉谷町44,,,,36.008834,136.195807,
705,E1820100357121,小規模多機能型居宅介護ぽかぽか,福井県福井市菅谷1-13-19,,,要配慮者,36.069870885496,136.19352205282,
706,E1820100719121,前進主義ふくい移行支援,福井県福井市菅谷1-5-16,,,要配慮者,36.07225,136.192871,
707,E1820100360111,酒生小学校,福井県福井市成願寺町5-1,,,,36.032893,136.275053,
708,E1820100364111,上文殊小学校,福井県福井市生部町36-6,,,,35.999358,136.253012,
709,E1820100365121,介護老人保健施設あじさい,福井県福井市西下野町15-12,,,要配慮者,36.065418919393,136.16443285421,
710,E1820100367111,美山公民館下味見分館,福井県福井市西河原町18-33-1,,,,35.95187,136.359919,
711,E1820100373121,軽費老人ホームケアハウスあさくら,福井県福井市西新町1-21,,,要配慮者,35.994817813122,136.28935062982,
712,E1820100374111,一乗小学校,福井県福井市西新町1-4,,,,35.995575,136.290379,
713,E1820100706121,くるみの森　西谷,福井県福井市西谷１－１１２７グリーンプラスビル２Ｆ,,,要配慮者,36.03735,136.208664,
714,E1820100379111,美山公民館芦見分館（芦見生涯教育施設）,福井県福井市西中町3-9-1,,,,36.026876,136.406104,
715,E1820100727121,いちごショートステイ,福井県福井市西方1-2-11,,,要配慮者,36.053596,136.234711,
716,E1820100727122,通所リハ　健康の家,福井県福井市西方1-2-11,,,要配慮者,36.053596,136.234711,
717,E1820100387111,旧南部保育園,福井県福井市西木田1-16-20,,,,36.055039,136.216302,
718,E1820100390111,棗公民館,福井県福井市石橋町4-14,1,,,36.14578493475,136.10729650815,
719,E1820100392111,棗小・中学校,福井県福井市石新保町12-32,1,,,36.145335456411,136.10889584581,
720,E1820100393111,棗こども園,福井県福井市石新保町13-17,1,,,36.145122124523,136.10817716656,
721,E1820100755121,たんぽぽ苑,福井県福井市石盛3-301,,,要配慮者,36.110342,136.229181,
722,E1820100399111,下味見生涯教育施設,福井県福井市折立町41-1,,,,35.953186,136.35783,
723,E1820100400111,鶉東部幼稚園,福井県福井市仙町6-4,,,,36.128846,136.164503,
724,E1820100402121,アルマ千寿,福井県福井市川合鷲塚町49-5,,,要配慮者,36.113447715372,136.21275983749,
725,E1820100403111,福井県工業技術センター,福井県福井市川合鷲塚町61-10,,,,36.120626,136.217472,
726,E1820100404111,河合公民館,福井県福井市川合鷲塚町9-18,,,,36.117497,136.200155,
727,E1820100726121,グループホームあそうづ,福井県福井市浅水三ケ町1-29-2,,,要配慮者,36.004623,136.201004,
728,E1820100407111,麻生津公民館,福井県福井市浅水三ケ町1-93,,,,36.002448,136.200936,
729,E1820100412111,麻生津小学校,福井県福井市浅水二日町28-5,,,,36.002308,136.198228,
730,E1820100411111,麻生津こども園,福井県福井市浅水二日町１３１下河原18,,,,36.0017,136.196901,
731,E1820100414121,県民せいきょう岡保きらめき,福井県福井市曽万布町7-18-1,,,要配慮者,36.042570082422,136.26089259121,
732,E1820100417111,足羽公民館,福井県福井市足羽2-12-31,,,,36.05993,136.204094,
733,E1820100419111,足羽小学校,福井県福井市足羽3-1-1,,,,36.058648,136.206424,
734,E1820100421111,自然史博物館,福井県福井市足羽上町147,,,,36.056592,136.209557,
735,E1820100422111,文殊こども園,福井県福井市太田町14-1,,,,36.011665,136.230318,
736,E1820100423111,文殊公民館,福井県福井市太田町4-11-2,,,,36.010844,136.222895,
737,E1820100751121,グループホーム楽ちんの家笑楽,福井県福井市大久保町1-61,,,要配慮者,36.020117,136.334475,
738,E1820100433111,美山公民館羽生分館,福井県福井市大宮町11-8,,,,36.000176,136.413743,
739,E1820100434111,羽生小学校,福井県福井市大宮町12-31,,,,35.999496,136.415966,
740,E1820100714121,Ｇ・Ｓ・Ｉ,福井県福井市大手1-1-17,,,要配慮者,36.065685,136.226288,
741,E1820100712121,桜手苑,福井県福井市大手2-22-18,,,要配慮者,36.066509,136.223328,
742,E1820100437121,アーバン・ヴィラ・ロータス,福井県福井市大手2-3-1,,,要配慮者,36.064200986145,136.22412148777,
743,E1820100438111,福井市役所,福井県福井市大手3-10-1,,,,36.064059,136.219594,
744,E1820100440111,順化小学校,福井県福井市大手3-16-1,,,,36.066504,136.220667,
745,E1820100440112,順化公民館,福井県福井市大手3-16-1,,,,36.066329683113,136.22087351059,
746,E1820100715121,ＷＡＬＬＥＳＳ　ＪＯＢＴＯＲＥ,福井県福井市大手３－１－１５ビアンモア大手ビル８階,,,要配慮者,36.063229,136.220245,
747,E1820100441111,清水西公民館,福井県福井市大森町20-43-1,,,,36.019698,136.11793,
748,E1820100442121,ケアハウス清水苑,福井県福井市大森町7-1,,,要配慮者,36.021182270118,136.11816735113,
749,E1820100443111,清水西小学校,福井県福井市大森町9-2,,,,36.018658,136.11699,
750,E1820100454111,本郷保育園,福井県福井市大年町1-56,,,,36.116827,136.141462,
751,E1820100455111,本郷小学校,福井県福井市大年町65-32,,,,36.114978,136.140452,
752,E1820100457111,越廼中学校,福井県福井市大味町29-83,,,,36.051387,136.019285,
753,E1820100462121,グリーンライフ大和田,福井県福井市大和田町23-1,,,要配慮者,36.094831498419,136.25609461189,
754,E1820100466111,美山公民館上味見分館,福井県福井市中手町10-3-1,,,,35.961676,136.417895,
755,E1820100467111,伊自良館（温泉）,福井県福井市中手町29-3,,,,35.957122,136.42192,
756,E1820100468111,上味見生涯教育施設,福井県福井市中手町7-3,,,,35.962912,136.418587,
757,E1820100471111,美山啓明小学校,福井県福井市朝谷町1-20,,,,35.99447,136.372081,
758,E1820100474111,松本小学校,福井県福井市町屋3-14-20,,,,36.078381,136.225975,
759,E1820100477111,長橋小学校,福井県福井市長橋町18-48,,,,36.110509,136.049194,
760,E1820100479121,足羽利生苑,福井県福井市栂野町20-7,,,要配慮者,36.038850664709,136.25809676023,
761,E1820100481111,六条こども園,福井県福井市天王町21-1-1,,,,36.027123,136.234611,
762,E1820100482111,六条公民館,福井県福井市天王町43-4,,,,36.026793,136.234048,
763,E1820100485111,仁愛女子短期大学,福井県福井市天池町43-1-1,,,,36.103499,136.217525,
764,E1820100487111,フェニックス・プラザ,福井県福井市田原1-13-6,,,,36.074114,136.21717,
765,E1820100746121,手づくり工房コスモス,福井県福井市田尻栃谷町38-46-5,,,要配慮者,36.034486,136.165742,
766,E1820100746122,しみずの杜,福井県福井市田尻栃谷町38-46-5,,,要配慮者,36.034486,136.165742,
767,E1820100495111,福井市防災ステーション,福井県福井市土橋町3-80-1,,,,36.101778,136.186045,
768,E1820100497111,宮ノ下公民館,福井県福井市島山梨子町22-9,,,,36.131594,136.162383,
769,E1820100498111,清水中学校,福井県福井市島寺町2-55,,,,36.024697,136.142909,
770,E1820100499111,ふれあいドーム,福井県福井市島寺町2-80,,,,36.024479,136.143994,
771,E1820100500121,障がい者支援施設若越ひかりの村,福井県福井市島寺町67-30,,,要配慮者,36.018935555035,136.13980288231,
772,E1820100501121,すみれ荘,福井県福井市島寺町83-1,,,要配慮者,36.017357736011,136.14230853594,
773,E1820100747121,グループホーム若越ひかりの村島寺ホーム,福井県福井市島寺町83-32,,,要配慮者,36.021942,136.14534,
774,E1820100505111,東郷こども園,福井県福井市東郷二ケ町37-18,,,,36.015517,136.272999,
775,E1820100506111,東郷公民館,福井県福井市東郷二ケ町6-13-1,,,,36.018883,136.2661,
776,E1820100507121,あさくらの家東郷,福井県福井市東郷二ケ町6-2-1,,,要配慮者,36.019292217551,136.26517150897,
777,E1820100508111,一乗公民館,福井県福井市東新町1-21,,,,35.9942447393982,136.290508907221,
778,E1820100749121,支援センターすだち,福井県福井市東大味町11-38-2,,,要配慮者,35.988125,136.266098,
779,E1820100511111,明新小学校,福井県福井市灯明寺1-2101,,,,36.091422,136.212931,
780,E1820100510121,ほのか,福井県福井市灯明寺1-2401-2,,,要配慮者,36.092335365348,136.21210797257,
781,E1820100745121,一般社団法人Ｏｒａｎｇｅ　Ｋｉｄｓ’Ｃａｒｅ　Ｌａｂ．,福井県福井市灯明寺3-3511,,,要配慮者,36.097923,136.211731,
782,E1820100514111,灯明寺中学校,福井県福井市灯明寺3-3801,,,,36.097736,136.21397,
783,E1820100519111,明新公民館,福井県福井市灯明寺町35-1-1,,,,36.089316,136.214329,
784,E1820100748121,九頭竜ワークショップ　七瀬の郷,福井県福井市燈豊町43-9-3,,,要配慮者,36.122383,136.129623,
785,E1820100522111,東藤島小学校,福井県福井市藤島町44-8,,,,36.086542,136.272093,
786,E1820100523111,東藤島こども園,福井県福井市藤島町46-13-1,,,,36.086491,136.271453,
787,E1820100524111,東藤島公民館,福井県福井市藤島町48-1-1,,,,36.087475,136.269822,
788,E1820100526111,東郷小学校,福井県福井市栃泉町3-105,,,,36.014544,136.272801,
789,E1820100527121,宝珠苑,福井県福井市内山梨子町2-3-1,,,要配慮者,36.134801117868,136.15737965037,
790,E1820100529111,福井市収集資源センター,福井県福井市南江守町2-1,,,,36.03168,136.198631,
791,E1820100531111,至民中学校,福井県福井市南江守町65-20,,,,36.025827,136.188276,
792,E1820100736121,平谷こども発達クリニック円山事業所はぐくみ,福井県福井市南四ツ居町3-5,,,要配慮者,36.069511,136.250351,
793,E1820100542121,小規模多機能型居宅介護事業所いろどり二の宮,福井県福井市二の宮3-32-21,,,要配慮者,36.086792106362,136.21782704329,
794,E1820100545112,福井大学教育学部附属義務教育学校（前期課程）,福井県福井市二の宮4-45-1,,,,36.087078,136.21131,
795,E1820100545111,福井大学教育学部附属義務教育学校（後期課程）,福井県福井市二の宮4-45-1,,,,36.087563767874,136.21164149494,
796,E1820100555121,地域密着型介護老人福祉施設あるば・あい,福井県福井市日之出3-16-18,,,要配慮者,36.061628076765,136.22999211628,
797,E1820100557111,日之出小学校,福井県福井市日之出5-11-1,,,,36.065744,136.232625,
798,E1820100558111,日之出保育園,福井県福井市日之出5-14-1,,,,36.065963,136.234083,
799,E1820100563111,藤島中学校,福井県福井市八ツ島町7-6,,,,36.085361,136.201174,
800,E1820100566121,ＨＯＭＥＴＯＷＮ　コスモス,福井県福井市帆谷町１字外山33,,,要配慮者,36.007520592076,136.23596916301,
801,E1820100571121,介護老人保健施設ひかりケアホーム,福井県福井市板垣5-201,,,要配慮者,36.048103920783,136.22670798768,
802,E1820100573111,東安居公民館,福井県福井市飯塚町6-18,,,,36.06631,136.186601,
803,E1820100575111,美山公民館,福井県福井市美山町2-12,,,,35.999937,136.359729,
804,E1820100576111,木ごころ文化ホール,福井県福井市美山町2-8,,,,36.000248,136.358991,
805,E1820100578111,美山連絡所,福井県福井市美山町7-1,,,,35.998735,136.360684,
806,E1820100579111,美山中学校,福井県福井市美山町9-14,,,,35.998016,136.362033,
807,E1820100721121,ツクイ福井舞屋,福井県福井市舞屋町8-101,,,要配慮者,36.032925,136.202652,
808,E1820100586111,きらら館,福井県福井市風巻町20-17,,,,36.026436,136.144808,
809,E1820100587111,清水南公民館,福井県福井市風巻町21-17,,,,36.026273,136.145091,
810,E1820100589111,殿下公民館,福井県福井市風尾町1-13,,,,36.038881,136.046276,
811,E1820100590111,殿下小学校,福井県福井市風尾町6-24,,,,36.036434,136.046839,
812,E1820100595111,福井少年運動公園,福井県福井市福町3-20,,,,36.052614401086,136.18691299882,
813,E1820100595112,福井運動公園,福井県福井市福町3-20,,,,36.05198,136.184833,
814,E1820100598111,松本公民館,福井県福井市文京1-29-1,,,,36.078,136.225024,
815,E1820100600111,北陸高等学校,福井県福井市文京1-8-1,,,,36.075957,136.220049,
816,E1820100711121,就労事業所ジョブガーデン,福井県福井市文京2-14-25,,,要配慮者,36.079147,136.218643,
817,E1820100710121,デイセンターすずかぜ,福井県福井市文京2-16-9,,,要配慮者,36.079353,136.218948,
818,E1820100601111,明道中学校,福井県福井市文京2-5-1,,,,36.076743,136.217834,
819,E1820100709121,みどりの森デイサービス,福井県福井市文京2-6-10,,,要配慮者,36.077316,136.218002,
820,E1820100602111,藤島高等学校,福井県福井市文京2-8-30,,,,36.079635,136.21638,
821,E1820100603111,春山公民館,福井県福井市文京3-11-12,,,,36.077898,136.211797,
822,E1820100604111,春山小学校,福井県福井市文京3-13-1,,,,36.078723,136.213234,
823,E1820100605111,牧島保育園,福井県福井市文京3-26-23,,,,36.079857,136.210724,
824,E1820100606111,国立大学法人福井大学,福井県福井市文京3-9-1,,,,36.076975,136.211743,
825,E1820100607111,啓新高等学校,福井県福井市文京4-15-1,,,,36.076748426104,136.2087826493,
826,E1820100608111,日新公民館,福井県福井市文京5-1-8,,,,36.07491,136.20722,
827,E1820100609111,日新小学校,福井県福井市文京5-25-30,,,,36.078378,136.203378,
828,E1820100740121,ツクイ福井文京,福井県福井市文京7-8-20,,,要配慮者,36.075855,136.195618,
829,E1820100741121,あったかい,福井県福井市文京7-8-23,,,要配慮者,36.075874,136.195953,
830,E1820100614111,地域活性化施設,福井県福井市平尾町24-12-1,,,,36.035597,136.107475,
831,E1820100717121,いちごデイセンター福井,福井県福井市米松1-14-15,,,要配慮者,36.067287,136.241058,
832,E1820100758121,わがや,福井県福井市宝永3-25-8,,,要配慮者,36.069507,136.222811,
833,E1820100621121,宝永きらめき,福井県福井市宝永3-3-1,,,要配慮者,36.067266445835,136.224112975,
834,E1820100623111,仁愛女子高等学校,福井県福井市宝永4-9-24,,,,36.068111,136.218753,
835,E1820100624111,美山アンデパンダン広場,福井県福井市縫原町21-73,,,,36.005915,136.401274,
836,E1820100720121,在宅サポートのびのび,福井県福井市豊岡1-16-22,,,要配慮者,36.070274,136.192261,
837,E1820100627111,大東中学校,福井県福井市北今泉町10-6-2,,,,36.073275,136.255738,
838,E1820100628111,円山公民館,福井県福井市北今泉町7-12,,,,36.069201771738,136.25370605027,
839,E1820100629111,上文殊公民館,福井県福井市北山町34-1,,,,36.001674,136.253009,
840,E1820100737121,平谷こども発達クリニック発達支援室,福井県福井市北四ツ居2-1409,,,要配慮者,36.066273,136.245239,
841,E1820100634111,円山小学校,福井県福井市北四ツ居3-15-17,,,,36.068886,136.247228,
842,E1820100639111,安居中学校,福井県福井市本堂町12-4,,,,36.058389,136.135857,
843,E1820100641111,安居小学校,福井県福井市本堂町4-12,,,,36.06116,136.134698,
844,E1820100643121,特別養護老人ホーム高雄苑,福井県福井市本堂町51-33,,,要配慮者,36.056381123018,136.12682475543,
845,E1820100644111,安居公民館,福井県福井市本堂町7-4,,,,36.059541,136.135661,
846,E1820100645111,西安居保育園,福井県福井市本堂町8-31-1,,,,36.05983,136.135079,
847,E1820100651111,鷹巣公民館,福井県福井市蓑町14-7,1,,,36.127027019015,136.06175327133,
848,E1820100652111,福井競輪場,福井県福井市明里町2-65,,,,36.060688,136.199283,
849,E1820100654111,旧明里保育園,福井県福井市明里町9-1,,,,36.060026,136.198055,
850,E1820100656121,悠和園,福井県福井市免鳥町22-74,,,要配慮者,36.130940703501,136.07479907828,
851,E1820100659112,木田小学校,福井県福井市木田1-1360,,,,36.048179,136.220619,
852,E1820100659111,明倫中学校,福井県福井市木田1-1360,,,,36.049059,136.220622,
853,E1820100660111,木田公民館,福井県福井市木田1-1401,,,,36.049021,136.222069,
854,E1820100661111,旧木田保育園,福井県福井市木田1-1406,,,,36.048267,136.222214,
855,E1820100674111,東山健康運動公園,福井県福井市寮町50-5,,,,36.059748,136.280994,
856,E1820100675111,福井県産業技術専門学院,福井県福井市林藤島町20-1-3,,,,36.088659,136.257031,
857,E1820100676111,和田小学校,福井県福井市和田1-2-1,,,,36.052073,136.240741,
858,E1820100681121,ケアハウスモアヤング,福井県福井市和田中町東沖田30-1,,,要配慮者,36.050238228697,136.25715681986,
859,E1820100682121,介護老人保健施設ケアホームさいせい,福井県福井市和田中町徳万28,,,要配慮者,36.045896632885,136.25336954072,
860,E1820100730121,和田東いちごデイサービスセンター,福井県福井市和田東1-1410,,,要配慮者,36.05294,136.245422,
861,E1820100734121,モストヴィレッジ和田,福井県福井市和田東1-203,,,要配慮者,36.054841,136.245838,
862,E1820100732121,イスキア生活倶楽部,福井県福井市和田東1-2206,,,要配慮者,36.052287,136.248166,
863,E1820100733121,すのうどろっぷｈｏｐｅ,福井県福井市和田東1-2218,,,要配慮者,36.052147,136.248245,
864,E1820100683111,防災センター,福井県福井市和田東2-2207,,,,36.047331,136.250276,
865,E1820100687111,鷹巣小・中学校,福井県福井市和布町3-6,1,,,36.13112492044,136.0659865501,
866,E1820100688111,福井市少年自然の家,福井県福井市脇三ケ町66-2-10,,,,36.01261,136.292157,
867,E1820100694112,文化財保護センター,福井県福井市渕4-748,,,,36.0452,136.186093,
868,E1820100694111,ちもり体育館,福井県福井市渕4-748,,,,36.044912,136.186113,
869,E1820100698111,越廼公民館,福井県福井市茱崎町1-68,,,,36.03925,136.012246,
870,E1820100699111,越廼小学校,福井県福井市茱崎町3-25,1,,,36.0403,136.014014,
