NO,共通ID,施設・場所名,住所,洪水,崖崩れ、土石流及び地滑り,高潮,地震,津波,大規模な火事,内水氾濫,火山現象,指定避難所との住所同一,緯度,経度,備考
1,E1921000001201,双葉体育館,山梨県甲斐市宇津谷2221,1,,,,,,1,,1,35.7036,138.485,
2,E1921000002201,双葉中学校【体育館】,山梨県甲斐市岩森1337,1,,,,,,1,,1,35.690208,138.491311,
3,E1921000005201,敷島北小学校【学校校舎２階以上】,山梨県甲斐市境57,1,,,,,,1,,1,35.694777,138.524718,
4,E1921000006201,竜王西小学校　【学校校舎２階以上】,山梨県甲斐市玉川75,1,,,,,,1,,1,35.6384,138.5184,
5,E1921000007201,双葉西小学校【体育館】,山梨県甲斐市志田146,1,,,,,,1,,1,35.690286,138.481301,
6,E1921000008201,竜王南小学校　【学校校舎２階以上】,山梨県甲斐市篠原1180,1,,,,,,1,,1,35.6425,138.5282,
7,E1921000009201,市営田中団地２階以上共有部,山梨県甲斐市篠原1318-1,1,,,,,,1,,,35.6446,138.5263,
8,E1921000010201,竜王中学校　【学校校舎２階以上】,山梨県甲斐市篠原2030,1,,,,,,1,,1,35.6542,138.5145,
9,E1921000011201,竜王小学校　【学校校舎２階以上】,山梨県甲斐市篠原2800,1,,,,,,1,,1,35.6599,138.5185,
10,E1921000013201,竜王南部公民館　【２階以上】,山梨県甲斐市西八幡1976-1,1,,,,,,1,,1,35.6375,138.5239,
11,E1921000014201,玉幡小学校　【学校校舎２階以上】,山梨県甲斐市西八幡2560,1,,,,,,1,,1,35.6455,138.5169,
12,E1921000015201,玉幡中学校　【学校校舎２階以上】,山梨県甲斐市西八幡3190,1,,,,,,1,,1,35.6462,138.5095,
13,E1921000016201,敷島南小学校　【学校校舎２階以上】,山梨県甲斐市大下条175,1,,,,,,1,,1,35.671740673633,138.529026104472,
14,E1921000017201,双葉東小学校【体育館】,山梨県甲斐市大垈2780,1,,,,,,1,,1,35.692294,138.498795,
15,E1921000018201,敷島総合文化会館,山梨県甲斐市島上条1020,1,,,,,,1,,1,35.6885751760912,138.521779234304,
16,E1921000019201,敷島中学校　【体育館】,山梨県甲斐市島上条1263,1,,,,,,1,,1,35.686777,138.525978,
17,E1921000020201,敷島小学校　【学校校舎２階以上】,山梨県甲斐市島上条212,1,,,,,,1,,1,35.6845,138.5305,
18,E1921000021201,竜王東小学校　【学校校舎２階以上】,山梨県甲斐市富竹新田933-1,1,,,,,,1,,1,35.6588743611459,138.528418248997,
19,E1921000022201,竜王北中学校【体育館】,山梨県甲斐市竜王420,1,,,,,,1,,1,35.670161,138.505075,
20,E1921000023201,竜王北小学校【体育館】,山梨県甲斐市竜王555,1,,,,,,1,,1,35.670316,138.508156,
21,E1920100001201,荒川緑地（千秋橋上流左岸）,山梨県甲府市伊勢1,,1,,1,,1,,,,35.650617197839,138.56643869315,
22,E1920100002201,伊勢小学校,山梨県甲府市伊勢2-16-1,1,1,,1,,1,1,1,1,35.64507428756,138.56749058031,
23,E1920100003201,荒川緑地（新平和橋下流左岸）,山梨県甲府市伊勢4,,1,,1,,1,,,,35.639571220474,138.56395416844,
24,E1920100004201,羽黒小学校,山梨県甲府市羽黒町527,1,1,,1,,1,1,1,1,35.690226124926,138.54364343638,
25,E1920100005201,朝日小学校,山梨県甲府市塩部1-4-1,1,1,,1,,1,1,1,1,35.672000517689,138.56058764887,
26,E1920100006201,甲府工業高等学校,山梨県甲府市塩部2-7-1,1,1,,1,,1,1,1,1,35.671185564063,138.56002438577,
27,E1920100007201,駿台甲府高等学校グラウンド,山梨県甲府市塩部2-8-1,1,1,,1,,1,1,,,35.670231926545,138.55724290204,
28,E1920100008201,荒川緑地（音羽橋下流左岸）,山梨県甲府市音羽町1,,1,,1,,1,,,,35.676936397687,138.54084436282,
29,E1920100009204,貢川団地　８号館東側空地,山梨県甲府市下河原町3,,1,,1,,1,1,,,35.6643451,138.533397,
30,E1920100009201,貢川団地　２９号館南側空地,山梨県甲府市下河原町3,,1,,1,,1,1,,,35.666088240248,138.53290255842,
31,E1920100009202,貢川団地　３７号館東側空地,山梨県甲府市下河原町3,,1,,1,,1,1,,,35.666103493972,138.53401031073,
32,E1920100009203,貢川団地　４号館南側空地,山梨県甲府市下河原町3,,1,,1,,1,1,,,35.665194802706,138.53266115959,
33,E1920100010201,中道南小学校,山梨県甲府市下向山町4366,1,1,,1,,1,1,1,1,35.577133227178,138.58344655766,
34,E1920100011201,中道スポーツ広場,山梨県甲府市下向山町946,1,1,,1,,1,1,1,1,35.586309909271,138.58861066975,
35,E1920100012202,南部市民センター,山梨県甲府市下今井町15,1,1,,1,,1,1,1,1,35.614161,138.579911,
36,E1920100013201,南西第四公園,山梨県甲府市下石田2-3,,1,,1,,1,1,,,35.64902798,138.55125633,
37,E1920100014201,南西第三公園,山梨県甲府市下石田2-8,,1,,1,,1,1,,,35.64787543,138.55407833,
38,E1920100015202,甲府市立笛南中学校,山梨県甲府市下曽根町270,1,1,,1,,1,1,1,1,35.594801,138.575525,
39,E1920100016201,千代田小学校,山梨県甲府市下帯那町3034-2,1,1,,1,,1,1,1,1,35.712947085875,138.5525678808,
40,E1920100017201,下飯田防災拠点,山梨県甲府市下飯田1-442,,1,,1,,1,,,,35.668993146814,138.5476784569,
41,E1920100018201,甲府城西高等学校,山梨県甲府市下飯田1-9-1,1,1,,1,,1,1,1,1,35.666649,138.546929,
42,E1920100019201,甲府西高等学校,山梨県甲府市下飯田4-1-1,1,1,,1,,1,1,1,1,35.660815766854,138.54956781318,
43,E1920100020201,舞鶴小学校,山梨県甲府市丸の内2-35-5,1,1,,1,,1,1,1,1,35.662827903628,138.56502371655,
44,E1920100021201,ダイタ駅前第一・第二駐車場,山梨県甲府市丸の内2-5,,1,,1,,1,1,,,35.66625330906,138.56655333007,
45,E1920100022201,中央部市民センター,山梨県甲府市丸の内3-26-16,1,1,,1,,1,1,1,1,35.660929663178,138.56333590406,
46,E1920100023201,八幡神社境内,山梨県甲府市宮前町194,1,1,,1,,1,1,,,35.674692847483,138.57559474823,
47,E1920100024201,東海甲府高等学校グラウンド,山梨県甲府市金竹町1-1,1,1,,1,,1,1,,,35.667203152959,138.53880430512,
48,E1920100025201,上九一色出張所,山梨県甲府市古関町1158,,1,,1,,1,1,1,1,35.5307945,138.60991254,
49,E1920100026201,上条中学校,山梨県甲府市古上条町95,1,1,,1,,1,1,1,1,35.629558700919,138.55604698741,
50,E1920100027201,相川小学校,山梨県甲府市古府中町1501,1,1,,1,,1,1,1,1,35.686752723695,138.57426896756,
51,E1920100028201,武田神社境内,山梨県甲府市古府中町2611,1,1,,1,,1,1,,,35.686347517984,138.57694229717,
52,E1920100029201,大国小学校,山梨県甲府市後屋町150,1,1,,1,,1,1,1,1,35.628565625231,138.56581078463,
53,E1920100030202,玉諸公園,山梨県甲府市向町568,,1,,1,,1,1,,,35.64351531,138.61300654,
54,E1920100030201,老人ホーム敷地（へいりん荘）空地,山梨県甲府市向町568,,1,,1,,1,1,,,35.644663037337,138.61204511318,
55,E1920100031201,荒川緑地（音羽橋下流右岸）,山梨県甲府市荒川1,,1,,1,,1,,,,35.676849245335,138.54050640448,
56,E1920100032201,県立美術館広場,山梨県甲府市貢川1-4-27,,1,,1,,1,1,,,35.660388038639,138.53826280283,
57,E1920100033201,南西第二公園,山梨県甲府市貢川本町14,,1,,1,,1,1,,,35.653670253551,138.55120805971,
58,E1920100034201,貢川小学校,山梨県甲府市貢川本町8-1,1,1,,1,,1,1,1,1,35.654493203413,138.54884748751,
59,E1920100035201,荒川緑地（千秋橋上流右岸）,山梨県甲府市高畑1,,1,,1,,1,,,,35.64875885,138.56552051,
60,E1920100036201,荒川緑地（千秋橋下流右岸）,山梨県甲府市高畑3,,1,,1,,1,,,,35.64620365,138.56508294,
61,E1920100037201,国母小学校,山梨県甲府市国母4-1-10,1,1,,1,,1,1,1,1,35.640689575197,138.55805553573,
62,E1920100038201,南西部市民センター,山梨県甲府市国母6-4-2,1,1,,1,,1,1,1,1,35.637245025671,138.55478922167,
63,E1920100039201,地方卸売市場駐車場,山梨県甲府市国母6-5-1,,1,,1,,1,1,,,35.63546410415,138.55742795131,
64,E1920100040201,国母南公園,山梨県甲府市国母8-32,,1,,1,,1,1,,,35.63276073,138.55222108,
65,E1920100041201,黒平小学校跡地,山梨県甲府市黒平町485-1,1,1,,1,,1,1,,,35.804466980054,138.58714221896,
66,E1920100042201,山宮福祉センター,山梨県甲府市山宮町383-1,1,1,,1,,1,1,1,1,35.696587,138.52684,
67,E1920100043202,甲府市立北西中学校,山梨県甲府市山宮町538,1,1,,1,,1,1,1,1,35.691698,138.529308,
68,E1920100044201,甲府東高等学校,山梨県甲府市酒折1-17-1,1,1,,1,,1,1,1,1,35.655796589686,138.59731976394,
69,E1920100045201,山梨学院大学第３駐車場,山梨県甲府市酒折2-4-5,,1,,1,,1,1,,,35.656853103996,138.60256749161,
70,E1920100046201,寿宝第一公園,山梨県甲府市寿町26,,1,,1,,1,1,,,35.657475299662,138.56154641458,
71,E1920100047201,ＹＣＣ県民文化ホール駐車場,山梨県甲府市寿町26-1,,1,,1,,1,1,,,35.65830468,138.5613354,
72,E1920100048201,住吉区画整理３号公園,山梨県甲府市住吉4-3036,,1,,1,,1,1,,,35.638675076315,138.58426235449,
73,E1920100049201,小瀬スポーツ公園,山梨県甲府市小瀬町840,,1,,1,,1,1,,,35.621674615477,138.58696822314,
74,E1920100050201,玉諸小学校,山梨県甲府市上阿原町491,1,1,,1,,1,1,1,1,35.645641151142,138.60290104667,
75,E1920100051201,甲府商業高等学校,山梨県甲府市上今井町300,1,1,,1,,1,1,1,1,35.626042176102,138.57490779642,
76,E1920100052201,山城小学校,山梨県甲府市上今井町474-2,1,1,,1,,1,1,1,1,35.626183560575,138.57867078542,
77,E1920100053201,南西第一公園,山梨県甲府市上石田3-15,,1,,1,,1,1,,,35.651561595916,138.55519443449,
78,E1920100054201,石田小学校,山梨県甲府市上石田3-6-31,1,1,,1,,1,1,1,1,35.652611643195,138.55708895332,
79,E1920100055201,南西中学校,山梨県甲府市上石田4-10-8,1,1,,1,,1,1,1,1,35.648828235618,138.55580094069,
80,E1920100056202,甲府市立中道北小学校,山梨県甲府市上曽根町3368-36,1,1,,1,,1,1,1,1,35.602557,138.587517,
81,E1920100057201,環境センター,山梨県甲府市上町601-4,1,1,,1,,1,1,1,1,35.6283,138.596161,
82,E1920100058201,教育研修所駐車場ゲートボール場,山梨県甲府市城東1-12-28,1,1,,1,,1,1,,,35.65942759517,138.58053663821,
83,E1920100059201,市立図書館駐車場,山梨県甲府市城東1-12-33,1,1,,1,,1,1,,,35.659797151695,138.58171057025,
84,E1920100060201,オギノ城東店駐車場,山梨県甲府市城東4-3-17,,1,,1,,1,1,,,35.658407683019,138.58348706813,
85,E1920100061201,新田小学校,山梨県甲府市新田町12-28,1,1,,1,,1,1,1,1,35.662550513876,138.5391092084,
86,E1920100062201,甲府商科専門学校,山梨県甲府市西下条町1020,1,1,,1,,1,1,1,,35.608879273766,138.57600084913,
87,E1920100063201,甲府市総合市民会館駐車場,山梨県甲府市青沼3-5-44,,1,,1,,1,1,,,35.65221766,138.5760735,
88,E1920100064201,青葉スポーツ広場グラウンド,山梨県甲府市青葉町19-1,,1,,1,,1,1,,,35.643063493631,138.58334831157,
89,E1920100065201,千塚小学校,山梨県甲府市千塚1-2-16,1,1,,1,,1,1,1,1,35.680434452729,138.54122362928,
90,E1920100066201,千塚公園,山梨県甲府市千塚3-4,1,1,,1,,1,1,,,35.684529914795,138.54228076739,
91,E1920100067201,県立青少年センター駐車場・グラウンド,山梨県甲府市川田町517,1,1,,1,,1,1,,,35.652959810101,138.62539652964,
92,E1920100068201,甲運小学校,山梨県甲府市川田町65-2,1,1,,1,,1,1,1,1,35.656328653145,138.62243623625,
93,E1920100069201,里垣小学校,山梨県甲府市善光寺2-7-1,1,1,,1,,1,1,1,1,35.662838830966,138.59002083095,
94,E1920100070201,甲府市役所南庁舎別館,山梨県甲府市相生1-9-7,1,1,,1,,1,1,1,1,35.65646,138.565894,
95,E1920100071201,甲府市役所南庁舎,山梨県甲府市相生2-17-1,1,1,,1,,1,1,1,1,35.655284153184,138.56761940925,
96,E1920100072201,山梨大学グラウンド（東）,山梨県甲府市大手2-1,1,1,,1,,1,1,,,35.677639874853,138.5763370945,
97,E1920100073201,山梨大学グラウンド（北）,山梨県甲府市大手2-2,1,1,,1,,1,1,,,35.678818066356,138.57770888692,
98,E1920100074201,北東中学校,山梨県甲府市大手2-4-18,1,1,,1,,1,1,1,1,35.681727513739,138.57903200762,
99,E1920100075201,甲府市浄化センターグラウンド,山梨県甲府市大津町1645,,1,,1,,1,1,,,35.597689565816,138.561365772,
100,E1920100076201,アイメッセ山梨軒下・駐車場,山梨県甲府市大津町2192-8,,1,,1,,1,1,,,35.601749544484,138.5644588606,
101,E1920100077202,甲府市立城南中学校,山梨県甲府市大里町2590-1,1,1,,1,,1,1,1,1,35.619218,138.569234,
102,E1920100078201,大里小学校,山梨県甲府市大里町3785-2,1,1,,1,,1,1,1,1,35.614089956731,138.56585990367,
103,E1920100079201,オギノ国母店駐車場,山梨県甲府市大里町5016,,1,,1,,1,1,,,35.625347,138.550476,
104,E1920100080201,北中学校,山梨県甲府市大和町4-35,1,1,,1,,1,1,1,1,35.679223458739,138.55555018582,
105,E1920100081201,県立大学（池田）グラウンド,山梨県甲府市池田1-6-1,1,1,,1,,1,1,,,35.671083988222,138.54670877509,
106,E1920100082201,中央公園,山梨県甲府市中央1-11,,1,,1,,1,1,,,35.66001207133,138.56786103777,
107,E1920100083201,富士川悠遊館,山梨県甲府市中央3-3-1,1,1,,1,,1,1,1,1,35.663339854193,138.57662643305,
108,E1920100084201,甲府南高等学校,山梨県甲府市中小河原町222,1,1,,1,,1,1,1,1,35.630344472246,138.57411411676,
109,E1920100085201,池田公園,山梨県甲府市中村町10,1,1,,1,,1,1,,,35.665594369669,138.53608447325,
110,E1920100086201,東小学校,山梨県甲府市朝気1-14-1,1,1,,1,,1,1,1,1,35.651483260688,138.58314959541,
111,E1920100087201,善誘館小学校,山梨県甲府市朝気1-2-52,1,1,,1,,1,1,1,1,35.655020459367,138.58078208453,
112,E1920100088201,イーストモールバリオ駐車場,山梨県甲府市朝気3-1-12,,1,,1,,1,1,,,35.6502494,138.583757,
113,E1920100089201,西部市民センター,山梨県甲府市長松寺町12-30,1,1,,1,,1,1,1,1,35.664911809085,138.54036678464,
114,E1920100090201,池田小学校,山梨県甲府市長松寺町7-1,1,1,,1,,1,1,1,1,35.666255456774,138.54169859743,
115,E1920100119201,かえで支援学校,山梨県甲府市東光寺2-25-1,,1,,1,,1,1,1,,35.66497,138.586487,
116,E1920100091201,東中学校,山梨県甲府市東光寺2-8-1,1,1,,1,,1,1,1,1,35.663169015223,138.58579861382,
117,E1920100092201,北部市民センター,山梨県甲府市湯村3-5-20,1,1,,1,,1,1,1,1,35.68027132921,138.55006275014,
118,E1920100093201,湯田小学校,山梨県甲府市湯田1-8-1,1,1,,1,,1,1,1,1,35.648886605951,138.57519420752,
119,E1920100094201,南中学校,山梨県甲府市湯田2-21-24,1,1,,1,,1,1,1,1,35.643415719477,138.57516123687,
120,E1920100095201,オギノ貢川店駐車場,山梨県甲府市徳行1-2-18,,1,,1,,1,1,,,35.65547789326,138.54482691462,
121,E1920100096201,貢川福祉センター,山梨県甲府市徳行3-12-1,1,1,,1,,1,1,1,1,35.647523509218,138.54205452057,
122,E1920100097201,笠屋神社境内,山梨県甲府市徳行5-1,,1,,1,,1,1,,,35.653685409899,138.54000003613,
123,E1920100098201,県立大学（飯田）グラウンド,山梨県甲府市飯田5-11-1,,1,,1,,1,1,,,35.66322789485,138.55668906168,
124,E1920100099201,県営飯田野球場グラウンド,山梨県甲府市飯田5-12,1,1,,1,,1,1,,,35.662644369416,138.5550470516,
125,E1920100100201,西中学校,山梨県甲府市飯田5-13-1,1,1,,1,,1,1,1,1,35.663598079542,138.55458875266,
126,E1920100101201,甲府第一高等学校,山梨県甲府市美咲2-13-44,1,1,,1,,1,1,1,1,35.677304168445,138.56404686305,
127,E1920100102201,八幡神社境内,山梨県甲府市富竹3-4,,1,,1,,1,1,,,35.657190254057,138.54133221028,
128,E1920100103201,富竹中学校,山梨県甲府市富竹4-5-8,1,1,,1,,1,1,1,1,35.655477430516,138.53673943657,
129,E1920100104201,新紺屋小学校,山梨県甲府市武田1-3-34,1,1,,1,,1,1,1,1,35.671915187907,138.56936032448,
130,E1920100105201,北東部市民センター,山梨県甲府市武田3-1-6,1,1,,1,,1,1,1,1,35.675272,138.569758,
131,E1920100106201,県営グリーンライン駐車場,山梨県甲府市平瀬町3221,1,1,,1,,1,1,,,35.738290820433,138.56534417657,
132,E1920100107201,ＪＡパーキング協同駐車場,山梨県甲府市宝1-1,,1,,1,,1,1,,,35.66792566,138.56433744,
133,E1920100108202,甲府市役所西庁舎,山梨県甲府市宝2-8-19,1,1,,1,,1,1,1,1,35.66314,138.559767,
134,E1920100109201,山梨県自治会館,山梨県甲府市蓬沢1-15-35,1,1,,1,,1,1,1,1,35.6419738,138.587304,
135,E1920100110201,歴史公園,山梨県甲府市北口2,1,1,,1,,1,1,,,35.667629864873,138.57074166502,
136,E1920100111201,附属小中学校グラウンド,山梨県甲府市北新1-4-1,1,1,,1,,1,1,,,35.678905336264,138.56658479453,
137,E1920100112201,附属小中学校テニスコート,山梨県甲府市北新1-4-2,1,1,,1,,1,1,,,35.678387662531,138.56629365968,
138,E1920100113201,北新小学校グラウンド,山梨県甲府市北新1-5-1,1,1,,1,,1,1,,1,35.6798166,138.5656881,
139,E1920100114201,堀之内南公園,山梨県甲府市堀之内町961,,1,,1,,1,1,,,35.610516467688,138.56055067085,
140,E1920100115201,甲斐清和高等学校里吉グラウンド,山梨県甲府市里吉2-7,,1,,1,,1,1,,,35.650460750975,138.59287113353,
141,E1920100116201,緑が丘スポーツ公園,山梨県甲府市緑が丘2-8-2,1,1,,1,,1,1,,,35.683810180097,138.55754005566,
142,E1920100117201,東部市民センター,山梨県甲府市和戸町955-1,1,1,,1,,1,1,1,1,35.652951634934,138.61303707745,
143,E1920100118201,和田堀公園,山梨県甲府市和田町2968,1,,,1,,1,1,,,35.690846432783,138.56180833561,
144,E1942500018201,沖新畑消防詰所,山梨県山中湖村山中1099-320,1,1,,1,,1,,1,1,35.449322,138.861635,
145,E1942500015201,桂川梁尻公園,山梨県山中湖村山中1421-16,,1,,1,,1,,1,,35.429812,138.8511,
146,E1942500001201,老人福祉しあわせセンター,山梨県山中湖村山中237-1,1,,,1,,1,,,1,35.410527,138.861757,
147,E1942500002201,山中湖中学校,山梨県山中湖村山中341-40,1,,,1,,1,,,1,35.408545,138.857117,
148,E1942500002202,山中湖村民体育館,山梨県山中湖村山中341-40,1,,,,,1,,,1,35.408018,138.857421,
149,E1942500003201,山中湖村公民館交流センター,山梨県山中湖村山中448,1,1,,1,,1,,,1,35.420263,138.849301,
150,E1942500004202,山中湖村住民児童体育館,山梨県山中湖村山中705,1,1,,1,,1,,1,1,35.42508,138.84624,
151,E1942500004201,山中小学校,山梨県山中湖村山中705,1,1,,1,,1,,1,1,35.425327,138.846813,
152,E1942500005201,山中保育所,山梨県山中湖村山中865-292,1,1,,1,,1,,1,1,35.428815,138.849309,
153,E1942500006201,山中湖温泉紅富士の湯,山梨県山中湖村山中865-776,1,1,,1,,1,,1,1,35.43013,138.842474,
154,E1942500017201,長池親水公園,山梨県山中湖村平野,,1,,1,,1,,1,,35.42718,138.870267,
155,E1942500007201,山中湖平野温泉石割の湯,山梨県山中湖村平野1450,1,1,,1,,1,,1,1,35.435098,138.908767,
156,E1942500008201,平野保育所,山梨県山中湖村平野1997-1,1,1,,1,,1,,1,1,35.429544,138.898875,
157,E1942500009201,東小学校,山梨県山中湖村平野2435-1,1,,,1,,1,,1,1,35.423319,138.891957,
158,E1942500010201,平野コミュニティセンター,山梨県山中湖村平野283,1,1,,1,,1,,1,1,35.425801,138.909266,
159,E1942500011201,長池コミュニティセンター,山梨県山中湖村平野3307,1,,,1,,1,,,1,35.428446305731,138.87061403699,
160,E1942500012201,山中湖交流プラザきらら,山梨県山中湖村平野479-2,1,1,,1,,1,,1,1,35.419997,138.901971,
161,E1942500013201,山中湖情報創造館,山梨県山中湖村平野506-296,1,1,,1,,1,,1,1,35.406867960019,138.86904819568,
162,E1942500014201,旭日丘公民館交流センター,山梨県山中湖村平野506-624,1,1,,1,,1,,1,1,35.408075,138.885512,
163,E1942500016201,ゆいの広場ひらり,山梨県山中湖村平野98-1,1,1,,1,,1,,1,,35.426498,138.903789,
164,E1920500001201,県立日川高等学校グラウンド,山梨県山梨市一町田中1062,,1,,1,,,,,1,35.663574114481,138.68264734024,
165,E1920500002201,加納岩小学校グラウンド,山梨県山梨市下神内川123-2,1,1,,1,,,,,1,35.681791745628,138.68541351744,
166,E1920500003201,山梨南中学校グラウンド,山梨県山梨市下石森287,,1,,1,,,,,,35.672422892948,138.68603578993,
167,E1920500006201,日川小学校グラウンド,山梨県山梨市歌田143,,1,,1,,,,,,35.66518988139,138.69008706878,
168,E1920500009201,後屋敷小学校グラウンド,山梨県山梨市三ケ所877,1,1,,1,,,,,1,35.688983891943,138.70424101201,
169,E1920500010201,旧三富保育園前庭,山梨県山梨市三富下荻原120,1,,,1,,,,,1,35.770932102558,138.73787416764,
170,E1920500011201,旧三富小学校グラウンド,山梨県山梨市三富下釜口165-1,1,,,1,,,,,1,35.781136904721,138.73873214729,
171,E1920500012201,三富川浦スポーツ広場,山梨県山梨市三富川浦1394,1,,,1,,,,,,35.788846871073,138.73818328753,
172,E1920500013201,広瀬地区集会所前庭,山梨県山梨市三富川浦1819-189,1,1,,1,,,,,1,35.850747834408,138.75874154965,
173,E1920500014201,三富基幹集落センター前庭,山梨県山梨市三富川浦262,1,1,,1,,,,,1,35.792924118346,138.73893430606,
174,E1920500015201,徳和地区多目的集会施設前庭,山梨県山梨市三富徳和628,1,1,,1,,,,,1,35.791061966043,138.72533001445,
175,E1920500016201,八幡スポーツ広場,山梨県山梨市市川1220,1,1,,1,,,,,1,35.709487604024,138.67469713359,
176,E1920500017201,日下部小学校グラウンド,山梨県山梨市小原東305,1,1,,1,,,,,1,35.697290968188,138.69931420758,
177,E1920500018201,山梨北中学校グラウンド,山梨県山梨市小原東359,1,1,,1,,,,,1,35.699275979035,138.69751466459,
178,E1920500044201,県立山梨高等学校グラウンド,山梨県山梨市上神内川194,1,1,,1,,,,,1,35.682038,138.686809,
179,E1920500045201,市民総合体育館駐車場,山梨県山梨市上石森701,,1,,1,,,,,1,35.675317,138.696659,
180,E1920500021201,県立ろう学校グラウンド,山梨県山梨市大野1009,,1,,1,,,,,1,35.673613232819,138.67439783932,
181,E1920500024201,岩手小学校グラウンド,山梨県山梨市東1760,1,1,,1,,,,,,35.715410489911,138.69707955321,
182,E1920500025201,八幡小学校グラウンド,山梨県山梨市北1889,1,1,,1,,,,,,35.706659745874,138.68411560389,
183,E1920500027201,笛川中学校グラウンド,山梨県山梨市牧丘町窪平1100,1,1,,1,,,,,1,35.743530568085,138.71367848893,
184,E1920500028201,笛川小学校グラウンド,山梨県山梨市牧丘町窪平1200,1,1,,1,,,,,1,35.746178556105,138.71361874439,
185,E1920500029201,牧丘町総合会館駐車場,山梨県山梨市牧丘町窪平350,1,1,,1,,,,,1,35.739051230297,138.71453352302,
186,E1920500030201,花かげの湯前庭,山梨県山梨市牧丘町窪平453-1,1,1,,1,,,,,1,35.736471035517,138.71374662411,
187,E1920500031201,牧丘町コミュニティセンター前庭・駐車場,山梨県山梨市牧丘町窪平56,1,1,,1,,,,,1,35.740027872713,138.71429886965,
188,E1920500032201,道の駅花かげの郷まきおか駐車場,山梨県山梨市牧丘町室伏2120,1,,,1,,,,,1,35.754223860656,138.71849924818,
189,E1920500033201,中牧多目的集会施設前庭,山梨県山梨市牧丘町西保下2230,1,1,,1,,,,,,35.742100142096,138.69228509063,
190,E1920500035201,旧牧丘第二小学校グラウンド,山梨県山梨市牧丘町倉科5938-2,1,1,,1,,,,,1,35.747439184005,138.69565800569,
191,E1920500036201,旧保健農園ホテル・フフ山梨庭園,山梨県山梨市牧丘町倉科7190,1,1,,1,,,,,1,35.758732462128,138.68586403277,
192,E1920500037201,旧牧丘第三小学校グラウンド,山梨県山梨市牧丘町牧平16,1,,,1,,,,,1,35.745491507167,138.65272365931,
193,E1920500039201,柳平分校グラウンド,山梨県山梨市牧丘町柳平43,1,1,,1,,,,,1,35.810274124971,138.65448397894,
194,E1920500040201,旧堀之内小学校グラウンド,山梨県山梨市堀内1936,1,,,1,,,,,1,35.717106342479,138.66396405732,
195,E1920500041201,山梨市民会館駐車場,山梨県山梨市万力1830,1,1,,1,,,,,1,35.693600656737,138.68197875092,
196,E1920500043201,山梨小学校グラウンド,山梨県山梨市落合3,,1,,1,,,,,,35.68400486103,138.66612735569,
197,E1934600001201,高田地区公民館,山梨県市川三郷町印沢71-1,,1,,1,,1,,,1,35.557654,138.491912,
198,E1934600002201,下芦川地域集会所,山梨県市川三郷町下芦川1103,1,,,,,1,,,1,35.537966,138.586943,
199,E1934600003201,下大鳥居自治公民館,山梨県市川三郷町下大鳥居33,,1,,,,1,,,1,35.549898,138.479911,
200,E1934600004201,葛篭沢公民館,山梨県市川三郷町葛篭沢998,1,,,1,,1,,,1,35.492078,138.471366,
201,E1934600006201,鴨狩公民館,山梨県市川三郷町鴨狩津向240,,1,,,,1,,,1,35.483461,138.45579,
202,E1934600005201,鴨狩スポーツ広場,山梨県市川三郷町鴨狩津向無番地,,1,,1,,1,,,1,35.484693,138.456257,
203,E1934600007201,岩下公民館,山梨県市川三郷町岩下117,1,1,,,,1,,,1,35.494351,138.485848,
204,E1934600008201,上手方ふれあいプラザ,山梨県市川三郷町岩間118,1,,,1,,1,,,1,35.501251,138.468447,
205,E1934600009201,駅前ふれあいプラザ,山梨県市川三郷町岩間1361,,1,,1,,1,,,1,35.492855,138.462918,
206,E1934600010201,下宿公民館,山梨県市川三郷町岩間1886,,1,,1,,1,,,1,35.490252,138.461245,
207,E1934600011201,上仲公民館,山梨県市川三郷町岩間2096,,,,1,,1,,,1,35.494543,138.460156,
208,E1934600012201,細田公民館,山梨県市川三郷町岩間2454-1,,,,1,,1,,,1,35.490226,138.461242,
209,E1934600013202,六郷小学校体育館,山梨県市川三郷町岩間2917,1,,,1,,1,,,1,35.498113,138.461949,
210,E1934600013201,総合子どもセンター,山梨県市川三郷町岩間2917,1,,,,,1,,,1,35.497202,138.462126,
211,E1934600013203,六郷小学校,山梨県市川三郷町岩間2917,1,,,1,,1,,,1,35.497751,138.462539,
212,E1934600014201,文京交流センター,山梨県市川三郷町岩間2920-1,1,,,1,,1,,,1,35.496615,138.462584,
213,E1934600015202,六郷中学校,山梨県市川三郷町岩間2927,1,,,1,,1,,,1,35.498526,138.463663,
214,E1934600015201,六郷中学校体育館,山梨県市川三郷町岩間2927,1,,,1,,1,,,1,35.49817,138.463062,
215,E1934600017201,西河原地域交流センター,山梨県市川三郷町岩間4418-4,,1,,1,,1,,,1,35.492993,138.455867,
216,E1934600018201,市川三郷町六郷町民会館,山梨県市川三郷町岩間485,1,1,,1,,1,,,1,35.495463,138.463482,
217,E1934600019201,原公民館,山梨県市川三郷町岩間708,1,,,1,,1,,,1,35.49275,138.467772,
218,E1934600020201,山宮スポーツ広場,山梨県市川三郷町宮原1290,1,,,1,,1,,,1,35.489621,138.469766,
219,E1934600021201,宮原公民館,山梨県市川三郷町宮原609,1,1,,1,,1,,,1,35.490285,138.47028,
220,E1934600022201,五八公民館,山梨県市川三郷町五八540,1,,,,,1,,,1,35.500447,138.486323,
221,E1934600023201,上中浦自治公民館,山梨県市川三郷町高田2427,,1,,1,,1,,,1,35.558299,138.488943,
222,E1934600024201,宮本自治公民館,山梨県市川三郷町高田2944-1,,1,,1,,1,,,1,35.554945,138.487386,
223,E1934600026201,旧下九一色中学校校庭,山梨県市川三郷町高萩829,1,,,1,,1,,,1,35.53328,138.55131,
224,E1934600027201,市川南小学校,山梨県市川三郷町黒沢1420,1,1,,1,,1,,,1,35.535185,138.475576,
225,E1934600028201,市川南中学校,山梨県市川三郷町黒沢1462,1,1,,1,,1,,,1,35.535276,138.476234,
226,E1934600029201,旧市川南小学校南分校,山梨県市川三郷町黒沢4250,1,1,,,,1,,,1,35.534521,138.461096,
227,E1934600030201,大同地区公民館,山梨県市川三郷町黒沢872-1,,,,1,,1,,,1,35.539171,138.47135,
228,E1934600031201,三帳地域集会所,山梨県市川三郷町三帳51,1,,,,,1,,,1,35.531316,138.572393,
229,E1934600032201,藤田自治公民館,山梨県市川三郷町山保2561,1,,,,,1,,,1,35.521841,138.504668,
230,E1934600033201,四尾連自治公民館,山梨県市川三郷町山保3695-7,1,1,,1,,1,,,1,35.524869,138.514079,
231,E1934600034201,帯那自治公民館,山梨県市川三郷町山保4810,1,,,,,1,,,1,35.532986,138.494937,
232,E1934600035201,市川東小学校,山梨県市川三郷町山保6320,1,,,1,,1,,,1,35.524591,138.497121,
233,E1934600036201,山保地区公民館,山梨県市川三郷町山保6360-1,1,1,,1,,1,,,1,35.524924,138.496231,
234,E1934600037201,芦久保自治公民館,山梨県市川三郷町山保6935,1,,,,,1,,,1,35.523098,138.489475,
235,E1934600038201,堀切自治公民館,山梨県市川三郷町山保827,1,1,,,,1,,,1,35.511871,138.504328,
236,E1934600039201,近萩自治公民館,山梨県市川三郷町山保8309-6,1,1,,,,1,,,1,35.518657,138.494696,
237,E1934600040201,下町自治公民館,山梨県市川三郷町市川大門1377-7,,1,,1,,1,,,1,35.563063,138.495066,
238,E1934600041201,市川三郷町生涯学習センター,山梨県市川三郷町市川大門1437-1,,1,,1,,1,,,1,35.564165,138.492349,
239,E1934600042201,旧保泉自治公民館,山梨県市川三郷町市川大門146-1,,,,,,1,,,1,35.560457,138.503127,
240,E1934600043202,山梨県立青洲高等学校体育館,山梨県市川三郷町市川大門1733-2,,1,,1,,1,,,1,35.565724,138.500135,
241,E1934600043201,山梨県立青洲高等学校校舎,山梨県市川三郷町市川大門1733-2,,1,,1,,1,,,1,35.56605,138.501313,
242,E1934600043203,山梨県立青洲高等学校文化創造館,山梨県市川三郷町市川大門1733-2,,1,,1,,1,,,1,35.5661,138.499316,
243,E1934600044201,八乙女自治公民館,山梨県市川三郷町市川大門1781-16,,1,,1,,1,,,1,35.565179,138.501273,
244,E1934600045201,小御崎自治公民館,山梨県市川三郷町市川大門2107-8,,1,,1,,1,,,1,35.567779,138.49385,
245,E1934600046201,富士見自治公民館,山梨県市川三郷町市川大門3663,,1,,1,,1,,,1,35.57188,138.50449,
246,E1934600047201,ケアセンターいちかわ,山梨県市川三郷町市川大門416,,1,,1,,1,,,1,35.559972,138.492719,
247,E1934600048201,下地区公民館,山梨県市川三郷町市川大門423-1,,1,,1,,1,,,1,35.56059,138.492644,
248,E1934600049201,上町自治公民館,山梨県市川三郷町市川大門4330,,1,,,,1,,,1,35.559712,138.50798,
249,E1934600050201,市川中学校,山梨県市川三郷町市川大門5064-1,1,,,1,,1,,,1,35.55639,138.506022,
250,E1934600051201,平塩自治公民館,山梨県市川三郷町市川大門5275-1,1,,,1,,1,,,1,35.557067,138.504666,
251,E1934600052201,市川小学校,山梨県市川三郷町市川大門5744,1,1,,1,,1,,,1,35.559077,138.501394,
252,E1934600053201,上地区公民館,山梨県市川三郷町市川大門63-1,1,,,1,,1,,,1,35.55991,138.505564,
253,E1934600054201,寺所さくらの里会館,山梨県市川三郷町寺所58-1,1,1,,1,,1,,,1,35.497397,138.491964,
254,E1934600055201,矢作ふれあいプラザ,山梨県市川三郷町上野1575-1,1,1,,1,,1,,,1,35.568403,138.513224,
255,E1934600056201,上野桃林橋コミュニティセンター,山梨県市川三郷町上野1751,,1,,1,,1,,,1,35.570599,138.515831,
256,E1934600057201,三珠中学校,山梨県市川三郷町上野2697,1,1,,1,,1,,,1,35.566072,138.514325,
257,E1934600059201,町屋集会所,山梨県市川三郷町上野2815,1,1,,1,,1,,,1,35.5641,138.510344,
258,E1934600060201,市川三郷町民健康管理センター,山梨県市川三郷町上野2968-7,1,1,,1,,1,,,1,35.564015,138.516248,
259,E1934600062201,上野本村コミュニティセンター,山梨県市川三郷町上野3015-1,1,1,,1,,1,,,1,35.566746,138.518299,
260,E1934600063201,上野小学校,山梨県市川三郷町上野4916,1,1,,1,,1,,,1,35.564347,138.511356,
261,E1934600064201,川浦集会所,山梨県市川三郷町上野74,1,,,,,1,,,1,35.55894,138.514488,
262,E1934600065201,大塚桃林橋集会所,山梨県市川三郷町大塚1438-7,,1,,,,1,,,1,35.571334,138.521676,
263,E1934600066201,道林ふれあいプラザ,山梨県市川三郷町大塚1507-3,1,1,,1,,1,,,1,35.569537,138.524284,
264,E1934600067201,大塚保育所,山梨県市川三郷町大塚2077-1,1,1,,1,,1,,,1,35.568311,138.53033,
265,E1934600068201,上ノ原集会所,山梨県市川三郷町大塚3787,,1,,,,1,,,1,35.57085,138.543305,
266,E1934600069201,大塚小学校,山梨県市川三郷町大塚4264,1,1,,1,,1,,,1,35.570207,138.537601,
267,E1934600070201,市川三郷町ふるさと交流センター,山梨県市川三郷町大塚4763,1,1,,1,,1,,,1,35.572854,138.538214,
268,E1934600071201,中山集会所,山梨県市川三郷町中山918,1,,,,,1,,,1,35.540822,138.543976,
269,E1934600072201,楠甫公民館,山梨県市川三郷町楠甫274,,1,,,,1,,,1,35.497584,138.450049,
270,E1934600073201,八之尻多目的集会所,山梨県市川三郷町八之尻1020,1,1,,,,1,,,1,35.538079,138.478897,
271,E1934600074201,落居５・６区ふれあいプラザ,山梨県市川三郷町落居1916,1,1,,1,,1,,,1,35.511458,138.48212,
272,E1934600075201,落居３・４区公民館,山梨県市川三郷町落居2254,1,1,,1,,1,,,1,35.508965,138.476731,
273,E1934600076201,六郷の里ニードスポーツセンター,山梨県市川三郷町落居2330,1,1,,1,,1,,,1,35.508864,138.476304,
274,E1934600078201,網倉公民館,山梨県市川三郷町落居4009,1,,,1,,1,,,1,35.508241,138.488832,
275,E1934600079201,落居１・２区公民館,山梨県市川三郷町落居6548,1,,,1,,1,,,1,35.504067,138.472229,
276,E1938400001201,総合体育館（２階）,山梨県昭和町押越1001,1,,,,,,1,1,1,35.628831,138.538261,
277,E1938400003202,押原中学校校庭,山梨県昭和町押越542-1,,,,1,,1,,,1,35.626728,138.535538,
278,E1938400003201,押原中学校校舎,山梨県昭和町押越542-1,1,,,,,,1,1,1,35.627341,138.535133,
279,E1938400005202,押原小学校校庭,山梨県昭和町押越885,,,,1,,1,,,1,35.629281,138.534673,
280,E1938400005201,押原小学校校舎,山梨県昭和町押越885,1,,,,,,1,1,1,35.629719,138.535008,
281,E1938400006202,常永小学校校庭,山梨県昭和町河西15-1,,,,1,,1,,,1,35.617528,138.525787,
282,E1938400006201,常永小学校校舎,山梨県昭和町河西15-1,1,,,,,,1,1,1,35.618122,138.525252,
283,E1938400007201,阿原一号公園（天白神社）,山梨県昭和町紙漉阿原2497,,,,1,,1,,,,35.621087,138.546736,
284,E1938400008201,西条小学校校舎,山梨県昭和町西条2222,1,,,,,,1,1,1,35.637803,138.53931,
285,E1938400008202,西条小学校校庭,山梨県昭和町西条2222,,,,1,,1,,,1,35.637231,138.539361,
286,E1938400009201,甲府昭和高校校舎,山梨県昭和町西条3000,1,,,,,,1,1,1,35.642919,138.540468,
287,E1938400009202,甲府昭和高校校庭,山梨県昭和町西条3000,,,,1,,1,,,1,35.641646,138.541211,
288,E1938400010201,釜無工業団地公園運動場管理棟（２階）,山梨県昭和町築地新居1627-1,1,,,,,,1,1,1,35.627205,138.520698,
289,E1938400010202,釜無工業団地公園,山梨県昭和町築地新居1627-1,,,,1,,1,,,1,35.627602,138.520324,
290,E1921200001201,上野原西小学校体育館,山梨県上野原市コモアしおつ2-13-1,,1,,1,,,,,1,35.61597522,139.078478,
291,E1921200002201,上野原西中学校体育館,山梨県上野原市四方津215,,1,,1,,,,,1,35.61839315,139.0894882,
292,E1921200004201,無生野集会所,山梨県上野原市秋山12370-1,,1,,,,,,,,35.57176999,139.0287983,
293,E1921200005201,旧桜井小学校体育館,山梨県上野原市秋山3325,,1,,1,,,,,1,35.58175221,139.1137129,
294,E1921200007201,秋山小学校体育館,山梨県上野原市秋山8674,,1,,1,,,,,1,35.57031423,139.0711525,
295,E1921200009201,上野原小学校体育館,山梨県上野原市上野原3454,,1,,1,,,,,1,35.6307379,139.1121639,
296,E1921200010201,上野原市文化ホール,山梨県上野原市上野原3832,,1,,,,,,,,35.630045,139.10824,
297,E1921200012201,西原出張所,山梨県上野原市西原3947,,1,,,,,,,,35.70194816,139.0227261,
298,E1921200014201,大目出張所,山梨県上野原市大野1261,,1,,,,,,,,35.620939,139.06005,
299,E1921200016201,旧大鶴小学校体育館,山梨県上野原市鶴川1571,,1,,1,,,,,1,35.63641385,139.0936217,
300,E1921200017201,島田小学校体育館,山梨県上野原市鶴島2024,,1,,1,,,,,1,35.61504424,139.1186662,
301,E1921200019201,旧沢松小学校体育館,山梨県上野原市八ッ沢12,,1,,1,,,,,1,35.62006682,139.1035212,
302,E1921200021201,甲東出張所,山梨県上野原市野田尻334-1,,1,,,,,,,,35.636421,139.0639,
303,E1921200022201,旧平和中学校校舎・体育館,山梨県上野原市野田尻808,,1,,1,,,,,1,35.63209057,139.0608553,
304,E1921200023201,旧甲東小学校和見分校,山梨県上野原市和見955,,1,,1,,,,,1,35.65895567,139.0579784,
305,E1921200024201,ふるさと長寿館,山梨県上野原市棡原2374-1,,1,,,,,,,,35.66983948,139.0894185,
306,E1936500020201,身延清稜小学校２・３階,山梨県身延町西嶋1228,1,1,,,,,1,,1,35.487088,138.44736,
307,E1942300006201,西桂町役場,山梨県西桂町小沼1500-1,1,1,,,,1,,,,35.524222,138.847412,
308,E1920600001201,猿橋小学校,山梨県大月市猿橋町伊良原48,,1,,1,,,,,1,35.611978,138.982545,
309,E1920600002201,猿橋中学校,山梨県大月市猿橋町猿橋567,,1,,1,,,,,1,35.616963,138.980482,
310,E1920600003201,猿橋公民館桂台分館,山梨県大月市猿橋町桂台1-19-1,1,,,1,,,,,1,35.610362,138.970641,
311,E1920600004201,猿橋公民館小沢分館,山梨県大月市猿橋町小沢1452,1,,,1,,,,,1,35.592757,138.966958,
312,E1920600005201,猿橋公民館殿上分館,山梨県大月市猿橋町殿上4-1,,,,1,,,,,1,35.614555,138.967628,
313,E1920600006201,猿橋公民館藤崎分館,山梨県大月市猿橋町藤崎1522-1,1,1,,1,,,,,1,35.604487,138.994063,
314,E1920600007201,大月短期大学,山梨県大月市御太刀1-16-2,1,1,,1,,,,,1,35.612844,138.946494,
315,E1920600008201,大月市民会館,山梨県大月市御太刀2-11-22,1,1,,1,,,,,1,35.615817835271,138.94921440029,
316,E1920600009201,旧笹子小学校,山梨県大月市笹子町吉久保196,1,1,,1,,,,,1,35.605224059571,138.83107302403,
317,E1920600010201,笹子公民館（西部ふれあいセンター）,山梨県大月市笹子町黒野田1359-7,1,1,,1,,,,,1,35.603752,138.827583,
318,E1920600011201,七保公民館下和田分館,山梨県大月市七保町下和田1021,1,1,,1,,,,,1,35.624501821121,138.97556497818,
319,E1920600012201,七保小学校,山梨県大月市七保町葛野2345,1,1,,1,,,,,1,35.631808,138.9555,
320,E1920600013201,旧瀬戸小学校,山梨県大月市七保町瀬戸1000,1,1,,1,,,,,1,35.664020861154,138.96754817719,
321,E1920600014201,旧上和田小学校,山梨県大月市七保町瀬戸1909-1,1,1,,1,,,,,1,35.691317241172,138.96066624909,
322,E1920600015201,七保公民館浅川分館,山梨県大月市七保町浅川1027,1,,,1,,,,,1,35.654103,138.989177,
323,E1920600016201,旧奈良子保育所,山梨県大月市七保町奈良子9-3,1,,,1,,,,,1,35.660616,138.950293,
324,E1920600017201,初狩小学校,山梨県大月市初狩町下初狩1144,1,1,,1,,,,,1,35.59891,138.884335,
325,E1920600018201,旧初狩小学校,山梨県大月市初狩町中初狩21,1,1,,1,,,,,1,35.596718,138.878461,
326,E1920600019201,大月東中学校,山梨県大月市大月2-15-11,1,1,,1,,,,,1,35.611158783643,138.9361178626,
327,E1920600020201,大月東小学校,山梨県大月市大月2-7-43,1,1,,1,,,,,1,35.610344,138.9407,
328,E1920600021201,総合福祉センター,山梨県大月市大月町花咲10,1,1,,1,,,,,1,35.604547,138.927198,
329,E1920600022201,旧大月西小学校,山梨県大月市大月町真木2288,1,1,,1,,,,,1,35.609306068715,138.9060458324,
330,E1920600023201,真木公民館間明野分館,山梨県大月市大月町真木6469,1,1,,1,,,,,1,35.631576,138.893256,
331,E1920600024201,旧強瀬小学校,山梨県大月市賑岡町強瀬747,1,,,1,,,,,1,35.615816,138.956659,
332,E1920600025201,（社福）山の都福祉会,山梨県大月市賑岡町浅利1108-6,1,,,1,,,,,,35.620962519318,138.92560636532,
333,E1920600027201,賑岡公民館,山梨県大月市賑岡町畑倉1288-1,1,1,,1,,,,,,35.628312442535,138.94765952867,
334,E1920600029201,旧宮谷小学校,山梨県大月市富浜町宮谷915,1,,,1,,,,,1,35.622721,138.990208,
335,E1920600030201,鳥沢小学校,山梨県大月市富浜町鳥沢1979,1,1,,1,,,,,1,35.610098,139.005159,
336,E1920600031201,旧富浜中学校,山梨県大月市富浜町鳥沢562,1,1,,1,,,,,1,35.605357,138.999321,
337,E1920600032201,（学法）自然学園高等学校（旧梁川小学校）,山梨県大月市梁川町綱の上1225,1,1,,1,,,,,1,35.600306,139.042828,
338,E1920600033201,旧梁川中学校,山梨県大月市梁川町綱の上1389-1,1,,,1,,,,,,35.602238188605,139.04214208889,
339,E1921100001201,芦川小学校グラウンド,山梨県笛吹市芦川町中芦川835,1,,,1,,,,,1,35.554939,138.670748,
340,E1921100002201,一宮北小学校グラウンド,山梨県笛吹市一宮町中尾933,1,1,,1,,,,,1,35.65688,138.705445,
341,E1921100003201,一宮南小学校グラウンド,山梨県笛吹市一宮町土塚655-2,1,1,,1,,,,,1,35.632524,138.697817,
342,E1921100004201,一宮西小学校グラウンド,山梨県笛吹市一宮町東原330-2,1,1,,1,,,,,1,35.647704,138.681144,
343,E1921100005201,一宮中学校グラウンド,山梨県笛吹市一宮町末木801,1,1,,1,,,,,1,35.648629,138.690709,
344,E1921100006201,境川スポーツセンターグラウンド,山梨県笛吹市境川町三椚4,1,1,,1,,,,,,35.603167,138.615827,
345,E1921100009201,境川小学校グラウンド,山梨県笛吹市境川町小黒坂1941,1,1,,1,,,,,1,35.596956,138.622946,
346,E1921100011201,御坂中学校グラウンド,山梨県笛吹市御坂町下野原1257,1,1,,1,,,,,1,35.618859,138.669519,
347,E1921100013201,御坂西小学校グラウンド,山梨県笛吹市御坂町夏目原592-1,1,1,,1,,,,,1,35.62595,138.662659,
348,E1921100015201,御坂東小学校グラウンド,山梨県笛吹市御坂町上黒駒1692,,,,1,,,,,1,35.611576,138.700821,
349,E1921100016201,みさかの湯駐車場,山梨県笛吹市御坂町成田2200,1,1,,1,,,,,1,35.638235,138.643948,
350,E1921100018201,春日居小学校グラウンド,山梨県笛吹市春日居町桑戸664,1,1,,1,,,,,1,35.671228,138.659016,
351,E1921100020201,春日居中学校グラウンド,山梨県笛吹市春日居町鎮目613-2,,1,,1,,,,,1,35.663409,138.642949,
352,E1921100022201,石和農村スポーツ広場,山梨県笛吹市石和町広瀬666-1,,1,,1,,,,,,35.634463,138.63048,
353,E1921100023201,富士見小学校グラウンド,山梨県笛吹市石和町今井10,,1,,1,,,,,1,35.629415,138.611246,
354,E1921100025201,石和南小学校グラウンド,山梨県笛吹市石和町市部720,,1,,1,,,,,1,35.647811,138.637523,
355,E1921100026201,石和中学校グラウンド,山梨県笛吹市石和町小石和716,,1,,1,,,,,1,35.633078,138.628085,
356,E1921100027201,石和北小学校グラウンド,山梨県笛吹市石和町松本1442-20,,1,,1,,,,,1,35.654008,138.63699,
357,E1921100028201,石和東小学校グラウンド,山梨県笛吹市石和町中川478,1,1,,1,,,,,1,35.643798,138.656221,
358,E1921100029201,石和西小学校グラウンド,山梨県笛吹市石和町唐柏360,,1,,1,,,,,1,35.631792,138.619459,
359,E1921100030201,浅川中学校グラウンド,山梨県笛吹市八代町岡1111,1,1,,1,,,,,1,35.607873,138.639768,
360,E1921100031201,八代小学校グラウンド,山梨県笛吹市八代町岡780,1,1,,1,,,,,1,35.61141,138.640364,
361,E1920400002201,下谷体育館,山梨県都留市下谷4-2-19,1,1,,1,,,,,1,35.563437,138.910437,
362,E1920400003201,東桂小学校　校庭,山梨県都留市桂町796-1,1,1,,1,,,,,1,35.535856,138.87265,
363,E1920400004201,東桂中学校　校庭,山梨県都留市桂町840,,,,1,,,,,1,35.532936,138.872392,
364,E1920400005201,禾生第一小学校　校庭,山梨県都留市古川渡553,1,1,,1,,,,1,1,35.574405,138.929936,
365,E1920400006201,都留第二中学校　校庭,山梨県都留市四日市場750,1,1,,1,,,,1,1,35.57063,138.916277,
366,E1920400007201,禾生第二小学校　校庭,山梨県都留市小形山753,1,1,,1,,,,1,1,35.591266,138.926202,
367,E1920400008201,谷村第一小学校　校庭,山梨県都留市上谷1-1-2,1,1,,1,,,,1,1,35.552027,138.906524,
368,E1920400009201,都留興譲館高等学校　校庭,山梨県都留市上谷5-7-1,1,1,,1,,,,1,1,35.544984,138.902737,
369,E1920400010201,旧与縄営農指導センター,山梨県都留市盛里134-1,,,,1,,,,,1,35.562856,138.943626,
370,E1920400011201,旧川棚営農指導センター,山梨県都留市川棚809,,,,1,,,,,1,35.552737,138.902538,
371,E1920400012201,宝小学校　校庭,山梨県都留市大幡1143,1,1,,1,,,,1,1,35.562858,138.877669,
372,E1920400013201,都留文科大学付属小学校　校庭,山梨県都留市大野396,,,,1,,,,,1,35.528669,138.920725,
373,E1920400015201,旭小学校　校庭,山梨県都留市朝日馬場544,1,1,,1,,,,1,1,35.56291,138.974284,
374,E1920400016201,都留文科大学グラウンド,山梨県都留市田原3-8-1,,,,1,,,,1,1,35.537642,138.896538,
375,E1920400017201,住吉球場,山梨県都留市法能333,1,1,,1,,,,1,1,35.544231,138.912322,
376,E1920400018201,谷村第二小学校　校庭,山梨県都留市法能923,1,1,,1,,,,,1,35.551727,138.926572,
377,E1942200001201,善之木体育館,山梨県道志村11125,1,1,,1,,1,1,1,1,35.491938,138.974151,
378,E1942200001202,善之木コミュニティセンター,山梨県道志村11125,1,,,1,,1,1,1,1,35.4921305549499,138.974360835114,
379,E1942200002201,みなもと体験館道志・久保分校,山梨県道志村2167,1,1,,1,,1,1,1,1,35.535816,139.084365,
380,E1942200003201,道志体育館,山梨県道志村5596,1,,,1,,1,1,1,1,35.530185,139.041337,
381,E1942200004201,道志村中央公民館,山梨県道志村6181-5,1,1,,1,,1,1,1,1,35.528102,139.033543,
382,E1942200005202,道志中学校（小中一体型）,山梨県道志村7568,1,1,,1,,1,1,1,1,35.52002,139.02206,
383,E1942200005203,道志小学校（小中一体型）,山梨県道志村7568,1,1,,1,,1,1,1,1,35.52001,139.021695,
384,E1942200005201,道志小中学校体育館,山梨県道志村7568,1,,,1,,1,1,1,1,35.519676,139.022589,
385,E1942200008201,水源の郷やまゆりセンター,山梨県道志村8990-1,1,1,,1,,1,1,1,1,35.511452,139.001322,
386,E1942200009201,唐沢体育館,山梨県道志村8991,1,,,1,,1,1,1,1,35.511655,139.001705,
387,E1920800001203,南アルプスチロル学園,山梨県南アルプス市芦安芦倉1008,1,,,1,,1,1,1,1,35.63781642368,138.37021378899,
388,E1920800002201,芦安山岳館,山梨県南アルプス市芦安芦倉1570,1,,,1,,1,1,1,1,35.633181702929,138.36099078387,
389,E1920800003202,芦安支所（旧芦安健康管理センター）,山梨県南アルプス市芦安芦倉518,1,,,1,,1,1,1,1,35.63786055705,138.38031133852,
390,E1920800004203,芦安小学校　（校舎）,山梨県南アルプス市芦安安通335,1,,,1,,1,1,1,1,35.636914305296,138.37954006422,
391,E1920800004201,芦安小学校　（グランド）,山梨県南アルプス市芦安安通335,1,,,1,,1,1,1,1,35.636687595398,138.37970636118,
392,E1920800004202,芦安小学校　（体育館）,山梨県南アルプス市芦安安通335,1,,,1,,1,1,1,1,35.636931744493,138.38000676859,
393,E1920800005201,芦安中学校（グランド）,山梨県南アルプス市芦安安通352,1,,,1,,1,1,1,,35.636593306437,138.37903238062,
394,E1920800006201,芦安保育所,山梨県南アルプス市芦安安通503,1,,,1,,1,1,1,,35.637582281277,138.37497943562,
395,E1920800007201,大明保育所（グランド）,山梨県南アルプス市鮎沢1063-1,1,1,,1,,1,1,1,,35.593433333333,138.470875,
396,E1920800008201,甲西農村環境改善センター,山梨県南アルプス市鮎沢1234-1,1,1,,1,,1,1,1,,35.59422996518,138.4697038442,
397,E1920800009201,八田保育所,山梨県南アルプス市榎原558,1,1,,1,,1,1,1,,35.66,138.48388888889,
398,E1920800010202,八田中学校　（体育館）,山梨県南アルプス市榎原620,1,1,,1,,1,1,1,1,35.661011566681,138.4854130914,
399,E1920800010201,八田中学校　（グランド）,山梨県南アルプス市榎原620,1,1,,1,,1,1,1,1,35.660061411376,138.4856223037,
400,E1920800010203,八田中学校　（校舎）,山梨県南アルプス市榎原620,1,1,,1,,1,1,1,1,35.660540848952,138.48542382024,
401,E1920800011201,榎原集落センター（駐車場）,山梨県南アルプス市榎原646-2,1,1,,1,,1,1,1,,35.658296135429,138.48507052075,
402,E1920800012201,八田児童館,山梨県南アルプス市榎原794-16,1,1,,1,,1,1,1,,35.662210749724,138.4838867416,
403,E1920800013201,高度農業情報センター（駐車場）,山梨県南アルプス市榎原800,1,1,,1,,1,1,1,,35.661636036034,138.4830100412,
404,E1920800014201,くしがたすこやか八幡館,山梨県南アルプス市下宮地469-1,1,1,,1,,1,1,1,,35.604669839882,138.46383831555,
405,E1920800015201,下高砂神明神社,山梨県南アルプス市下高砂174,1,1,,1,,1,1,1,,35.6605461791,138.4917267909,
406,E1920800016201,下高砂集落センター（駐車場）,山梨県南アルプス市下高砂373-1,1,1,,1,,1,1,1,,35.656744313894,138.49317436503,
407,E1920800095201,マコト愛児園（園舎）,山梨県南アルプス市下今井841-5,1,1,,1,,1,1,1,1,35.625918,138.497041,
408,E1920800095202,マコト愛児園（園庭）,山梨県南アルプス市下今井841-5,1,1,,1,,1,1,1,1,35.625773,138.497045,
409,E1920800017202,下今井集落センター,山梨県南アルプス市下今井97-2,1,1,,1,,1,1,1,,35.624725143659,138.49341562365,
410,E1920800017201,下今井ふれあいセンター,山梨県南アルプス市下今井97-2,1,1,,1,,1,1,1,,35.624874,138.493444,
411,E1920800018201,今諏訪生涯学習センター,山梨県南アルプス市下今諏訪431-1,1,1,,1,,1,1,1,,35.633434354539,138.49659820314,
412,E1920800019203,若草中学校　（校舎）,山梨県南アルプス市加賀美2943,1,1,,1,,1,1,1,1,35.607075538077,138.48852879795,
413,E1920800019201,若草中学校　（グランド）,山梨県南アルプス市加賀美2943,1,1,,1,,1,1,1,1,35.606879273634,138.48903305324,
414,E1920800019202,若草中学校　（体育館）,山梨県南アルプス市加賀美2943,1,1,,1,,1,1,1,1,35.607830061341,138.48845906051,
415,E1920800020201,働く婦人の家,山梨県南アルプス市吉田753-1,1,1,,1,,1,1,1,1,35.621594722473,138.47789280449,
416,E1920800021202,豊小学校　（体育館）,山梨県南アルプス市吉田787,1,1,,1,,1,1,1,1,35.623101075179,138.4784931493,
417,E1920800021201,豊小学校　（グランド）,山梨県南アルプス市吉田787,1,1,,1,,1,1,1,1,35.622272565823,138.47851460698,
418,E1920800021203,豊小学校　（校舎）,山梨県南アルプス市吉田787,1,1,,1,,1,1,1,1,35.622573446529,138.47848778489,
419,E1920800022201,豊保育所,山梨県南アルプス市吉田804,1,1,,1,,1,1,1,,35.623561776854,138.47822579404,
420,E1920800023201,甲西市民総合グラウンド,山梨県南アルプス市宮沢288-3,,1,,1,,1,1,1,,35.584555555556,138.47143611111,
421,E1920800024201,甲西体育センター,山梨県南アルプス市宮沢413-3,,1,,1,,1,1,1,1,35.580885687597,138.47081187565,
422,E1920800025201,鏡中條ふれあいセンター,山梨県南アルプス市鏡中條1030-1,1,1,,1,,1,1,1,,35.610146085776,138.49636177778,
423,E1920800026201,遊・湯ふれあい公園（グランド）,山梨県南アルプス市鏡中條3782,1,1,,1,,1,1,1,,35.621020094252,138.50299803534,
424,E1920800027201,鏡中條公民館,山梨県南アルプス市鏡中條697-1,,1,,1,,1,1,1,,35.615086014905,138.49689002849,
425,E1920800028201,鏡中條体育館,山梨県南アルプス市鏡中條710-2,1,1,,1,,1,1,1,1,35.614680106539,138.49545084219,
426,E1920800029201,天笑閣,山梨県南アルプス市駒場147-18,1,,,1,,1,1,1,,35.651388888889,138.41,
427,E1920800030201,甲西中学校　（グランド）,山梨県南アルプス市古市場150,1,1,,1,,1,1,1,1,35.590347222222,138.47143611111,
428,E1920800030202,甲西中学校　（体育館）,山梨県南アルプス市古市場150,1,1,,1,,1,1,1,1,35.58978938865,138.4720461884,
429,E1920800030203,甲西中学校　（校舎）,山梨県南アルプス市古市場150,1,1,,1,,1,1,1,1,35.590855239202,138.47162599311,
430,E1920800031203,大明小学校　（校舎）,山梨県南アルプス市古市場181-1,1,1,,1,,1,1,1,1,35.59086558034,138.47052241803,
431,E1920800031201,大明小学校　（グランド）,山梨県南アルプス市古市場181-1,1,1,,1,,1,1,1,1,35.590372637773,138.47043658735,
432,E1920800031202,大明小学校　（体育館）,山梨県南アルプス市古市場181-1,1,1,,1,,1,1,1,1,35.589644124174,138.47045804502,
433,E1920800032201,甲西保健福祉センター,山梨県南アルプス市古市場323,1,1,,1,,1,1,1,1,35.590815864186,138.46828279886,
434,E1920800033201,青少年児童センター,山梨県南アルプス市山寺258-1,1,1,,1,,1,1,1,1,35.608416666667,138.45701388889,
435,E1920800034201,おおケヤキ児童館,山梨県南アルプス市寺部1479,1,1,,1,,1,1,1,,35.620691291094,138.49424302337,
436,E1920800096201,若草保育所,山梨県南アルプス市寺部598-1,1,1,,1,,1,1,1,,35.605765,138.490719,
437,E1920800035202,若草グラウンド,山梨県南アルプス市寺部720,1,1,,1,,1,1,1,,35.605891666667,138.49259166667,
438,E1920800035201,若草体育館,山梨県南アルプス市寺部720,1,1,,1,,1,1,1,,35.606474621076,138.49161586529,
439,E1920800036201,若草生涯学習センター,山梨県南アルプス市寺部725-1,1,1,,1,,1,1,1,,35.606557488763,138.49075755841,
440,E1920800037203,若草小学校　（校舎）,山梨県南アルプス市寺部740,1,1,,1,,1,1,1,1,35.607903525368,138.49209928572,
441,E1920800037202,若草小学校　（体育館）,山梨県南アルプス市寺部740,1,1,,1,,1,1,1,1,35.608082341813,138.4911390549,
442,E1920800037201,若草小学校　（グランド）,山梨県南アルプス市寺部740,1,1,,1,,1,1,1,1,35.607681094598,138.49191689551,
443,E1920800038201,秋山公会堂,山梨県南アルプス市秋山671-1,1,1,,1,,1,1,1,,35.58382589266,138.44739607464,
444,E1920800039201,巨摩高等学校　（グランド）,山梨県南アルプス市小笠原1500-2,1,1,,1,,1,1,1,1,35.616623979084,138.46824602524,
445,E1920800039202,巨摩高等学校　（体育館）,山梨県南アルプス市小笠原1500-2,1,1,,1,,1,1,1,1,35.615703822593,138.46764521041,
446,E1920800039203,巨摩高等学校　（校舎）,山梨県南アルプス市小笠原1500-2,1,1,,1,,1,1,1,1,35.616022171771,138.46877710262,
447,E1920800040201,小笠原小学校　（グランド）,山梨県南アルプス市小笠原441,1,1,,1,,1,1,1,1,35.610226374834,138.46226005005,
448,E1920800040202,小笠原小学校　（体育館）,山梨県南アルプス市小笠原441,1,1,,1,,1,1,1,1,35.610884921622,138.4624531691,
449,E1920800040203,小笠原小学校　（校舎）,山梨県南アルプス市小笠原441,1,1,,1,,1,1,1,1,35.610514217143,138.46229223656,
450,E1920800041201,櫛形社会福祉会館,山梨県南アルプス市小笠原471-8,,1,,1,,1,1,1,,35.611694813072,138.46576772486,
451,E1920800042201,櫛形中学校　（グランド）,山梨県南アルプス市小笠原985,,1,,1,,1,1,1,1,35.615361903036,138.46119360032,
452,E1920800042202,櫛形中学校　（体育館）,山梨県南アルプス市小笠原985,,1,,1,,1,1,1,1,35.615845969793,138.46143499913,
453,E1920800042203,櫛形中学校　（校舎）,山梨県南アルプス市小笠原985,,1,,1,,1,1,1,1,35.615902662104,138.4606839806,
454,E1920800043201,櫛形中央保育所,山梨県南アルプス市小笠原985-9,,1,,1,,1,1,1,,35.615244370111,138.45944257549,
455,E1920800044201,上高砂神明神社,山梨県南アルプス市上高砂958,1,1,,1,,1,1,1,,35.66392417071,138.49283129196,
456,E1920800045201,上高砂集落センター（グランド）,山梨県南アルプス市上高砂987,,1,,1,,1,1,1,,35.664801956391,138.49395998434,
457,E1920800046201,白根高等学校　（グランド）,山梨県南アルプス市上今諏訪1180,1,1,,1,,1,1,1,1,35.643008237689,138.49567727519,
458,E1920800046202,白根高等学校　（体育館）,山梨県南アルプス市上今諏訪1180,1,1,,1,,1,1,1,1,35.642328157926,138.49503354503,
459,E1920800046203,白根高等学校　（校舎）,山梨県南アルプス市上今諏訪1180,1,1,,1,,1,1,1,1,35.64314729491,138.49431698165,
460,E1920800047201,櫛形西保育所,山梨県南アルプス市上市之瀬724,1,,,1,,1,1,1,,35.606016899114,138.43884480817,
461,E1920800048201,櫛形西地区農村環境改善センター,山梨県南アルプス市上市之瀬725-7,1,,,1,,1,1,1,,35.6047490187,138.43802423007,
462,E1920800049201,櫛形西小学校　（グランド）,山梨県南アルプス市上市之瀬727,1,,,1,,1,1,1,1,35.604944232639,138.43936740568,
463,E1920800049202,櫛形西小学校　（体育館）,山梨県南アルプス市上市之瀬727,1,,,1,,1,1,1,1,35.605537400274,138.43937277009,
464,E1920800049203,櫛形西小学校　（校舎）,山梨県南アルプス市上市之瀬727,1,,,1,,1,1,1,1,35.60508380189,138.43897580316,
465,E1920800050201,甲西児童館,山梨県南アルプス市清水24,,1,,1,,1,1,1,,35.589458265824,138.47130864881,
466,E1920800051201,南湖小学校　（グランド）,山梨県南アルプス市西南湖3024-1,,1,,1,,1,1,1,1,35.58598566583,138.48791028607,
467,E1920800051202,南湖小学校　（体育館）,山梨県南アルプス市西南湖3024-1,,1,,1,,1,1,1,1,35.586192189898,138.48880077946,
468,E1920800051203,南湖小学校　（校舎）,山梨県南アルプス市西南湖3024-1,,1,,1,,1,1,1,1,35.586301210277,138.48789419282,
469,E1920800052201,南湖保育所（グランド）,山梨県南アルプス市西南湖738,,1,,1,,1,1,1,,35.58672453448,138.48897061641,
470,E1920800053201,白根東保育所,山梨県南アルプス市西野1394,1,1,,1,,1,1,1,1,35.642482771319,138.48850400632,
471,E1920800054201,白根東小学校　（グランド）,山梨県南アルプス市西野2311,1,1,,1,,1,1,1,1,35.638571778644,138.47701700916,
472,E1920800054202,白根東小学校　（体育館）,山梨県南アルプス市西野2311,1,1,,1,,1,1,1,1,35.638824641374,138.47619088878,
473,E1920800054203,白根東小学校　（校舎）,山梨県南アルプス市西野2311,1,1,,1,,1,1,1,1,35.638881317394,138.47699018706,
474,E1920800055201,西野松聲堂,山梨県南アルプス市西野2783-22,1,1,,1,,1,1,1,,35.636787630458,138.48391425452,
475,E1920800056201,沢登公会堂,山梨県南アルプス市沢登743-1,1,1,,1,,1,1,1,,35.627093109717,138.46995622572,
476,E1920800057201,田島公民館,山梨県南アルプス市田島985-1,1,1,,1,,1,1,1,,35.592794250241,138.48347576605,
477,E1920800058201,櫛形北保育所,山梨県南アルプス市桃園165-8,1,1,,1,,1,1,1,,35.627296590171,138.44862617737,
478,E1920800059201,櫛形北地区農村環境改善センター,山梨県南アルプス市桃園167-1,1,1,,1,,1,1,1,,35.626710252,138.44911869511,
479,E1920800060201,櫛形北小学校　（グランド）,山梨県南アルプス市桃園813,1,1,,1,,1,1,1,1,35.626000133558,138.44949122519,
480,E1920800060202,櫛形北小学校　（体育館）,山梨県南アルプス市桃園813,1,1,,1,,1,1,1,1,35.626911450891,138.44956096263,
481,E1920800060203,櫛形北小学校　（講堂）,山梨県南アルプス市桃園813,1,1,,1,,1,1,1,1,35.626427451113,138.44978090377,
482,E1920800060204,櫛形北小学校　（校舎）,山梨県南アルプス市桃園813,1,1,,1,,1,1,1,1,35.626501577395,138.44941075892,
483,E1920800061201,落合創造館アミカル,山梨県南アルプス市湯沢1035-5,1,1,,1,,1,1,1,1,35.585677708249,138.44900331202,
484,E1920800062201,湯沢公会堂,山梨県南アルプス市湯沢1035-6,1,1,,1,,1,1,1,,35.585900907737,138.44892590793,
485,E1920800063202,若草南小学校　（体育館）,山梨県南アルプス市藤田1130-1,,1,,1,,1,1,1,1,35.596102334045,138.49868400813,
486,E1920800063203,若草南小学校　（校舎）,山梨県南アルプス市藤田1130-1,,1,,1,,1,1,1,1,35.595827526011,138.49821193935,
487,E1920800063201,若草南小学校　（グランド）,山梨県南アルプス市藤田1130-1,,1,,1,,1,1,1,1,35.595543992923,138.49830849887,
488,E1920800064201,藤田ふれあいセンター,山梨県南アルプス市藤田1173-6,,1,,1,,1,1,1,,35.599939574583,138.49356544179,
489,E1920800065201,若草なかよし児童館,山梨県南アルプス市藤田1512,,1,,1,,1,1,1,,35.598439631782,138.49626266893,
490,E1920800066201,藤田緑地公園,山梨県南アルプス市藤田1600,,1,,1,,1,1,1,,35.598983213233,138.49717862177,
491,E1920800068201,徳永チビッコ広場,山梨県南アルプス市徳永1683,1,1,,1,,1,1,1,,35.654208333333,138.489225,
492,E1920800069201,徳永集落センター（駐車場）,山梨県南アルプス市徳永2026,1,1,,1,,1,1,1,,35.652204201411,138.49003657981,
493,E1920800070201,白根保育所,山梨県南アルプス市飯野1,1,1,,1,,1,1,1,,35.65245014278,138.44078679651,
494,E1920800071205,白根飯野小学校（体育館）,山梨県南アルプス市飯野1972-1,1,1,,1,,1,1,1,1,35.643123,138.454787,
495,E1920800071204,白根飯野小学校（校舎）,山梨県南アルプス市飯野1972-1,1,1,,1,,1,1,1,1,35.643363,138.454063,
496,E1920800071203,白根飯野小学校（校舎）,山梨県南アルプス市飯野1972-1,1,1,,1,,1,1,1,1,35.643362980506,138.4541109433,
497,E1920800071202,白根飯野小学校（体育館）,山梨県南アルプス市飯野1972-1,1,1,,1,,1,1,1,1,35.643716094993,138.45418604516,
498,E1920800071201,白根飯野小学校（グランド）,山梨県南アルプス市飯野1972-1,1,1,,1,,1,1,1,1,35.64309705375,138.45400365494,
499,E1920800071206,白根飯野小学校（グランド）,山梨県南アルプス市飯野1972-1,1,1,,1,,1,1,1,1,35.64293,138.453915,
500,E1920800072202,地域活動支援センター（きがる館）,山梨県南アルプス市飯野2842-1,1,1,,1,,1,1,1,,35.639971,138.46459,
501,E1920800073205,白根巨摩中学校（体育館）,山梨県南アルプス市飯野2860-2,1,1,,1,,1,1,1,1,35.639015,138.46196,
502,E1920800073206,白根巨摩中学校（グランド）,山梨県南アルプス市飯野2860-2,1,1,,1,,1,1,1,1,35.638838,138.463435,
503,E1920800073204,白根巨摩中学校（校舎）,山梨県南アルプス市飯野2860-2,1,1,,1,,1,1,1,1,35.63939,138.463533,
504,E1920800073203,白根巨摩中学校（校舎）,山梨県南アルプス市飯野2860-2,1,1,,1,,1,1,1,1,35.639298354483,138.46328310206,
505,E1920800073202,白根巨摩中学校（体育館）,山梨県南アルプス市飯野2860-2,1,1,,1,,1,1,1,1,35.639185002995,138.46241943075,
506,E1920800073201,白根巨摩中学校（グランド）,山梨県南アルプス市飯野2860-2,1,1,,1,,1,1,1,1,35.638923422026,138.46316508486,
507,E1920800074201,巨摩保育所,山梨県南アルプス市飯野2912-4,1,1,,1,,1,1,1,,35.639519646795,138.46136055632,
508,E1920800075201,白根御勅使中学校（グランド）,山梨県南アルプス市百々1990-1,1,1,,1,,1,1,1,1,35.661466207675,138.46691466526,
509,E1920800075206,白根御勅使中学校（グランド）,山梨県南アルプス市百々1990-1,1,1,,1,,1,1,1,1,35.661236,138.466827,
510,E1920800075205,白根御勅使中学校（体育館）,山梨県南アルプス市百々1990-1,1,1,,1,,1,1,1,1,35.66182,138.467255,
511,E1920800075204,白根御勅使中学校（校舎）,山梨県南アルプス市百々1990-1,1,1,,1,,1,1,1,1,35.661803,138.466655,
512,E1920800075203,白根御勅使中学校（校舎）,山梨県南アルプス市百々1990-1,1,1,,1,,1,1,1,1,35.6618148837,138.46666790204,
513,E1920800075202,白根御勅使中学校（体育館）,山梨県南アルプス市百々1990-1,1,1,,1,,1,1,1,1,35.661854109657,138.46726335242,
514,E1920800076203,白根百田小学校（校舎）,山梨県南アルプス市百々2300,1,1,,1,,1,1,1,1,35.658127532489,138.4698999648,
515,E1920800076201,白根百田小学校（グランド）,山梨県南アルプス市百々2300,1,1,,1,,1,1,1,1,35.657839861596,138.47010381268,
516,E1920800076204,白根百田小学校（校舎）,山梨県南アルプス市百々2300,1,1,,1,,1,1,1,1,35.658253,138.469923,
517,E1920800076202,白根百田小学校（体育館）,山梨県南アルプス市百々2300,1,1,,1,,1,1,1,1,35.65860262306,138.46982486295,
518,E1920800076206,白根百田小学校（グランド）,山梨県南アルプス市百々2300,1,1,,1,,1,1,1,1,35.657619,138.469996,
519,E1920800076205,白根百田小学校（体育館）,山梨県南アルプス市百々2300,1,1,,1,,1,1,1,1,35.658601,138.469864,
520,E1920800077201,百田保育所,山梨県南アルプス市百々2328,1,1,,1,,1,1,1,,35.656945900104,138.47002030125,
521,E1920800078202,百々公民館,山梨県南アルプス市百々2991,1,1,,1,,1,1,1,,35.655277,138.466164,
522,E1920800079203,白根中央公園,山梨県南アルプス市百々3468-65,1,1,,1,,1,1,1,1,35.649427,138.467319,
523,E1920800079201,白根中央公園,山梨県南アルプス市百々3468-65,1,1,,1,,1,1,1,1,35.649605555556,138.46758333333,
524,E1920800079204,白根Ｂ＆Ｇ海洋センター,山梨県南アルプス市百々3468-65,1,1,,1,,1,1,1,1,35.649712,138.465425,
525,E1920800079202,白根Ｂ＆Ｇ海洋センター,山梨県南アルプス市百々3468-65,1,1,,1,,1,1,1,1,35.649774921932,138.46524415051,
526,E1920800080201,ほたるみ館,山梨県南アルプス市平岡1210-1,1,,,1,,1,1,1,,35.608959805127,138.44015172632,
527,E1920800081202,西地区多目的活性化広場,山梨県南アルプス市平岡1211,1,,,1,,1,1,1,,35.609729,138.439557,
528,E1920800082201,たちあい公園,山梨県南アルプス市野牛島1337,,1,,1,,1,1,1,,35.674768960984,138.48801756127,
529,E1920800083201,スパーク八田,山梨県南アルプス市野牛島1946-1,1,1,,1,,1,1,1,,35.664882996596,138.48394781571,
530,E1920800084202,野牛島集落センター（駐車場等）,山梨県南アルプス市野牛島2013,1,1,,1,,1,1,1,,35.6652,138.481586,
531,E1920800085201,八田小学校　（グランド）,山梨県南アルプス市野牛島2222,1,1,,1,,1,1,1,1,35.663869144513,138.47755141206,
532,E1920800085206,八田小学校（グランド）,山梨県南アルプス市野牛島2222,1,1,,1,,1,1,1,1,35.663684,138.477524,
533,E1920800085203,八田小学校（校舎）,山梨県南アルプス市野牛島2222,1,1,,1,,1,1,1,1,35.664143718747,138.47736365743,
534,E1920800085202,八田小学校　（体育館）,山梨県南アルプス市野牛島2222,1,1,,1,,1,1,1,1,35.664261393129,138.47806639619,
535,E1920800085205,八田小学校（体育館）,山梨県南アルプス市野牛島2222,1,1,,1,,1,1,1,1,35.664281,138.478063,
536,E1920800085204,八田小学校（校舎）,山梨県南アルプス市野牛島2222,1,1,,1,,1,1,1,1,35.664411,138.477479,
537,E1920800086202,有野公民館,山梨県南アルプス市有野1090,1,1,,1,,1,1,1,,35.657914,138.44176,
538,E1920800087202,西区公民館,山梨県南アルプス市有野2491-1,,1,,1,,1,,1,,35.654215,138.418803,
539,E1920800089202,白根源小学校　（体育館）,山梨県南アルプス市有野490,1,1,,1,,1,1,1,1,35.654953685547,138.43979127355,
540,E1920800089206,白根源小学校（グランド）,山梨県南アルプス市有野490,1,1,,1,,1,1,1,1,35.654877,138.440543,
541,E1920800089205,白根源小学校（体育館）,山梨県南アルプス市有野490,1,1,,,,1,1,1,1,35.654957,138.439847,
542,E1920800089204,白根源小学校（校舎）,山梨県南アルプス市有野490,1,1,,1,,1,1,1,1,35.655305,138.440251,
543,E1920800089203,白根源小学校　（校舎）,山梨県南アルプス市有野490,1,1,,1,,1,1,1,1,35.655284954821,138.44023115584,
544,E1920800089201,白根源小学校　（グランド）,山梨県南アルプス市有野490,1,1,,1,,1,1,1,1,35.65505,138.44034722222,
545,E1920800090203,落合小学校　（校舎）,山梨県南アルプス市落合1092,1,1,,1,,1,1,1,1,35.588531819059,138.45614039129,
546,E1920800090201,落合小学校　（グランド）,山梨県南アルプス市落合1092,1,1,,1,,1,1,1,1,35.588146484034,138.45595263665,
547,E1920800090202,落合小学校　（体育館）,山梨県南アルプス市落合1092,1,1,,1,,1,1,1,1,35.588021412198,138.45635319798,
548,E1920800090206,落合小学校（グランド）,山梨県南アルプス市落合1092,1,1,,1,,1,1,1,1,35.588165,138.455947,
549,E1920800090204,落合小学校（校舎）,山梨県南アルプス市落合1092,1,1,,1,,1,1,1,1,35.588501,138.456301,
550,E1920800090205,落合小学校（体育館）,山梨県南アルプス市落合1092,1,1,,1,,1,1,1,1,35.587994,138.456352,
551,E1920800091201,落合保育所（グランド）,山梨県南アルプス市落合1128-3,1,1,,1,,1,1,1,,35.586464709482,138.45559972927,
552,E1920800092201,六科集落センター（駐車場等）,山梨県南アルプス市六科1499,1,1,,1,,1,1,1,,35.663218352658,138.46617111435,
553,E1920800093202,御勅使南公園,山梨県南アルプス市六科1588-2,,1,,1,,1,1,1,,35.668194,138.4601,
554,E1936600002201,下井出集会所前,山梨県南部町井出1087-9,,1,,1,,,,,,35.242253,138.498957,
555,E1936600003201,井出分館前,山梨県南部町井出1385,1,,,1,,,,,1,35.242562,138.496613,
556,E1936600004201,塩沢２組３組地区避難地,山梨県南部町塩沢120,,1,,1,,,,,,35.280922,138.454149,
557,E1936600005201,塩沢集会所庭,山梨県南部町塩沢2724-1,1,1,,1,,,,,,35.278684,138.449415,
558,E1936600006201,下野バス停留所前,山梨県南部町下野38-2,1,1,,1,,,,,,35.302997,138.504862,
559,E1936600008201,十島ちびっこ広場,山梨県南部町十島148-5,,,,1,,,,,,35.230626,138.514941,
560,E1936600009201,佐野清涼荘前,山梨県南部町上佐野199,1,1,,1,,,,,1,35.312969,138.500085,
561,E1936600010201,成島スポーツ広場,山梨県南部町成島1289,1,,,1,,1,,,,35.284925,138.425958,
562,E1936600012201,成島ちびっこ広場,山梨県南部町成島1770-94,1,,,1,,,,,,35.283697,138.423768,
563,E1936600013201,大塩分館前,山梨県南部町大和1803,1,,,1,,,,,,35.27553,138.452412,
564,E1936600015201,笠向地区避難地,山梨県南部町大和2099-1,1,,,1,,,,,,35.275088,138.451053,
565,E1936600016201,アルカディア文化館横駐車場,山梨県南部町大和360,,1,,1,,1,,,1,35.27997,138.455096,
566,E1936600017201,中野ちびっこ広場,山梨県南部町中野2318,1,1,,1,,,,,,35.305818,138.450263,
567,E1936600019201,中野グラウンド,山梨県南部町中野2801-2,1,1,,1,,,,,,35.303563,138.449307,
568,E1936600021201,清水原集会所前,山梨県南部町中野4817-1,1,1,,1,,,,,,35.300746,138.447571,
569,E1936600023201,徳間バス停留所前,山梨県南部町内船11700-2,1,,,1,,,,,,35.26785,138.474672,
570,E1936600024201,寄畑八幡神社庭,山梨県南部町内船12039,,,,1,,,,,,35.264099,138.47464,
571,E1936600025201,八木沢バス停留所前,山梨県南部町内船12874-3,1,,,1,,,,,,35.260911,138.487036,
572,E1936600026201,小内船地区避難地,山梨県南部町内船221-1,,,,1,,,,,,35.292309,138.459809,
573,E1936600027201,富岡会館前,山梨県南部町内船3037-1,1,,,1,,,,,,35.290243,138.469619,
574,E1936600028201,一の出上地区避難地,山梨県南部町内船3935,1,,,1,,,,,,35.285211,138.461999,
575,E1936600029201,南部町役場南部分庁舎前,山梨県南部町内船4473-1,,,,1,,,,,,35.28384,138.462409,
576,E1936600030201,中田会館前,山梨県南部町内船4910,,,,1,,,,,,35.283711,138.463375,
577,E1936600031201,谷津広場,山梨県南部町内船5359,1,,,1,,,,,,35.284831,138.465313,
578,E1936600032201,倉ヶ平地区避難地,山梨県南部町内船6043,1,,,1,,,,,,35.285057,138.474168,
579,E1936600033201,内船駅前,山梨県南部町内船7200,1,,,1,,,,,,35.281585,138.464877,
580,E1936600035201,栄小学校校庭,山梨県南部町内船8766,,1,,1,,,,,1,35.279434,138.465311,
581,E1936600037201,南部自動車教習所広場,山梨県南部町内船8900,,1,,1,,,,,,35.276942,138.466591,
582,E1936600038201,中組分館前,山梨県南部町内船9418,1,,,1,,,,,1,35.280755,138.467877,
583,E1936600039201,中村団地前,山梨県南部町内船9717,1,,,1,,,,,,35.280522,138.470529,
584,E1936600040201,双葉会館前,山梨県南部町南部173,1,1,,1,,,,,,35.284276,138.434566,
585,E1936600042201,睦合小学校校庭,山梨県南部町南部4376,1,1,,1,,1,,,1,35.289037,138.446278,
586,E1936600044201,みどり幼稚園,山梨県南部町南部7576,1,1,,1,,1,,,,35.295548,138.44953,
587,E1936600047201,旧睦合農協跡地,山梨県南部町南部8381-1,,1,,1,,,,,,35.287942,138.444237,
588,E1936600048201,南部自動車工業㈱庭,山梨県南部町南部8468,,1,,1,,,,,,35.284418,138.45711,
589,E1936600049201,南部中学校校庭,山梨県南部町南部8746,1,,,1,,1,,,1,35.287719,138.454283,
590,E1936600051201,睦合第一保育所跡地,山梨県南部町南部9045,,1,,1,,,,,,35.284859,138.455761,
591,E1936600052201,南部警察署庭,山梨県南部町南部9335-1,,1,,1,,,,,,35.281012,138.455397,
592,E1936600053201,中央運輸㈱庭,山梨県南部町南部9470,,1,,1,,,,,,35.283535,138.452931,
593,E1936600124202,徳間バス停留所前,山梨県南部町福士,1,,,1,,,,,,35.211491,138.447834,
594,E1936600124201,池の山道祖神,山梨県南部町福士,1,,,1,,,,,,35.222192,138.485548,
595,E1936600054201,真篠地区避難地,山梨県南部町福士1228,1,,,1,,,,,,35.254876,138.473561,
596,E1936600055201,浅間神社庭,山梨県南部町福士12386-5,1,,,1,,,,,,35.239181,138.462196,
597,E1936600056201,坂本地区避難地,山梨県南部町福士12518,1,,,1,,,,,,35.239257,138.467821,
598,E1936600058201,旧老人福祉センター広場,山梨県南部町福士14123,1,,,1,,,,,1,35.235899,138.465576,
599,E1936600059201,西市多目的集会センター前,山梨県南部町福士15509-3,1,1,,1,,,,,,35.231234,138.472275,
600,E1936600060201,西根熊多目的集会センター前,山梨県南部町福士15770-1,1,,,1,,,,,,35.219917,138.478109,
601,E1936600061201,下村地区避難地,山梨県南部町福士16407,1,,,1,,,,,,35.212103,138.453219,
602,E1936600062201,下村地区避難地,山梨県南部町福士16613,1,,,1,,,,,,35.211568,138.449938,
603,E1936600063201,下村消防ポンプ室前,山梨県南部町福士16639-1,1,1,,1,,,,,,35.211245,138.449316,
604,E1936600064201,徳間多目的研修センター前,山梨県南部町福士16832,1,,,1,,,,,1,35.212555,138.447284,
605,E1936600065201,上徳間地区避難地,山梨県南部町福士17732,1,,,1,,,,,,35.217936,138.439953,
606,E1936600066201,東根熊多目的集会センター前,山梨県南部町福士21160,1,,,1,,,,,,35.221514,138.478677,
607,E1936600067201,消防ポンプ室前,山梨県南部町福士22020-1,1,,,1,,,,,,35.225684,138.475758,
608,E1936600068201,西根熊２組・３組地区避難地,山梨県南部町福士22052,1,,,1,,,,,,35.225188,138.477059,
609,E1936600069201,竹の沢多目的集会センター前,山梨県南部町福士22471,1,,,1,,,,,1,35.226862,138.475015,
610,E1936600070201,西市上・下地区避難地,山梨県南部町福士23404,1,1,,1,,,,,,35.231201,138.474003,
611,E1936600071201,旧福士保育所跡地,山梨県南部町福士23517,1,1,,1,,,,,,35.234568,138.473315,
612,E1936600072201,大尻地区避難地,山梨県南部町福士24106,1,,,1,,,,,,35.233005,138.477105,
613,E1936600073201,矢島多目的集会センター前,山梨県南部町福士24147-1,,1,,1,,,,,,35.235642,138.483253,
614,E1936600074201,切久保公民館前,山梨県南部町福士24545,1,,,1,,,,,,35.238235,138.489026,
615,E1936600075201,旧富河中学校校庭,山梨県南部町福士2700-18,,1,,1,,1,,,1,35.242303,138.483335,
616,E1936600077201,中島地域集会施設前,山梨県南部町福士2700-86,,1,,1,,,,,,35.243696,138.482962,
617,E1936600079201,坂下多目的集会センター前,山梨県南部町福士2851-7,,,,1,,,,,1,35.248276,138.48096,
618,E1936600081201,平多目的集会センター前,山梨県南部町福士3180,,,,1,,,,,,35.245834,138.476537,
619,E1936600082201,峰多目的集会センター前,山梨県南部町福士4145,1,,,1,,,,,,35.2397,138.481682,
620,E1936600084201,中央区公民館前,山梨県南部町福士4348-40,,1,,1,,,,,,35.240258,138.483932,
621,E1936600086201,矢島下地区避難地,山梨県南部町福士5155,,1,,1,,,,,,35.235873,138.481229,
622,E1936600087201,矢島上地区避難地,山梨県南部町福士5493,1,1,,1,,1,,,,35.233901,138.479829,
623,E1936600088201,東市地区避難地,山梨県南部町福士6442,1,,,1,,,,,,35.236007,138.472539,
624,E1936600089201,旧御堂スポーツ広場,山梨県南部町福士7822-1,1,1,,1,,,,,,35.241543,138.463499,
625,E1936600091201,原間集会所前,山梨県南部町本郷1374,1,1,,1,,1,,,,35.299942,138.441708,
626,E1936600093201,峯集会所前,山梨県南部町本郷5626-1,1,,,1,,1,,,,35.302533,138.432668,
627,E1936600094201,本郷グラウンド,山梨県南部町本郷9562-2,1,1,,1,,1,,,,35.292102,138.434673,
628,E1936600096201,ふるさと陵草館前,山梨県南部町万沢11807-2,1,,,1,,,,,,35.195875,138.505272,
629,E1936600097201,屋敷平公民館前,山梨県南部町万沢12143-41,1,,,1,,,,,,35.203026,138.513067,
630,E1936600098201,西行地域集会施設前,山梨県南部町万沢1266,,,,1,,,,,,35.235262,138.505547,
631,E1936600099201,日向多目的集会センター前,山梨県南部町万沢12784-1,1,,,1,,,,,,35.190138,138.512903,
632,E1936600100201,越渡公民館前,山梨県南部町万沢1370,,,,1,,,,,1,35.227798,138.508455,
633,E1936600101201,梅島多目的集会センター前,山梨県南部町万沢13847,1,,,1,,,,,,35.196955,138.497363,
634,E1936600102201,中沢公民館前,山梨県南部町万沢15157,1,,,1,,,,,,35.188839,138.501514,
635,E1936600103201,中沢地区避難地,山梨県南部町万沢16285,1,,,1,,,,,,35.185831,138.502183,
636,E1936600104201,沢上地域集会施設前,山梨県南部町万沢3272-1,1,,,1,,,,,,35.218365,138.512491,
637,E1936600105201,万沢支所前,山梨県南部町万沢3398-1,1,1,,1,,,,,1,35.218962,138.514829,
638,E1936600107201,万沢ふれあいセンター前,山梨県南部町万沢3471-1,1,1,,1,,,,,,35.220182,138.515457,
639,E1936600109201,横沢地域集会施設前,山梨県南部町万沢3756-3,1,1,,1,,,,,,35.222824,138.510619,
640,E1936600126201,上代七面堂前,山梨県南部町万沢3946-2,1,1,,1,,,,,,35.224333,138.512337,
641,E1936600110201,旧万沢小学校校庭,山梨県南部町万沢4119,1,1,,1,,,,,1,35.222696587396,138.5137570172,
642,E1936600111201,グリーンハイツ富士見前,山梨県南部町万沢4145,1,1,,1,,,,,,35.224158387442,138.51464475463,
643,E1936600114201,増野地区避難地,山梨県南部町万沢472,,,,1,,,,,,35.233492,138.497249,
644,E1936600115201,平山公民館横,山梨県南部町万沢5640,1,1,,1,,,,,,35.218445,138.518223,
645,E1936600116201,平山・小葉山地区避難地,山梨県南部町万沢5740,1,1,,1,,,,,,35.219408,138.518636,
646,E1936600117201,沢上・登戸地区避難地,山梨県南部町万沢8308,1,,,1,,,,,,35.216946,138.504885,
647,E1936600118201,大城多目的集会センター前,山梨県南部町万沢9890,1,,,1,,,,,,35.205554,138.48784,
648,E1936600119201,町屋地域集会施設前,山梨県南部町楮根1650-1,1,,,1,,,,,,35.264385,138.461931,
649,E1936600120201,峰地域集会施設前,山梨県南部町楮根2438-5,1,,,1,,,,,,35.265972,138.466317,
650,E1936600121201,竹の花・原戸地区避難地,山梨県南部町楮根2705,1,,,1,,,,,,35.26435,138.466333,
651,E1936600122201,楮根公民館前,山梨県南部町楮根2938,1,1,,1,,,,,1,35.263417,138.464895,
652,E1936600123201,馬込地区避難地,山梨県南部町楮根371,1,,,1,,,,,,35.264497,138.458158,
653,E1920700001201,みだい体育センター,山梨県韮崎市旭町上條南割3314-15,,,,1,,,,,1,35.667174,138.440163,
654,E1920700002202,旭公民館,山梨県韮崎市旭町上條北割3879-1,,,,1,,,,,1,35.688826,138.437636,
655,E1920700002201,旭屋内運動場,山梨県韮崎市旭町上條北割3879-1,1,1,,1,,,,,1,35.688375,138.437671,
656,E1920700003201,円野公民館,山梨県韮崎市円野町下円井1199-3,,,,1,,,,,1,35.75985,138.398421,
657,E1920700004201,円野屋内運動場,山梨県韮崎市円野町下円井1239,,,,1,,,,,1,35.760117,138.39766,
658,E1920700005201,祖母石公民館,山梨県韮崎市下祖母石370,,,,1,,,,,1,35.730243,138.424677,
659,E1920700007201,穴山公民館,山梨県韮崎市穴山町4487-1,,,,1,,,,,1,35.755448,138.418063,
660,E1920700008201,韮崎高等学校,山梨県韮崎市若宮3-2-1,1,1,,1,,,,,1,35.714969,138.450395,
661,E1920700009201,韮崎西中学校,山梨県韮崎市神山町鍋山1-1,,,,1,,,,,1,35.70939,138.439059,
662,E1920700010201,神山屋内運動場,山梨県韮崎市神山町北宮地1019,,,,1,,,,,1,35.705327,138.424754,
663,E1920700011201,神山公民館,山梨県韮崎市神山町北宮地945-3,,,,1,,,,,1,35.705764,138.426094,
664,E1920700012201,北西児童センター,山梨県韮崎市清哲町青木1078-1,,,,1,,,,,1,35.728764,138.417417,
665,E1920700013201,韮崎北西小学校,山梨県韮崎市清哲町青木193-1,,,,1,,,,,1,35.728338,138.417715,
666,E1920700014201,清哲公民館,山梨県韮崎市清哲町青木2309-1,1,1,,1,,,,,1,35.722907,138.416133,
667,E1920700016202,大草公民館,山梨県韮崎市大草町上條東割788,1,1,,1,,,,,1,35.685705,138.451235,
668,E1920700016201,甘利児童センター,山梨県韮崎市大草町上條東割788,1,1,,1,,,,,1,35.685503,138.451259,
669,E1920700017201,甘利小学校,山梨県韮崎市大草町上條東割821-1,1,1,,1,,,,,1,35.68737,138.451581,
670,E1920700018201,健康ふれあいセンター,山梨県韮崎市中田町中條1800-1,1,1,,1,,,,,1,35.748012,138.437932,
671,E1920700019202,中田公民館,山梨県韮崎市中田町中條490-1,1,1,,1,,,,,1,35.743714,138.436796,
672,E1920700019201,中田屋内運動場,山梨県韮崎市中田町中條490-1,1,1,,1,,,,,1,35.74372,138.436743,
673,E1920700020201,韮崎北東小学校,山梨県韮崎市藤井町駒井1912,1,1,,1,,,,,1,35.732449,138.442102,
674,E1920700021201,北東児童センター,山梨県韮崎市藤井町駒井2248-1,,,,1,,,,,1,35.733981,138.444068,
675,E1920700022201,藤井公民館,山梨県韮崎市藤井町坂井119-1,,,,1,,,,,1,35.728896,138.443811,
676,E1920700023201,東京エレクトロン韮崎文化ホール,山梨県韮崎市藤井町坂井205,1,1,,1,,,,,1,35.72838,138.44387,
677,E1920700024201,韮崎東中学校,山梨県韮崎市藤井町南下條371,1,1,,1,,,,,1,35.718198,138.451041,
678,E1920700033201,韮崎中央体育館,山梨県韮崎市藤井町南下條897,1,1,,1,,,1,,1,35.721091,138.440122,
679,E1920700025201,勤労青年センター,山梨県韮崎市穂坂町宮久保5136-2,1,1,,1,,,,,1,35.728653,138.470293,
680,E1920700026201,穂坂小学校,山梨県韮崎市穂坂町宮久保6121,1,1,,1,,,,,1,35.736376,138.483546,
681,E1920700027201,穂坂公民館（コミュニティセンター）,山梨県韮崎市穂坂町宮久保6196-1,1,1,,1,,,,,1,35.734377,138.481453,
682,E1920700028201,韮崎児童センター,山梨県韮崎市本町2-1-7,,,,1,,,,,1,35.70773,138.452729,
683,E1920700029201,韮崎小学校,山梨県韮崎市本町2-2-41,1,1,,1,,,,,1,35.706715,138.453329,
684,E1920700030201,竜岡体育館,山梨県韮崎市龍岡町下條南割1007,1,1,,1,,,,,1,35.678863,138.465501,
685,E1920700030202,竜岡公民館,山梨県韮崎市龍岡町下條南割1007,1,1,,1,,,,,1,35.678791,138.466065,
686,E1920700031201,エコパークたつおかコミュニティセンター,山梨県韮崎市龍岡町下條南割1895,,,,1,,,,,1,35.675053,138.478622,
687,E1920700032201,韮崎工業高等学校,山梨県韮崎市龍岡町若尾新田50-1,,,,1,,,,,1,35.700349,138.450096,
688,E1942400001201,承天寺庭境内,山梨県忍野村内野192,1,1,,1,,1,1,1,,35.45903581,138.8545767,
689,E1942400002201,天狗社境内,山梨県忍野村内野382,1,1,,1,,1,1,1,,35.45612528,138.8620148,
690,E1942400003201,内野コミュニティセンター駐車場,山梨県忍野村内野501,1,1,,1,,1,1,1,1,35.4579518,138.8580193,
691,E1942400005201,柳原公園,山梨県忍野村忍草1161,1,1,,1,,1,1,1,,35.44915437,138.8422208,
692,E1942400009201,忍野小学校グランド,山梨県忍野村忍草1516,,1,,1,,1,1,1,1,35.46048969,138.8470023,
693,E1942400013201,橋向駐車場,山梨県忍野村忍草187,,1,,1,,1,1,1,,35.458502358798,138.83089676511,
694,E1942400014201,平山コミュニティセンター駐車場,山梨県忍野村忍草2416-14,1,1,,1,,1,1,1,1,35.469771508602,138.81494486814,
695,E1942400016201,美術館駐車場,山梨県忍野村忍草2838-1,1,1,,1,,1,1,1,,35.457039711128,138.81893916508,
696,E1942400017201,自衛隊東側村有地,山梨県忍野村忍草3335,1,1,,1,,1,1,1,,35.453058734231,138.83013153558,
697,E1942400019201,忍草コミュニティセンター駐車場,山梨県忍野村忍草834,1,1,,1,,1,1,1,1,35.458073878817,138.83631687062,
698,E1943000001201,河口小学校校庭,山梨県富士河口湖町河口1560,1,1,1,1,1,1,1,1,1,35.530236,138.768765,
699,E1943000002201,河口湖北中学校校庭,山梨県富士河口湖町河口3210,1,1,1,1,1,1,1,1,1,35.520325,138.770143,
700,E1943000004201,勝山小中学校校庭,山梨県富士河口湖町勝山1047,1,1,1,1,1,1,1,1,1,35.503601,138.740802,
701,E1943000007201,小立小学校校庭,山梨県富士河口湖町小立2446,1,1,1,1,1,1,1,1,1,35.504706,138.751126,
702,E1943000047201,八木崎公園多目的広場,山梨県富士河口湖町小立897-1,1,1,1,1,1,1,1,1,,35.51216,138.755423,
703,E1943000054201,精進屋内ゲートボール場,山梨県富士河口湖町精進159,1,,1,1,1,1,1,1,1,35.495871,138.608779,
704,E1943000055201,県営精進湖駐車場,山梨県富士河口湖町精進264-2,1,,1,1,1,1,1,1,,35.491844,138.603704,
705,E1943000056201,旧精進小学校校庭,山梨県富士河口湖町精進514,1,1,1,1,1,1,1,,,35.478146,138.613938,
706,E1943000011201,西湖南運動場,山梨県富士河口湖町西湖2068-1,1,1,1,1,1,1,1,1,1,35.488612,138.675738,
707,E1943000061201,西湖向浜河川敷,山梨県富士河口湖町西湖207,1,,1,1,1,1,1,1,,35.504361,138.699595,
708,E1943000050201,西湖前浜河川敷,山梨県富士河口湖町西湖653,1,,1,1,1,1,1,1,,35.505147,138.697451,
709,E1943000052202,西湖桑留尾浜河川敷,山梨県富士河口湖町西湖986,1,,1,1,1,1,1,1,,35.503566,138.685836,
710,E1943000053201,西湖西運動場,山梨県富士河口湖町西湖西12-1,1,,1,1,1,1,1,1,,35.499915,138.659635,
711,E1943000014201,河口湖南中学校校庭,山梨県富士河口湖町船津1164,1,1,1,1,1,1,1,1,1,35.499539,138.759548,
712,E1943000016201,船津小学校校庭,山梨県富士河口湖町船津3737,1,1,1,1,1,1,1,1,1,35.499684,138.767543,
713,E1943000045201,鐘突堂スポーツ広場,山梨県富士河口湖町船津4233-1,1,1,1,1,1,1,1,1,,35.496884,138.777047,
714,E1943000044201,富士河口湖町民運動場,山梨県富士河口湖町船津5552,1,1,1,1,1,1,1,1,,35.482173,138.75981,
715,E1943000034201,富士河口湖高等学校グラウンド,山梨県富士河口湖町船津6663-1,1,1,1,1,1,1,1,1,1,35.488341,138.772531,
716,E1943000019201,大石小学校校庭,山梨県富士河口湖町大石1425,1,,1,1,1,1,1,1,1,35.524228,138.746056,
717,E1943000022201,大嵐小学校校庭,山梨県富士河口湖町大嵐559,1,1,1,1,1,1,1,1,1,35.496177,138.733665,
718,E1943000051201,長浜下条浜河川敷,山梨県富士河口湖町長浜2251-1,1,,1,1,1,1,1,1,,35.508182,138.716348,
719,E1943000048201,西浜小学校校庭,山梨県富士河口湖町長浜2427,1,,1,1,1,1,1,1,1,35.506038,138.710042,
720,E1943000059201,富士豊茂小学校校庭,山梨県富士河口湖町富士ヶ嶺1209,1,1,1,1,1,1,1,,,35.41612,138.617382,
721,E1943000060201,富士ヶ嶺公民館駐車場,山梨県富士河口湖町富士ヶ嶺1219,1,1,1,1,1,1,1,,,35.415377,138.618289,
722,E1943000058201,県営本栖湖駐車場,山梨県富士河口湖町本栖18,1,1,1,1,1,1,1,,,35.464996,138.601653,
723,E1943000028201,旧上九一色中学校校庭,山梨県富士河口湖町本栖20,1,1,1,1,1,1,1,,1,35.467495,138.607338,
724,E1943000029201,本栖湖スポーツセンター,山梨県富士河口湖町本栖210,1,1,1,1,1,1,1,,1,35.454544,138.598575,
725,E1943000057201,本栖キャンプ場駐車場,山梨県富士河口湖町本栖218,1,1,1,1,1,1,1,,,35.461085,138.602319,
726,E1920200071201,ときわ台会館,山梨県富士吉田市ときわ台2-5-4,1,1,,1,,1,,1,,35.488332,138.787191,
727,E1920200001201,旭町会館,山梨県富士吉田市旭3-4-1,1,1,,1,,1,,1,,35.49810408,138.7926246,
728,E1920200002201,仲町会館,山梨県富士吉田市下吉田1-10-5,1,1,,1,,1,,1,,35.49517537,138.8068663,
729,E1920200003201,西町会館,山梨県富士吉田市下吉田1-8-32,1,1,,1,,1,,1,,35.4943067,138.8056178,
730,E1920200004201,中央会館,山梨県富士吉田市下吉田2-21-39,1,1,,1,,1,,1,,35.48962621,138.8053552,
731,E1920200005201,天神社,山梨県富士吉田市下吉田2-29-37,,,,1,,1,,1,,35.4891064,138.8062277,
732,E1920200006201,中央まちかど公園,山梨県富士吉田市下吉田2-54,,,,1,,1,,1,,35.4903319,138.802757,
733,E1920200007201,中村会館,山梨県富士吉田市下吉田3-12-9,1,1,,1,,1,,1,,35.4921774,138.8030145,
734,E1920200008201,月江寺境内地,山梨県富士吉田市下吉田3-869,,,,1,,1,,1,,35.4933953,138.80001274,
735,E1920200009201,幸町会館,山梨県富士吉田市下吉田5-14-4,1,1,,1,,1,,1,,35.48840297,138.8025929,
736,E1920200010201,下吉田南コミュニティセンター,山梨県富士吉田市下吉田6-16-1,1,1,,1,,1,,1,,35.48603435,138.806451,
737,E1920200011201,県立吉田高等学校,山梨県富士吉田市下吉田6-17-1,1,1,,1,,1,,1,1,35.48505822,138.8064667,
738,E1920200012201,御茶屋町会館,山梨県富士吉田市下吉田6-24-24,1,1,,1,,1,,1,,35.48163476,138.8098521,
739,E1920200013201,東町会館,山梨県富士吉田市下吉田8-24-28,1,1,,1,,1,,1,,35.49239008,138.812384,
740,E1920200014201,下吉田東小学校,山梨県富士吉田市下吉田9-21-1,1,1,,1,,1,,1,1,35.49627274,138.8135569,
741,E1920200015201,第三保育園,山梨県富士吉田市下吉田東2-14-21,,,,1,,1,,1,,35.48733232,138.81412,
742,E1920200016201,向原富士浅間神社,山梨県富士吉田市向原1-21-11,,,,1,,1,,1,,35.49629141,138.8302768,
743,E1920200017201,向原会館,山梨県富士吉田市向原2-1-5,1,1,,1,,1,,1,,35.4948584,138.8328374,
744,E1920200018201,明見中学校,山梨県富士吉田市小明見1-4-14,1,1,,1,,1,,1,1,35.4920619,138.8208152,
745,E1920200019201,明見小学校,山梨県富士吉田市小明見1-4-6,1,1,,1,,1,,1,1,35.4926202,138.8219517,
746,E1920200020201,小明見会館,山梨県富士吉田市小明見4-5-28,1,1,,1,,1,,1,,35.49522459,138.825478,
747,E1920200021201,第七保育園,山梨県富士吉田市小明見4-9-1,,,,1,,1,,1,,35.49408372,138.8257515,
748,E1920200022201,丸ヶ丘公園,山梨県富士吉田市小明見5-14,,,,1,,1,,1,,35.493326,138.828814,
749,E1920200023201,松尾神社,山梨県富士吉田市松山2-10-18,,,,1,,1,,1,,35.4864244,138.7956366,
750,E1920200024201,第四保育園,山梨県富士吉田市松山4-11-27,,,,1,,1,,1,,35.4867543,138.7921525,
751,E1920200025201,神田堀駐車場,山梨県富士吉田市松山4-4,,,,1,,1,,1,,35.485294353749,138.79359481233,
752,E1920200026201,吉田中学校,山梨県富士吉田市上吉田1-3-6,1,1,,1,,1,,1,1,35.48069704,138.7998103,
753,E1920200027201,金鳥居市民公園,山梨県富士吉田市上吉田2-6-1,,,,1,,1,,1,,35.48303335,138.7971991,
754,E1920200028201,下宿会館,山梨県富士吉田市上吉田3-14-12,1,1,,1,,1,,1,,35.48036673,138.7965475,
755,E1920200032201,上吉田コミュニティセンター,山梨県富士吉田市上吉田4-9-11,1,1,,1,,1,,1,,35.47871694,138.7936848,
756,E1920200029201,熊穴団地集会場,山梨県富士吉田市上吉田4356,,,,1,,1,,1,,35.47445732,138.7834538,
757,E1920200030201,青少年センター,山梨県富士吉田市上吉田4433-1,,,,1,,1,,1,,35.47716438,138.7780121,
758,E1920200031201,習志野市立富士吉田青年の家,山梨県富士吉田市上吉田4443,,,,1,,1,,1,,35.47640773,138.7777911,
759,E1920200033201,吉田小学校,山梨県富士吉田市上吉田5-1-1,1,1,,1,,1,,1,1,35.4774906,138.7980402,
760,E1920200034201,上宿会館,山梨県富士吉田市上吉田5434-1,1,1,,1,,1,,1,,35.47131873,138.789035,
761,E1920200035201,北口本宮冨士浅間神社,山梨県富士吉田市上吉田5558,,,,1,,1,,1,,35.470756,138.7924219,
762,E1920200036201,県立ひばりが丘高等学校,山梨県富士吉田市上吉田東4-3-1,1,1,,1,,1,,1,1,35.47712363,138.80535,
763,E1920200037201,ふじさんミュージアム,山梨県富士吉田市上吉田東7-27-1,,,,1,,1,,1,,35.45809995,138.8053743,
764,E1920200038201,鐘山総合スポーツセンター,山梨県富士吉田市上吉田東9-4-18,,,,1,,1,,1,,35.4645912,138.8127451,
765,E1920200039201,富士小学校,山梨県富士吉田市上暮地1-22-1,1,1,,1,,1,,1,1,35.5090813,138.8288302,
766,E1920200040201,富士見台中学校,山梨県富士吉田市上暮地1-6-1,1,1,,1,,1,,1,1,35.5071936,138.8279523,
767,E1920200041201,上暮地コミュニティセンター,山梨県富士吉田市上暮地4-16-15,1,1,,1,,1,,1,,35.5164915,138.8314078,
768,E1920200042201,寿町会館,山梨県富士吉田市上暮地4-7-18,1,1,,1,,1,,1,,35.5135936,138.8290581,
769,E1920200043201,白糸町会館,山梨県富士吉田市上暮地7-1-16,1,1,,1,,1,,1,,35.5179847,138.8310542,
770,E1920200044201,第五保育園,山梨県富士吉田市新屋1236,,,,1,,1,,1,,35.4659415,138.7968117,
771,E1920200045201,新屋会館,山梨県富士吉田市新屋173-1,1,1,,1,,1,,1,,35.469431,138.7985458,
772,E1920200046201,富士散策公園,山梨県富士吉田市新屋1770-12,,,,1,,1,,1,,35.45531839,138.8053102,
773,E1920200047201,富士山アリーナ,山梨県富士吉田市新屋1936,,,,1,,1,,1,,35.45963989,138.8024992,
774,E1920200048201,県立富士北稜高等学校,山梨県富士吉田市新西原1-23-1,1,1,,1,,1,,1,1,35.48221544,138.7899818,
775,E1920200049201,西原南公園,山梨県富士吉田市新西原2-13,,,,1,,1,,1,,35.47915808,138.7872598,
776,E1920200050201,松山会館,山梨県富士吉田市新西原3-17-3,1,1,,1,,1,,1,,35.48500026,138.784532,
777,E1920200051201,吉田西小学校,山梨県富士吉田市新西原3-7-1,1,1,,1,,1,,1,1,35.48469436,138.7844649,
778,E1920200052201,赤坂会館,山梨県富士吉田市新倉3033-5,1,1,,1,,1,,1,,35.49024076,138.7778133,
779,E1920200053201,第一保育園,山梨県富士吉田市新町1-2-1,,,,1,,1,,1,,35.49485294,138.800874,
780,E1920200054201,下吉田第一小学校,山梨県富士吉田市新町1-8-1,1,1,,1,,1,,1,1,35.4955068,138.8027191,
781,E1920200055201,新町会館,山梨県富士吉田市新町2-4-15,1,1,,1,,1,,1,,35.4965192,138.8022676,
782,E1920200056201,下吉田中学校,山梨県富士吉田市新町4-12-27,1,1,,1,,1,,1,1,35.49566684,138.7959999,
783,E1920200057201,下吉田コミュニティセンター,山梨県富士吉田市新町4-12-34,1,1,,1,,1,,1,,35.4951834,138.7954922,
784,E1920200059201,浅間町会館,山梨県富士吉田市浅間1-6-5,1,1,,1,,1,,1,,35.4992599,138.7972976,
785,E1920200061201,大明見小室浅間神社,山梨県富士吉田市大明見2-1-1,,,,1,,1,,1,,35.48415557,138.819064,
786,E1920200062201,大明見会館,山梨県富士吉田市大明見5-1-18,1,1,,1,,1,,1,,35.48802441,138.8202746,
787,E1920200063201,明見コミュニティセンター,山梨県富士吉田市大明見6-16-19,1,1,,1,,1,,1,,35.491217,138.8180851,
788,E1920200064201,第六保育園,山梨県富士吉田市中曽根1-10-1,,,,1,,1,,1,,35.4838866,138.800241,
789,E1920200065201,中曽根会館,山梨県富士吉田市中曽根2-9-28,1,1,,1,,1,,1,,35.48253126,138.8024437,
790,E1920200066201,富士見町会館,山梨県富士吉田市富士見3-2-8,1,1,,1,,1,,1,,35.4993179,138.811888,
791,E1920200067201,竜ヶ丘会館,山梨県富士吉田市竜ケ丘3-4-39,1,1,,1,,1,,1,,35.491227570432,138.78967477781,
792,E1920200068201,富士学苑高等学校体育館（秀敬館）,山梨県富士吉田市緑ケ丘1-1-1,1,1,,1,,1,,1,1,35.493312918535,138.79917350863,
793,E1920200069201,市民会館,山梨県富士吉田市緑ケ丘2-5-23,,,,1,,1,,1,,35.491236898126,138.79617174484,
794,E1920200070201,下吉田第二小学校,山梨県富士吉田市緑ケ丘2-8-2,1,1,,1,,1,,1,1,35.49391739,138.79409379,
795,E1936800095201,鰍沢口駅,山梨県富士川町駅前通1-420,,1,,1,,,,,,35.541088,138.470735,
796,E1936800097201,セブンイレブン,山梨県富士川町駅前通2-3668,,1,,1,,,,,,35.540407,138.466047,
797,E1936800098201,船場記念公園（駅前公民館）,山梨県富士川町駅前通2-4-4,,,,1,,,,,,35.53987,138.464518,
798,E1936800096201,㈱ダイドーフード,山梨県富士川町駅前通489,,1,,1,,,,,,35.540611,138.468246,
799,E1936800005201,新田町集会所,山梨県富士川町鰍沢1-10,,1,,1,,,,,1,35.551532,138.461538,
800,E1936800003201,県営鰍沢北部団地,山梨県富士川町鰍沢105,,1,,1,,,,,1,35.551353,138.46666,
801,E1936800004201,かじかざわ児童センター,山梨県富士川町鰍沢1091-1,,1,,1,,,,,1,35.544472,138.460556,
802,E1936800099201,新田郵便局,山梨県富士川町鰍沢11-1,,1,,1,,,,,,35.552831,138.46212,
803,E1936800006201,八幡町集会所,山梨県富士川町鰍沢1136-3,,1,,1,,,,,1,35.545178,138.46155,
804,E1936800007201,鰍沢小学校,山梨県富士川町鰍沢1172,,1,,1,,,,,1,35.546429,138.46077,
805,E1936800100201,鰍沢中学校,山梨県富士川町鰍沢1188,,,,1,,,,,,35.546429,138.46077,
806,E1936800010201,本町北集会所,山梨県富士川町鰍沢1234-10,,1,,1,,,,,1,35.543305,138.460223,
807,E1936800101201,東川沿駐車場,山梨県富士川町鰍沢1251,,1,,1,,,,,,35.542729,138.45947,
808,E1936800011201,鰍沢南区地区公民館,山梨県富士川町鰍沢1256-2,,,,1,,,,,1,35.542152,138.458956,
809,E1936800102201,ローソン富士川鰍沢店,山梨県富士川町鰍沢1395-1,,,,1,,,,,,35.540605,138.457252,
810,E1936800103201,山梨交通㈱富士川鰍沢口店,山梨県富士川町鰍沢1519,,,,1,,,,,,35.542264,138.458025,
811,E1936800104201,山梨県民信用組合鰍沢支店,山梨県富士川町鰍沢1641-2,,1,,1,,,,,,35.54842,138.460388,
812,E1936800014201,鰍沢中区地区公民館,山梨県富士川町鰍沢1680-3,,1,,1,,,,,1,35.550326,138.460326,
813,E1936800105201,富士川地方合同庁舎,山梨県富士川町鰍沢1766,,,,1,,,,,,35.54583,138.459033,
814,E1936800017201,緑町集会所,山梨県富士川町鰍沢2487-10,,1,,1,,,,,1,35.547786,138.458781,
815,E1936800106201,町有住宅鰍沢団地,山梨県富士川町鰍沢265-1,,1,,1,,,,,,35.550282,138.465814,
816,E1936800018201,畔沢町集会所,山梨県富士川町鰍沢2835,,,,1,,,,,1,35.550135,138.453308,
817,E1936800107201,入町防災広場,山梨県富士川町鰍沢3250,,,,1,,,,,,35.543587,138.454087,
818,E1936800108201,富士川病院,山梨県富士川町鰍沢340-1,,1,,1,,,,,,35.549577,138.465843,
819,E1936800109201,ピュア鰍沢,山梨県富士川町鰍沢340-10,,1,,1,,,,,,35.54861,138.464875,
820,E1936800110201,梅林町公民館,山梨県富士川町鰍沢340-27,,1,,1,,,,,,35.548309,138.465047,
821,E1936800111201,国道天戸入り口,山梨県富士川町鰍沢3495,,1,,1,,,,,,35.537265,138.452764,
822,E1936800112201,天戸入り口駐車場,山梨県富士川町鰍沢3515,,,,1,,,,,,35.537091,138.450327,
823,E1936800021201,くにみ園,山梨県富士川町鰍沢4272-1,,,,1,,,,,1,35.524627,138.442309,
824,E1936800022201,妙成寺,山梨県富士川町鰍沢4307,,,,1,,,,,1,35.525627,138.443242,
825,E1936800024201,鬼島農村公園,山梨県富士川町鰍沢5084,,,,1,,,,,1,35.515188,138.45322,
826,E1936800024202,旧鰍沢中部小学校,山梨県富士川町鰍沢5084,,,,1,,,,,1,35.521235,138.450407,
827,E1936800026201,日向町集会所,山梨県富士川町鰍沢5944,,1,,1,,,,,1,35.515857,138.446624,
828,E1936800113201,旭町ちびっこ広場,山梨県富士川町鰍沢660,,1,,1,,,,,,35.548445,138.463743,
829,E1936800028201,旭町集会所,山梨県富士川町鰍沢672-1,,1,,1,,,,,1,35.54844,138.463271,
830,E1936800114201,鰍沢簡易裁判所,山梨県富士川町鰍沢7302,,1,,1,,,,,,35.548903,138.458405,
831,E1936800029201,富士見町集会所,山梨県富士川町鰍沢749-3,,1,,1,,,,,1,35.547683,138.461385,
832,E1936800115201,山梨県合同庁舎,山梨県富士川町鰍沢771-2,,1,,1,,,,,,35.546738,138.46303,
833,E1936800031201,高下文化センター,山梨県富士川町高下1432,,1,,1,,,,,1,35.532946,138.420657,
834,E1936800116201,妙林寺,山梨県富士川町高下2325,,,,1,,,,,,35.536602,138.418324,
835,E1936800117201,仙洞田集会所,山梨県富士川町高下713,,,,1,,,,,,35.53528,138.425725,
836,E1936800118201,唯観堂,山梨県富士川町最勝寺,,,,1,,,,,,35.559366,138.449136,
837,E1936800119201,下東集会所,山梨県富士川町最勝寺1139,,1,,1,,,,,,35.558738,138.460235,
838,E1936800120201,最勝寺農村公園（旧大久保プール）,山梨県富士川町最勝寺12,,1,,1,,,,,,35.563115,138.447952,
839,E1936800033201,福寿荘きらきら,山梨県富士川町最勝寺1307-1,,1,,1,,,,,1,35.55274,138.46107,
840,E1936800035201,ますほ南児童クラブ,山梨県富士川町最勝寺1389-1,,1,,1,,,,,1,35.557959,138.456845,
841,E1936800121201,西野入橋北交差点,山梨県富士川町最勝寺1408,,1,,1,,,,,,35.559412,138.45339,
842,E1936800122201,上組集会所,山梨県富士川町最勝寺1434,,1,,1,,,,,,35.56044,138.451324,
843,E1936800123201,殿原カントリークラブ,山梨県富士川町最勝寺1538,,1,,1,,,,,,35.554108,138.455551,
844,E1936800036201,最勝寺馬門公民館,山梨県富士川町最勝寺1612-1,,,,1,,,,,1,35.549497,138.456552,
845,E1936800124201,旭ヶ丘１組・３組上殿原倉庫,山梨県富士川町最勝寺2003,,1,,1,,,,,,35.555849,138.454744,
846,E1936800125201,最勝寺,山梨県富士川町最勝寺2016-1,,1,,1,,,,,,35.555796,138.453342,
847,E1936800126201,旭ヶ丘１組広場,山梨県富士川町最勝寺2094,,1,,1,,,,,,35.558405,138.453131,
848,E1936800127201,殿原住宅,山梨県富士川町最勝寺2192-25,,,,1,,,,,,35.559878,138.451186,
849,E1936800128201,山梨県森林総合研究所,山梨県富士川町最勝寺2290-1,,,,1,,,,,,35.559818,138.446899,
850,E1936800037201,大久保地区公民館,山梨県富士川町最勝寺25-7,,,,1,,,,,1,35.563852,138.446278,
851,E1936800129201,寺尾組集会所,山梨県富士川町最勝寺2719-3,,,,1,,,,,,35.563303,138.442849,
852,E1936800130201,殿原スポーツ公園,山梨県富士川町最勝寺2890,,1,,1,,,,,,35.555421,138.450281,
853,E1936800038201,増穂小学校,山梨県富士川町最勝寺320,,1,,1,,,,,1,35.563107,138.458023,
854,E1936800093201,富士川町児童センター,山梨県富士川町最勝寺555,,1,,1,,,,,1,35.561352,138.456177,
855,E1936800039201,最勝寺地区公民館,山梨県富士川町最勝寺762-1,,1,,1,,,,,1,35.559303,138.456253,
856,E1936800131201,円応寺,山梨県富士川町鹿島260,,,,1,,,,,,35.513369,138.462794,
857,E1936800041201,鹿島町集会所,山梨県富士川町鹿島6631,,,,1,,,,,1,35.514735,138.458254,
858,E1936800132201,南舟筵道,山梨県富士川町鹿島6660,,,,1,,,,,,35.515884,138.457649,
859,E1936800133201,小塗手,山梨県富士川町十谷158,,,,1,,,,,,35.506688,138.397659,
860,E1936800134201,妙長寺庭,山梨県富士川町十谷383,,,,1,,,,,,35.506745,138.394826,
861,E1936800135201,町営観光第１駐車場,山梨県富士川町十谷424,,,,1,,,,,,35.506352,138.395652,
862,E1936800042201,十谷生活改善センター,山梨県富士川町十谷451,,,,1,,,,,1,35.505927,138.395605,
863,E1936800043201,福寿荘,山梨県富士川町小室1241,,,,1,,,,,1,35.540766,138.430462,
864,E1936800136201,八雲池公園,山梨県富士川町小室2044-1,,,,1,,,,,,35.541762,138.408451,
865,E1936800137201,ゆずの里ふれあいセンター,山梨県富士川町小室2497,,,,1,,,,,,35.541978,138.430089,
866,E1936800045201,増穂南小学校,山梨県富士川町小室2618,,1,,1,,,,,1,35.543088,138.430814,
867,E1936800138201,小室ヘリポート,山梨県富士川町小室2975,,,,1,,,,,,35.543918,138.429354,
868,E1936800139202,妙法寺,山梨県富士川町小室3063,,1,,1,,,,,,35.544586,138.43083,
869,E1936800139201,旧小室山保育所,山梨県富士川町小室3063,,1,,1,,,,,,35.54403,138.431417,
870,E1936800140201,日出づる活性化組合,山梨県富士川町小室3296,,,1,1,,,,,,35.543696,138.434553,
871,E1936800141201,砂垈組集会所,山梨県富士川町小室4378,,,,1,,,,,,35.550705,138.431377,
872,E1936800142201,天満宮,山梨県富士川町小室4672,,,,1,,,,,,35.551495,138.418186,
873,E1936800143201,小室ふれあいの家,山梨県富士川町小室977,,1,,1,,,,,,35.543064,138.43638,
874,E1936800048201,利根川スポーツ公園,山梨県富士川町小林1778,,1,,1,,,,,,35.568982,138.454248,
875,E1936800144201,妙諸寺,山梨県富士川町小林1815-1,,1,,1,,,,,,35.572502,138.457691,
876,E1936800145201,小林地区公民館,山梨県富士川町小林1878-3,,1,,1,,,,,,35.573143,138.453882,
877,E1936800209201,ＴＫグラウンド,山梨県富士川町小林2120,,,,1,,,,,,35.571553,138.451457,
878,E1936800146201,南中集会所,山梨県富士川町小林2246-28,,,,1,,,,,,35.568776,138.448092,
879,E1936800147201,竹重ちびっこ広場,山梨県富士川町小林227-3,,1,,1,,,,,,35.580553,138.454551,
880,E1936800148201,旧オギノ,山梨県富士川町青柳町1291-1,,1,,1,,,,,,35.560841,138.467683,
881,E1936800149201,追分青柳駐在所,山梨県富士川町青柳町1333,,1,,1,,,,,,35.562483,138.466959,
882,E1936800150201,諏訪神社,山梨県富士川町青柳町156,,1,,1,,,,,,35.562443,138.464294,
883,E1936800151201,役場東別館,山梨県富士川町青柳町338-8,,1,,1,,,,,,35.560585,138.462875,
884,E1936800152201,峡南高等技術専門学校,山梨県富士川町青柳町3492,,1,,1,,,,,,35.552713,138.459744,
885,E1936800052201,青柳町５丁目ちびっこ広場,山梨県富士川町青柳町3492-177,,1,,1,,,,,1,35.553597,138.459851,
886,E1936800053201,青柳町地区公民館,山梨県富士川町青柳町385,,1,,1,,,,,1,35.559828,138.465492,
887,E1936800153201,昌福寺,山梨県富士川町青柳町483,,1,,1,,,,,,35.558811,138.464111,
888,E1936800055201,善応寺,山梨県富士川町青柳町582-1,,1,,1,,,,,1,35.556644,138.463425,
889,E1936800154201,ガスト山梨増穂店,山梨県富士川町青柳町662-4,,1,,1,,,,,,35.554871,138.462814,
890,E1936800155201,ＪＡ山梨みらい青柳支店,山梨県富士川町青柳町910-1,,1,,1,,,,,,35.556423,138.46469,
891,E1936800156201,大久保郵便局,山梨県富士川町大久保103-4,,,,1,,,,,,35.566833,138.446899,
892,E1936800157201,旧大久保詰所前,山梨県富士川町大久保190,,1,,1,,,,,,35.564996,138.447642,
893,E1936800158201,大久保酒造店,山梨県富士川町大久保341,,1,,1,,,,,,35.564438,138.448288,
894,E1936800159201,大久保ふれあいの家,山梨県富士川町大久保498-4,,1,,1,,,,,,35.564188,138.444761,
895,E1936800160201,八丁橋,山梨県富士川町大久保550,,,,1,,,,,,35.564655,138.443264,
896,E1936800161201,町営大久保団地,山梨県富士川町大久保594-12,,,,1,,,,,,35.567978,138.44809,
897,E1936800162201,大椚１０－１,山梨県富士川町大椚10-1,,1,,1,,,,,,35.563711,138.467825,
898,E1936800163201,町営増穂団地,山梨県富士川町大椚142,,1,,1,,,,,,35.567055,138.4685,
899,E1936800164201,白山神社,山梨県富士川町大椚258-1,,1,,1,,,,,,35.566584,138.469668,
900,E1936800165201,盛善寺,山梨県富士川町大椚262,,1,,1,,,,,,35.566326,138.469864,
901,E1936800166201,妙善寺,山梨県富士川町大椚83,,1,,1,,,,,,35.564362,138.468842,
902,E1936800167201,長知沢集会所,山梨県富士川町長知沢147,,,,1,,,,,,35.5237,138.438538,
903,E1936800168201,妙森寺,山梨県富士川町長知沢194,,1,,1,,,,,,35.524879,138.438442,
904,E1936800169201,長知沢貯水槽,山梨県富士川町長知沢66,,,,1,,,,,,35.523036,138.439359,
905,E1936800170201,下宿集会所,山梨県富士川町長澤1037,,1,,1,,,,,1,35.565515,138.465317,
906,E1936800171201,コミュニティー大椚,山梨県富士川町長澤1048-1,,1,,1,,,,,,35.565554,138.467656,
907,E1936800172201,釜無川浄化センター,山梨県富士川町長澤1790,,1,,1,,,,,,35.574364,138.469223,
908,E1936800173201,上行寺,山梨県富士川町長澤2264-3,,1,,1,,,,,,35.574684,138.46347,
909,E1936800174201,利根川公園,山梨県富士川町長澤2330,,1,,1,,,,,,35.573295,138.463241,
910,E1936800094201,保健福祉支援センター,山梨県富士川町長澤2374-2,,1,,1,,,,,1,35.573269,138.466777,
911,E1936800175201,善住寺,山梨県富士川町長澤331,,1,,1,,,,,,35.570309,138.463989,
912,E1936800176201,第２保育所,山梨県富士川町長澤918-1,,1,,1,,,,,,35.568692,138.467018,
913,E1936800065201,かじかの湯,山梨県富士川町鳥屋137-1,,,,1,,,,,1,35.507443,138.428574,
914,E1936800066201,鳥屋町集会所,山梨県富士川町鳥屋357,,,,1,,,,,1,35.507116,138.424864,
915,E1936800177201,大柳川やすらぎ水辺公園,山梨県富士川町鳥屋359,,,,1,,,,,,35.50678,138.425117,
916,E1936800178201,五柳橋,山梨県富士川町鳥屋713,,,,1,,,,,,35.507806,138.43157,
917,E1936800179201,第１分団詰所,山梨県富士川町天神中條365-1,,1,,1,,,,,,35.564481,138.456225,
918,E1936800180201,真浄寺,山梨県富士川町天神中條441,,1,,1,,,,,,35.567173,138.455801,
919,E1936800181201,第１保育所,山梨県富士川町天神中條646,,1,,1,,,,,,35.570023,138.457078,
920,E1936800182201,県営天神天神団地,山梨県富士川町天神中條727-2,,1,,1,,,,,,35.567204,138.458313,
921,E1936800183201,天神中條地区公民館,山梨県富士川町天神中條766-1,,1,,1,,,,,,35.56538,138.456895,
922,E1936800089201,ますほ文化ホール,山梨県富士川町天神中條820-1,,1,,1,,,,,1,35.566574,138.459747,
923,E1936800184201,増穂中学校,山梨県富士川町天神中條991-1,,1,,1,,,,,,35.564266,138.462357,
924,E1936800185201,箱原道祖神,山梨県富士川町箱原29,,,,1,,,,,,35.513317,138.453814,
925,E1936800071201,箱原集会所,山梨県富士川町箱原405,,,,1,,,,,1,35.514156,138.453496,
926,E1936800186201,天神社,山梨県富士川町箱原768-2,,,,1,,,,,,35.510522,138.457778,
927,E1936800187201,和平広場,山梨県富士川町箱原872,,,,1,,,,,,35.510418,138.456083,
928,E1936800188201,栃窪道祖神,山梨県富士川町平林,,,,1,,,,,,35.571636,138.372437,
929,E1936800189201,平林郵便局,山梨県富士川町平林1060-6,,1,,1,,,,,,35.580333,138.411038,
930,E1936800090201,農業体験宿泊施設,山梨県富士川町平林1124-1,,1,,1,,,,,1,35.580616,138.409503,
931,E1936800190201,平林防火水槽,山梨県富士川町平林1321,,,,1,,,,,,35.582135,138.406816,
932,E1936800191201,上久保道祖神,山梨県富士川町平林1945,,,,1,,,,,,35.580163,138.407143,
933,E1936800192201,徳林寺,山梨県富士川町平林1990,,1,,1,,,,,,35.580054,138.405233,
934,E1936800194201,新梨バス停,山梨県富士川町平林218,,,,1,,,,,,35.579827,138.415345,
935,E1936800193201,久保平入り口,山梨県富士川町平林2189,,,,1,,,,,,35.5821,138.403699,
936,E1936800195201,平林ヘリポート,山梨県富士川町平林2332,,1,,1,,,,,,35.577357,138.407349,
937,E1936800091201,みさき耕舎,山梨県富士川町平林2335-1,,1,,1,,,,,1,35.577868,138.407948,
938,E1936800196201,岩下バス停,山梨県富士川町平林236,,,,1,,,,,,35.580525,138.416305,
939,E1936800197201,椿畑道祖神,山梨県富士川町平林2493,,,,1,,,,,,35.574547,138.408581,
940,E1936800198201,前田新井集会所,山梨県富士川町平林617,,,,1,,,,,,35.580176,138.413146,
941,E1936800074201,旧五開小学校,山梨県富士川町柳川1134-10,,,,1,,,,,1,35.506127,138.424508,
942,E1936800199201,鈴鹿神社,山梨県富士川町柳川1390,,,,1,,,,,,35.503828,138.424298,
943,E1936800200201,熊野神社,山梨県富士川町舂米1,,,,1,,,,,,35.573086,138.447998,
944,E1936800201201,腰巻組集会所,山梨県富士川町舂米106,,,,1,,,,,,35.574618,138.4491,
945,E1936800202201,宝林寺,山梨県富士川町舂米1341,,,,1,,,,,,35.571573,138.445973,
946,E1936800203201,舂米駐在所,山梨県富士川町舂米1539-1,,,,1,,,,,,35.569482,138.446727,
947,E1936800204201,中村組道祖神,山梨県富士川町舂米1627,,,,1,,,,,,35.571297,138.447446,
948,E1936800205201,芝生広場,山梨県富士川町舂米2007-1,,,,1,,,,,,35.56798,138.443681,
949,E1936800206201,川久保道祖神,山梨県富士川町舂米2396,,,,1,,,,,,35.567446,138.441282,
950,E1936800207201,ちびっこ広場,山梨県富士川町舂米2715,,,,1,,,,,,35.5698,138.441738,
951,E1936800208201,上平組集会所,山梨県富士川町舂米658,,,,1,,,,,,35.576646,138.447028,
952,E1920900001201,（旧）高根清里小学校,山梨県北杜市高根町清里3545-2083,1,1,,1,,1,,,1,35.905511,138.444462,
953,E1920900001202,（旧）高根清里小学校校庭,山梨県北杜市高根町清里3545-2083,1,1,,1,,1,,,1,35.905255,138.44511,
954,E1920900050201,北杜市高根清里スポーツ広場,山梨県北杜市高根町浅川267,1,1,,1,,1,,,,35.895569,138.447376,
955,E1920900002201,高根西小学校,山梨県北杜市高根町村山西割1696,1,1,,1,,1,,,1,35.823459,138.405741,
956,E1920900002202,高根西小学校校庭,山梨県北杜市高根町村山西割1696,1,1,,1,,1,,,1,35.822905,138.40511,
957,E1920900003202,高根中学校校庭,山梨県北杜市高根町村山東割98,1,1,,1,,1,,,1,35.833145,138.411357,
958,E1920900003201,高根中学校,山梨県北杜市高根町村山東割98,1,1,,1,,1,,,1,35.834085,138.410825,
959,E1920900004203,北杜市高根テニスコート,山梨県北杜市高根町村山北割100,1,1,,1,,1,,,1,35.841567,138.426055,
960,E1920900004201,北杜市高根ゲートボール場,山梨県北杜市高根町村山北割100,1,1,,1,,1,,,1,35.84113,138.427511,
961,E1920900004202,北杜市高根総合グラウンド,山梨県北杜市高根町村山北割100,1,1,,1,,1,,,1,35.841769,138.426831,
962,E1920900005202,高根東小学校校庭,山梨県北杜市高根町村山北割1035,1,1,,1,,1,,,1,35.83523,138.421701,
963,E1920900005201,高根東小学校,山梨県北杜市高根町村山北割1035,1,1,,1,,1,,,1,35.835841,138.422075,
964,E1920900006201,北杜市高根体育館,山梨県北杜市高根町村山北割111,1,1,,1,,1,,,1,35.843202,138.428055,
965,E1920900052201,高根総合支所,山梨県北杜市高根町村山北割3261,1,1,,,,,,,,35.837498,138.4135,
966,E1920900051201,高根農村環境改善センター,山梨県北杜市高根町村山北割3288,1,1,,,,,,,,35.83752,138.411594,
967,E1920900007201,（旧）高根北小学校,山梨県北杜市高根町長澤2141,1,1,,1,,1,,,1,35.868245,138.423532,
968,E1920900007202,（旧）高根北小学校校庭,山梨県北杜市高根町長澤2141,1,1,,1,,1,,,1,35.867995,138.423826,
969,E1920900010201,小淵沢総合スポーツセンター体育館,山梨県北杜市小淵沢町2161,1,1,,1,,1,,,1,35.863761,138.308682,
970,E1920900010202,小淵沢総合スポーツセンターグラウンド,山梨県北杜市小淵沢町2161,1,1,,1,,1,,,1,35.8631,138.308284,
971,E1920900012201,小淵沢中学校,山梨県北杜市小淵沢町732,1,1,,1,,1,,,1,35.867013,138.320851,
972,E1920900012202,小淵沢中学校校庭,山梨県北杜市小淵沢町732,1,1,,1,,1,,,1,35.866159,138.321304,
973,E1920900055201,小淵沢総合支所,山梨県北杜市小淵沢町7711,1,1,,,,,,,,35.858142,138.317423,
974,E1920900013201,小淵沢小学校,山梨県北杜市小淵沢町7741,1,1,,1,,1,,,1,35.85689,138.31646,
975,E1920900013202,小淵沢小学校校庭,山梨県北杜市小淵沢町7741,1,1,,1,,1,,,1,35.856257,138.316997,
976,E1920900014201,小淵沢東スポーツセンター体育館,山梨県北杜市小淵沢町上笹尾1240,1,1,,1,,1,,,1,35.847948,138.329322,
977,E1920900014202,小淵沢東スポーツセンターグラウンド,山梨県北杜市小淵沢町上笹尾1240,1,1,,1,,1,,,1,35.846757,138.328527,
978,E1920900015201,須玉小学校,山梨県北杜市須玉町若神子200-2,1,1,,1,,1,,,1,35.794427,138.425816,
979,E1920900015202,須玉小学校校庭,山梨県北杜市須玉町若神子200-2,1,1,,1,,1,,,1,35.793813,138.424995,
980,E1920900048201,須玉総合支所,山梨県北杜市須玉町若神子2155,1,1,,,,,,,,35.79167,138.421681,
981,E1920900047201,北杜市須玉のろしの里ふれあい広場,山梨県北杜市須玉町若神子395,1,1,,1,,1,,,,35.795847,138.427956,
982,E1920900016202,須玉中学校校庭,山梨県北杜市須玉町小倉200,1,1,,1,,1,,,1,35.797081,138.432241,
983,E1920900016201,須玉中学校,山梨県北杜市須玉町小倉200,1,1,,1,,1,,,1,35.79762,138.433084,
984,E1920900017202,北杜市須玉穂足スポーツ公園,山梨県北杜市須玉町大蔵734,1,1,,1,,1,,,1,35.780637,138.423836,
985,E1920900017201,北杜市須玉総合体育館,山梨県北杜市須玉町大蔵734,1,1,,1,,1,,,1,35.780737,138.424573,
986,E1920900019201,（旧）増富小学校,山梨県北杜市須玉町比志3611-6,1,1,,1,,1,,,1,35.855279,138.502078,
987,E1920900019202,（旧）増富小学校校庭,山梨県北杜市須玉町比志3611-6,1,1,,1,,1,,,1,35.855705,138.502489,
988,E1920900049201,増富出張所,山梨県北杜市須玉町比志3621-30,1,1,,,,,,,,35.856031,138.501273,
989,E1920900054201,大泉総合支所,山梨県北杜市大泉町西井出3164-1,1,1,,,,,,,,35.860913,138.389127,
990,E1920900021201,大泉体育館,山梨県北杜市大泉町谷戸1915,1,1,,1,,1,,,1,35.858203,138.378797,
991,E1920900022202,泉中学校校庭,山梨県北杜市大泉町谷戸2087,1,1,,1,,1,,,1,35.85944,138.380925,
992,E1920900022201,泉中学校,山梨県北杜市大泉町谷戸2087,1,1,,1,,1,,,1,35.859959,138.381541,
993,E1920900023202,泉小学校校庭,山梨県北杜市大泉町谷戸2870,1,1,,1,,1,,,1,35.859385,138.388914,
994,E1920900023201,泉小学校,山梨県北杜市大泉町谷戸2870,1,1,,1,,1,,,1,35.860126,138.389058,
995,E1920900024201,（旧）秋田小学校校庭,山梨県北杜市長坂町大八田3677,1,1,,1,,1,,,,35.83488,138.383071,
996,E1920900025205,長坂総合スポーツ公園陸上競技場,山梨県北杜市長坂町大八田6811-187,1,1,,1,,1,,,1,35.843295,138.370016,
997,E1920900025204,長坂総合スポーツ公園野球場,山梨県北杜市長坂町大八田6811-187,1,1,,1,,1,,,1,35.84046,138.370697,
998,E1920900025203,長坂総合スポーツ公園柔剣道場,山梨県北杜市長坂町大八田6811-187,1,1,,1,,1,,,1,35.841714,138.37007,
999,E1920900025202,長坂総合スポーツ公園屋内ゲートボール場,山梨県北杜市長坂町大八田6811-187,1,1,,1,,1,,,1,35.843852,138.368462,
1000,E1920900025201,長坂総合スポーツ公園体育館,山梨県北杜市長坂町大八田6811-187,1,1,,1,,1,,,1,35.841273,138.370152,
1001,E1920900026201,北杜市郷土資料館,山梨県北杜市長坂町中丸1996-2,1,1,,1,,1,,,1,35.821621,138.354794,
1002,E1920900027201,（旧）日野春小学校,山梨県北杜市長坂町長坂下条1237-3,1,1,,1,,1,,,1,35.807834,138.379629,
1003,E1920900027202,（旧）日野春小学校校庭,山梨県北杜市長坂町長坂下条1237-3,1,1,,1,,1,,,1,35.807394,138.379857,
1004,E1920900028201,長坂小学校,山梨県北杜市長坂町長坂上条1603-1,1,1,,1,,1,,,1,35.824964,138.373111,
1005,E1920900028202,長坂小学校校庭,山梨県北杜市長坂町長坂上条1603-1,1,1,,1,,1,,,1,35.824138,138.373873,
1006,E1920900029202,長坂中学校校庭,山梨県北杜市長坂町長坂上条1608,1,1,,1,,1,,,1,35.82367,138.375365,
1007,E1920900029201,長坂中学校,山梨県北杜市長坂町長坂上条1608,1,1,,1,,1,,,1,35.824753,138.375662,
1008,E1920900030201,甲陵中・高等学校,山梨県北杜市長坂町長坂上条2003,1,1,,1,,1,,,1,35.825149,138.378675,
1009,E1920900030202,甲陵中・高等学校校庭,山梨県北杜市長坂町長坂上条2003,1,1,,1,,1,,,1,35.825419,138.379461,
1010,E1920900053201,長坂総合支所,山梨県北杜市長坂町長坂上条2575-19,1,1,,,,,,,,35.826121,138.366361,
1011,E1920900032202,（旧）小泉小学校校庭,山梨県北杜市長坂町白井沢4078,1,1,,1,,1,,,1,35.864691,138.359658,
1012,E1920900032201,（旧）小泉小学校,山梨県北杜市長坂町白井沢4078,1,1,,1,,1,,,1,35.865387,138.359454,
1013,E1920900033201,白州体育館,山梨県北杜市白州町鳥原2913-208,,,,1,,1,,,1,35.826643,138.310417,
1014,E1920900034201,白州中学校,山梨県北杜市白州町白須1920,1,1,,1,,1,,,1,35.806163,138.322642,
1015,E1920900034202,白州中学校校庭,山梨県北杜市白州町白須1920,1,1,,1,,1,,,1,35.806594,138.324309,
1016,E1920900035201,白州小学校,山梨県北杜市白州町白須225,1,1,,1,,1,,,1,35.811314,138.33537,
1017,E1920900035202,白州小学校校庭,山梨県北杜市白州町白須225,1,1,,1,,1,,,1,35.810411,138.335195,
1018,E1920900057201,白州総合会館,山梨県北杜市白州町白須288-1,1,1,,1,,1,,,,35.808726,138.336663,
1019,E1920900058201,白州総合支所,山梨県北杜市白州町白須312,1,1,,,,,,,,35.807832,138.335654,
1020,E1920900056201,北杜市白州総合運動場,山梨県北杜市白州町白須7458-2,,,,1,,1,,,,35.827348,138.313767,
1021,E1920900036201,武川体育館,山梨県北杜市武川町三吹2218,,,,1,,1,,,1,35.785665,138.373569,
1022,E1920900036202,北杜市武川運動公園,山梨県北杜市武川町三吹2218,1,1,,1,,1,,,1,35.775416,138.380538,
1023,E1920900037202,武川中学校校庭,山梨県北杜市武川町山高1457,,,,1,,1,,,1,35.784196,138.373254,
1024,E1920900037201,武川中学校,山梨県北杜市武川町山高1457,,,,1,,1,,,1,35.784862,138.373736,
1025,E1920900038201,甲斐駒センターせせらぎ,山梨県北杜市武川町牧原1243,,,,1,,1,,,1,35.784016,138.375217,
1026,E1920900059201,武川総合支所,山梨県北杜市武川町牧原1457-3,1,1,,,,,,,,35.785054,138.375656,
1027,E1920900040201,武川小学校,山梨県北杜市武川町牧原944,1,1,,1,,1,,,1,35.783424,138.381348,
1028,E1920900040202,武川小学校校庭,山梨県北杜市武川町牧原944,1,1,,1,,1,,,1,35.782739,138.381328,
1029,E1920900046201,明野総合支所,山梨県北杜市明野町上手5219-1,1,1,,,,,,,,35.769282,138.440929,
1030,E1920900045201,北杜市明野テニスコート,山梨県北杜市明野町上手8303,1,1,,1,,1,,,,35.769556,138.443015,
1031,E1920900041201,明野多目的屋内運動場,山梨県北杜市明野町上手8304,1,1,,1,,1,,,1,35.769406,138.44261,
1032,E1920900042201,明野中学校,山梨県北杜市明野町上手8342,1,1,,1,,1,,,1,35.770868,138.443641,
1033,E1920900042202,明野中学校校庭,山梨県北杜市明野町上手8342,1,1,,1,,1,,,1,35.770761,138.442707,
1034,E1920900043202,明野小学校,山梨県北杜市明野町上手8418,1,1,,1,,1,,,1,35.771173,138.44538,
1035,E1920900043201,明野小学校グラウンド,山梨県北杜市明野町上手8418,1,1,,1,,1,,,1,35.77082,138.444936,
1036,E1942900001201,京王２次別荘テニスコート,山梨県鳴沢村10442-753,,,,1,,1,,,,35.454323,138.710067,
1037,E1942900002201,京王１次別荘テニスコート,山梨県鳴沢村10443-744,,1,,1,,1,,,,35.456567,138.740257,
1038,E1942900003201,丸紅別荘地公園,山梨県鳴沢村10445-246,,1,,1,,1,,,,35.45997,138.72962,
1039,E1942900004201,わんぱく広場,山梨県鳴沢村11264-153,,1,,1,,1,,,,35.470647,138.678899,
1040,E1942900009201,鳴沢小学校グラウンド,山梨県鳴沢村1585-1,,1,,1,,1,,,1,35.48167,138.707355,
1041,E1942900010201,大田和さくらの里公園,山梨県鳴沢村3021,,,,1,,1,,,,35.489393,138.725173,
1042,E1942900015201,鳴沢スポーツ広場,山梨県鳴沢村8531-45,,,,1,,,,,,35.477741,138.696724,
1043,E1942900018201,道の駅なるさわ,山梨県鳴沢村8532-63,,,,1,,,,,,35.473825,138.687944,
1044,E1942900020201,富士観光第３次別荘テニスコート,山梨県鳴沢村8545-7,,,,1,,1,,,,35.449983,138.73673,
