NO,共通ID,施設・場所名,住所,指定緊急避難場所との住所同一,その他市町村長が必要と認める事項,受入対象者,緯度,経度,備考
1,E2323700001111,下萱津コミュニティ防災センター,愛知県あま市下萱津山伏8,1,,,35.1815599691113,136.839417843792,
2,E2323700002111,美和文化会館,愛知県あま市花正地先1-1,1,,,35.2040936710161,136.784491247134,
3,E2323700003111,美和保健センター,愛知県あま市花正中之割2,1,,,35.2012907095822,136.784281126653,
4,E2323700004111,坂牧コミュニティ防災センター,愛知県あま市坂牧阿原25,1,,,35.1829275454957,136.830237082924,
5,E2323700005111,七宝公民館,愛知県あま市七宝町安松小新田2337,1,,,35.1713974508964,136.796789833682,
6,E2323700006111,伊福小学校,愛知県あま市七宝町伊福河原28,1,,,35.156633553814,136.79395880865,
7,E2323700007111,七宝総合体育館,愛知県あま市七宝町伊福宮東3-1,1,,,35.1606297837035,136.797098342379,
8,E2323700008111,七宝焼アートヴィレッジ,愛知県あま市七宝町遠島十三割2000,1,,,35.1836727708388,136.799225890504,
9,E2323700009111,七宝北中学校,愛知県あま市七宝町遠島十坪117,1,,,35.1856414257812,136.799288885537,
10,E2323700010111,宝小学校,愛知県あま市七宝町遠島大切戸1296,1,,,35.1830057881793,136.806584152307,
11,E2323700011111,七宝小学校,愛知県あま市七宝町桂角田1777,1,,,35.1711214849987,136.797692732566,
12,E2323700012111,七宝保健センター,愛知県あま市七宝町桂弥勒28,1,,,35.1649633884115,136.795808320479,
13,E2323700013111,秋竹小学校,愛知県あま市七宝町秋竹中道358,1,,,35.1758504490305,136.803648572206,
14,E2323700014111,七宝中学校,愛知県あま市七宝町川部山王4,1,,,35.1712837204123,136.795384187735,
15,E2323700016111,篠田防災コミュニティセンター,愛知県あま市篠田3-51,1,,,35.1870578179067,136.777548784431,
16,E2323700048113,愛知県立美和高等学校　武道場,愛知県あま市篠田五ツ藤1,,,,35.182737,136.794598,
17,E2323700048111,愛知県立美和高等学校　体育館,愛知県あま市篠田五ツ藤1,,,,35.182736,136.794577,
18,E2323700017111,篠田小学校,愛知県あま市篠田十王堂59,1,,,35.1869026522092,136.781548825689,
19,E2323700018111,上萱津コミュニティ防災センター,愛知県あま市上萱津上野87,1,,,35.1921358740463,136.839391210792,
20,E2323700019111,新居屋防災センター,愛知県あま市新居屋江上田14-28,1,,,35.1923842324128,136.809095767129,
21,E2323700020111,甚目寺西小学校,愛知県あま市新居屋三反通11,1,,,35.1980809575085,136.815319092676,
22,E2323700021111,甚目寺西児童館（新居屋憩の家）,愛知県あま市新居屋東高田58,1,,,35.1976978854054,136.811652813581,
23,E2323700022111,甚目寺北児童館（森憩の家）,愛知県あま市森2-6-2,1,,,35.2094513017039,136.813591299694,
24,E2323700025111,甚目寺小学校,愛知県あま市甚目寺寺西40,1,,,35.1952717953857,136.821595718611,
25,E2323700026111,甚目寺南防災センター,愛知県あま市甚目寺須原20,1,,,35.1887749369794,136.818690352986,
26,E2323700027111,甚目寺会館,愛知県あま市甚目寺東大門8,1,,,35.1933972913392,136.823418421873,
27,E2323700028111,甚目寺公民館,愛知県あま市甚目寺二伴田65,1,,,35.2000267213677,136.822248841487,
28,E2323700029111,甚目寺中学校,愛知県あま市甚目寺二伴田76,1,,,35.1999443549631,136.820452649872,
29,E2323300001111,県立五条高校,愛知県あま市西今宿阿弥陀寺56,1,,,35.2037178766733,136.824401603347,
30,E2323700030111,甚目寺総合福祉会館,愛知県あま市西今宿馬洗46,1,,,35.2003018609737,136.826771041494,
31,E2323700031111,甚目寺総合体育館,愛知県あま市西今宿馬洗56,1,,,35.1990642777628,136.827018285304,
32,E2323700032111,甚目寺老人福祉センター,愛知県あま市西今宿平割二25,1,,,35.2030091418592,136.834251419935,
33,E2323700033111,人権ふれあいセンター,愛知県あま市西今宿平割二32,1,,,35.2036446120978,136.833731806913,
34,E2323700034111,甚目寺東小学校,愛知県あま市西今宿六反割60-1,1,,,35.2026844387273,136.824719226943,
35,E2323700035111,甚目寺南小学校,愛知県あま市中萱津西ノ川40,1,,,35.1882581271279,136.83079019079,
36,E2323700036111,コミュニティプラザ萱津,愛知県あま市中萱津法慶寺24,1,,,35.1884460326492,136.843527777872,
37,E2323700038111,正則小学校,愛知県あま市二ツ寺三本松46,1,,,35.2064349256343,136.798782647289,
38,E2323700041111,甚目寺南児童館（本郷憩の家）,愛知県あま市本郷柿ノ木92,1,,,35.1860204826063,136.828329374943,
39,E2323700042111,甚目寺南中学校,愛知県あま市本郷八尻6,1,,,35.1894288117362,136.828566595306,
40,E2323700043111,美和東小学校,愛知県あま市木折寺田1-3,1,,,35.1909908312729,136.796729356115,
41,E2323700044111,美和児童館,愛知県あま市木田五反田124-1,1,,,35.1904130031966,136.787756598614,
42,E2323700045111,美和小学校,愛知県あま市木田小島55,1,,,35.1977801760392,136.782291963403,
43,E2323700046111,美和中学校,愛知県あま市木田丁子ノ口1,1,,,35.1978942221908,136.788447498127,
44,E2323700047111,美和情報ふれあいセンター,愛知県あま市木田丁子ノ口6-1,1,,,35.1979425697272,136.786998821531,
45,E2323600002111,おかよし交流センター,愛知県みよし市ひばりケ丘2-1-1,1,,,35.1181373787267,137.114311639871,
46,E2323600006111,黒笹小学校,愛知県みよし市黒笹いずみ3-26-1,,,,35.12992285304,137.0965383707,
47,E2323600010111,北部小学校,愛知県みよし市根浦町3-9-47,1,,,35.10936518,137.0963389,
48,E2323600011111,三好丘中学校,愛知県みよし市三好丘2-14-10,1,,,35.126677177292,137.11747207081,
49,E2323600012111,三好丘小学校,愛知県みよし市三好丘7-1,1,,,35.119886188046,137.11215097844,
50,E2323600015111,北中学校,愛知県みよし市三好丘桜1-1-1,1,,,35.112780226952,137.10804511896,
51,E2323600018111,緑丘小学校,愛知県みよし市三好丘緑1-1-1,1,,,35.110992947925,137.11659538959,
52,E2323600022111,中部小学校,愛知県みよし市三好町宮ノ越31,1,,,35.085911323321,137.0735278378,
53,E2323600024111,三好中学校,愛知県みよし市三好町宮ノ越42,1,,,35.086483986053,137.0710983959,
54,E2323600028122,社会福祉法人あさみどりの風生活介護事業所わらび,愛知県みよし市三好町西荒田28,,,知的障がい者,35.0790957346835,137.055593554744,
55,E2323600028121,社会福祉法人あさみどりの風共同生活援助事業所わらび,愛知県みよし市三好町西荒田28,,,知的障がい者,35.0788762332779,137.055706207523,
56,E2323600029111,カネヨシプレイス,愛知県みよし市三好町大慈山1-1,1,,,35.08166721308,137.08041179222,
57,E2323600032111,三好公園総合体育館,愛知県みよし市三好町池ノ原1,,,,35.091336303717,137.08881783484,
58,E2323600038111,天王小学校,愛知県みよし市三好町天王51-75,,,,35.089944418959,137.08571935479,
59,E2323600039111,県立三好高等学校　体育館・武道場・校舎（北館）,愛知県みよし市三好町東山110-1,1,,,35.083295359409,137.0872146734,
60,E2323600044111,三吉小学校,愛知県みよし市三好町半野木1-27,1,,,35.081495087286,137.06320009767,
61,E2323600055111,南中学校,愛知県みよし市打越町三百目3,1,,,35.07659093246,137.08968989001,
62,E2323600056121,三好特別支援学校,愛知県みよし市打越町山ノ神1-2,,,障がい者,35.0830794134579,137.10237590521,
63,E2323600059121,社会福祉法人あゆみ会しおみの丘,愛知県みよし市打越町新池浦83-7,,,知的障がい者,35.0959713673182,137.107541621931,
64,E2323600064121,三好老人保健施設,愛知県みよし市福谷町下り松42-1,,,高齢者,35.1300567407665,137.11061616493,
65,E2323600071121,社会福祉法人あゆみ会さくらの丘,愛知県みよし市福田町清水45,,,知的障がい者,35.0729726517839,137.049067047923,
66,E2323600078111,南部小学校,愛知県みよし市明知町上細口27,1,,,35.07017975479,137.08914858803,
67,E2323600087121,特定非営利活動法人いきもの語り,愛知県みよし市莇生町あざみ24-1,,,,35.105985,137.103788,
68,E2323600086121,社会福祉法人あゆみ会おひさまハウス一号館,愛知県みよし市莇生町藤塚83,,,知的障がい者,35.096767,137.106605,
69,E2323600086122,社会福祉法人あゆみ会おひさまハウス二号館,愛知県みよし市莇生町藤塚83,,,,35.096672,137.10678,
70,E2344100001111,図書館,愛知県阿久比町卯坂字栗之木谷32-4,,,,34.939457654913,136.91351499074,
71,E2344100002111,卯之山児童館,愛知県阿久比町卯坂字神田2-1,,,,34.93655920507,136.91437514458,
72,E2344100003111,ほくぶ幼稚園,愛知県阿久比町卯坂字西谷63,,,,34.938354332092,136.91080820909,
73,E2344100004111,英比保育園,愛知県阿久比町卯坂字大平18,,,,34.942114666844,136.9182444807,
74,E2344100005111,アグピアホール,愛知県阿久比町卯坂字殿越50,,,,34.932568348943,136.91519959093,
75,E2344100005112,中央公民館,愛知県阿久比町卯坂字殿越50,,,,34.933361417081,136.91512631312,
76,E2344100006111,坂部公民館,愛知県阿久比町卯坂字八神52,,,,34.941744685956,136.91253579505,
77,E2344100007111,阿久比中学校,愛知県阿久比町卯坂字半田ケ峯1,,,,34.933171094305,136.91316644471,
78,E2344100008111,英比小学校,愛知県阿久比町卯坂字北大平7,,,,34.943595332443,136.91911533229,
79,E2344100011111,東部小学校,愛知県阿久比町宮津字宮平柴15,,,,34.924563469339,136.92734588607,
80,E2344100012111,宮津公民館,愛知県阿久比町宮津字二子東16,,,,34.929944498126,136.92476288655,
81,E2344100013111,大古根公民館,愛知県阿久比町植大字柿崎9-1,,,,34.91825051491,136.92062515899,
82,E2344100014111,植公民館,愛知県阿久比町植大字寒行坊37,,,,34.916900089155,136.91740114451,
83,E2344100015111,南部小学校,愛知県阿久比町植大字北後24,,,,34.918923507075,136.91790539906,
84,E2344100016111,草木小学校,愛知県阿久比町草木字中郷77,,,,34.948587692543,136.89397364938,
85,E2344100017111,草木老人憩の家,愛知県阿久比町草木字平井堀35-1,,,,34.948152418067,136.89914055301,
86,E2344100018111,草木保育園,愛知県阿久比町草木字平井林1-3,,,,34.944650647402,136.89613142811,
87,E2344100019111,草木公民館,愛知県阿久比町草木字堀田25-1,,,,34.948051422821,136.89865926682,
88,E2344100061111,愛知県立阿久比高等学校,愛知県阿久比町大字阿久比,,,,34.93035,136.905294,
89,E2344100025111,阿久比スポーツ村交流センター,愛知県阿久比町大字卯坂字浅間裏3-2,1,,,34.939194,136.909611,
90,E2344100049111,白沢区民館,愛知県阿久比町白沢字天神前54-2,,,,34.953374490764,136.91382750559,
91,E2344100050111,ふれあいの森,愛知県阿久比町板山字比沙田78,,,,34.940040832867,136.92890229134,
92,E2344100051111,板山公民館,愛知県阿久比町板山字本郷75-1,,,,34.945371597939,136.93113177887,
93,E2344100052111,高根台集会所,愛知県阿久比町福住字高根台70,,,,34.955469291662,136.92411275808,
94,E2344100053111,勤労福祉センター,愛知県阿久比町椋岡字丸山14-1,,,,34.925722273868,136.91702949579,
95,E2344100054111,中部公民館,愛知県阿久比町椋岡字南畑9-1,,,,34.925575148205,136.91929551255,
96,E2344100055111,宮津保育園,愛知県阿久比町陽なたの丘1-9,,,,34.935877620616,136.92772511491,
97,E2344100056111,陽なたの丘集会所,愛知県阿久比町陽なたの丘2-104,,,,34.937566221229,136.93197307969,
98,E2323200001111,文化会館,愛知県愛西市稲葉町米野303,1,,,35.1522810782678,136.728553373275,
99,E2323200002111,永和地区防災コミュニティセンター,愛知県愛西市鰯江町郷裏147,1,,,35.1284614275384,136.762405202161,
100,E2323200003111,開治小学校,愛知県愛西市鵜多須町中道248,1,,,35.2225857228122,136.707996046111,
101,E2323200006111,八開総合福祉センター,愛知県愛西市江西町宮西38,1,,,35.2193010519613,136.692888094188,
102,E2323200007111,八開中学校,愛知県愛西市江西町川原11,1,,,35.2199527421581,136.699527990084,
103,E2323200009111,八開地区コミュニティセンター,愛知県愛西市江西町大縄場155-1,1,,,35.2191546212815,136.697178052987,
104,E2323200010111,立田南部小学校,愛知県愛西市山路町小割7,1,,,35.1524438063948,136.696457269309,
105,E2323200012111,藤浪地域防災コミュニティセンター,愛知県愛西市持中町郷前29,1,,,35.1852839752811,136.741247409431,
106,E2323200013111,清林館高校,愛知県愛西市持中町八町88,1,,,35.1830306452587,136.739893980334,
107,E2323200014111,勝幡地域防災コミュニティセンター,愛知県愛西市勝幡町駅東26-1,1,,,35.1985051554517,136.753220752612,
108,E2323200015111,勝幡小学校,愛知県愛西市勝幡町五俵入2227,1,,,35.1963896522227,136.750203462876,
109,E2323200016111,佐織総合福祉センター,愛知県愛西市小津町観音堂27,1,,,35.1928458487969,136.743174289886,
110,E2323200017111,立田体育館,愛知県愛西市小茂井町松下5,1,,,35.1691954704139,136.693481900668,
111,E2323200018111,立田北部小学校,愛知県愛西市新右ェ門新田町郷前83,,,,35.1889947677374,136.700164144233,
112,E2323200020111,立田南部地区防災コミュニティセンター,愛知県愛西市森川町村仲46-1,1,,,35.1444461860333,136.699413831593,
113,E2323200021111,佐織公民館,愛知県愛西市諏訪町郷西456-1,1,,,35.1925698394949,136.738566062635,
114,E2323200023111,佐織中学校,愛知県愛西市諏訪町郷東167,1,,,35.1919659618828,136.741802781357,
115,E2323200024111,佐織体育館,愛知県愛西市諏訪町郷東75,1,,,35.1926359669134,136.742382184592,
116,E2323200026111,佐屋小学校,愛知県愛西市須依町東田面17,1,,,35.1550843064394,136.727072613762,
117,E2323200027111,佐屋中学校,愛知県愛西市須依町東田面2,1,,,35.1544132564498,136.72590317063,
118,E2323200028111,中央図書館,愛知県愛西市須依町東田面6,1,,,35.1532249353425,136.726315819688,
119,E2323200030111,西川端小学校,愛知県愛西市西川端町寺東15,1,,,35.2147352452386,136.719952974449,
120,E2323200034111,西保地区防災コミュニティセンター,愛知県愛西市西保町北川原23-13,1,,,35.1391299881937,136.707448351295,
121,E2323200037111,立田中学校,愛知県愛西市石田町宮東1,1,,,35.1723603269908,136.694525503852,
122,E2323200040111,永和中学校,愛知県愛西市善太新田町七草平111-1,1,,,35.1328225901734,136.757971483246,
123,E2323200043111,立田北部地区防災コミュニティセンター,愛知県愛西市早尾町野薮11-1,1,,,35.1889948363051,136.699984693242,
124,E2323200044111,佐織西中学校,愛知県愛西市草平町阿原86,1,,,35.2060107588352,136.718986083896,
125,E2323200045111,草平地域防災コミュニティセンター,愛知県愛西市草平町草場77,1,,,35.1980541397956,136.717196601986,
126,E2323200046111,草平小学校,愛知県愛西市草平町北田名57,1,,,35.1996526581978,136.717430536617,
127,E2323200047121,佐屋老人福祉センター,愛知県愛西市大井町浦田面297,1,,高齢者・障害者,35.1454502813659,136.749782120408,
128,E2323200047111,佐屋老人福祉センター,愛知県愛西市大井町浦田面297,1,,,35.1454339361801,136.74963501607,
129,E2323200049111,永和地区公民館,愛知県愛西市大井町前田面215,1,,,35.1374483124772,136.755160002482,
130,E2323200050111,永和小学校,愛知県愛西市大井町弥八115,1,,,35.1334236246755,136.760068970697,
131,E2323200051111,社会福祉法人八開福祉会永和保育園,愛知県愛西市大野町未28,1,,,35.1277116713695,136.763561818896,
132,E2323200054111,町方地域防災コミュニティセンター,愛知県愛西市町方町南堤外72-3,1,,,35.1915742468188,136.730518950385,
133,E2323200056112,佐屋高校（体育館・武道場）,愛知県愛西市東條町高田39,1,,,35.136633,136.732666,
134,E2323200056111,佐屋高校,愛知県愛西市東條町高田39,1,,,35.1372458238488,136.731628945384,
135,E2323200057111,市江地区コミュニティセンター,愛知県愛西市東條町西田面11-1,1,,,35.1395576570686,136.72787179037,
136,E2323200058111,市江小学校,愛知県愛西市東條町西田面77,1,,,35.1371446090204,136.726059259181,
137,E2323200059111,佐屋西小学校,愛知県愛西市内佐屋町河原136,1,,,35.155586748054,136.716448336023,
138,E2323200060111,佐屋北保育園,愛知県愛西市日置町上川田131,1,,,35.1612398694631,136.729567492835,
139,E2323200061111,佐屋中央保育園,愛知県愛西市北一色町昭和113,1,,,35.1505326972971,136.726122071263,
140,E2323200063111,北河田小学校,愛知県愛西市北河田町郷前406,1,,,35.187928139905,136.743193419429,
141,E2323200067111,親水公園総合体育館,愛知県愛西市落合町上通21,1,,,35.1477016268792,136.739246394242,
142,E2323200068111,八輪小学校,愛知県愛西市立石町宮西39,1,,,35.2156597827523,136.690793784123,
143,E2323200071111,愛西工科高校,愛知県愛西市渕高町蔭島1,1,,,35.2179669646927,136.724359956061,
144,E2323200072111,川渕地域防災コミュニティセンター,愛知県愛西市渕高町権左38-2,1,,,35.2146055390419,136.725238483534,
145,E2321200001111,昭林公民館,愛知県安城市安城町広美10-1,1,,,34.944947633572,137.07646679124,
146,E2321200003111,祥南小学校,愛知県安城市安城町庚申11,1,,,34.939064054065,137.08474282927,
147,E2321200005111,安祥公民館,愛知県安城市安城町城堀30,1,,,34.946258877764,137.09829141798,
148,E2321200006111,安城南部小学校,愛知県安城市安城町城堀48,1,,,34.945726487393,137.0953890186,
149,E2321200007121,安祥福祉センター,愛知県安城市安城町多門96,1,,指定一般避難所での共同生活が困難な高齢者又は障害者及びその介助者,34.94328455,137.0927786,
150,E2321200008111,安祥中学校,愛知県安城市安城町天草23,1,,,34.942992338326,137.08888694167,
151,E2321200011111,えのきこども園,愛知県安城市榎前町北榎5-1,1,,,34.934198382429,137.03815585208,
152,E2321200013111,志貴小学校,愛知県安城市柿碕町御用地45,1,,,34.9802080362,137.1156160623,
153,E2321200015111,錦町小学校,愛知県安城市錦町9-39,1,,,34.95283335255,137.08273068198,
154,E2321200017111,ゆたか保育園,愛知県安城市古井町豊日25,1,,,34.935792443903,137.09463947318,
155,E2321200021111,高棚小学校,愛知県安城市高棚町蛭田44,1,,,34.944809221423,137.0276745116,
156,E2321200023111,今池小学校,愛知県安城市今池町2-1-52,1,,,34.982261013865,137.08547428524,
157,E2321200028111,安城北部小学校,愛知県安城市今本町8-9-9,1,,,34.993398186376,137.08627761499,
158,E2321200193121,桜井福祉センター,愛知県安城市桜井町桜西1-2-6,1,,指定一般避難所での共同生活が困難な高齢者又は障害者及びその介助者,34.918679750746,137.08708706126,
159,E2321200038111,桜井公民館,愛知県安城市桜井町大役田1-1,1,,,34.916007015416,137.08980573709,
160,E2321200039111,桜林小学校,愛知県安城市桜井町中狭間35-1,1,,,34.923251225094,137.09669605602,
161,E2321200041111,安城南高等学校,愛知県安城市桜井町門原1,1,,,34.920085138294,137.07425715564,
162,E2321200042111,桜町小学校,愛知県安城市桜町15-5,1,,,34.960711867032,137.08029697395,
163,E2321200043111,文化センター,愛知県安城市桜町17-11,1,,,34.959782811493,137.08103866921,
164,E2321200052111,二本木公民館,愛知県安城市三河安城本町1-13-9,1,,,34.97227532249,137.05598734688,
165,E2321200055111,三ツ川こども園,愛知県安城市寺領町願明85,1,,,34.897292438803,137.08614182736,
166,E2321200059111,作野小学校,愛知県安城市篠目町4-22-1,1,,,34.981725515377,137.07605181415,
167,E2321200063111,作野公民館,愛知県安城市篠目町古林畔26,1,,,34.978331161361,137.07771841427,
168,E2321200064111,梨の里小学校,愛知県安城市篠目町溝川38,1,,,34.975092819534,137.06534905022,
169,E2321200066121,作野福祉センター,愛知県安城市篠目町二タ又27-1,1,,指定一般避難所での共同生活が困難な高齢者又は障害者及びその介助者,34.981821204028,137.06840225982,
170,E2321200067111,篠目中学校,愛知県安城市篠目町竜田151,1,,,34.982771355206,137.0659357112,
171,E2321200077111,桜井小学校,愛知県安城市小川町清水道6-1,1,,,34.907882769843,137.08653394752,
172,E2321200078111,桜井中学校,愛知県安城市小川町的場丘1-1,1,,,34.913022922338,137.0895850582,
173,E2321200181111,城ケ入こども園,愛知県安城市城ヶ入町丸根3,1,,,34.904816095324,137.04977773449,
174,E2321200087111,安城南中学校,愛知県安城市城南町2-7-2,1,,,34.948604464206,137.07661380011,
175,E2321200089111,安城北中学校,愛知県安城市新田町小山西18,1,,,34.970252801191,137.0873836907,
176,E2321200090111,中部公民館,愛知県安城市新田町小山西83,1,,,34.971815373527,137.08674041516,
177,E2321200091111,新田小学校,愛知県安城市新田町新栄100,1,,,34.968895841183,137.09499432184,
178,E2321200092121,中部福祉センター,愛知県安城市新田町新栄84-1,1,,指定一般避難所での共同生活が困難な高齢者又は障害者及びその介助者,34.970374511243,137.09232682322,
179,E2321200093111,安城市体育館,愛知県安城市新田町新定山41-8,1,,,34.971940002707,137.09012558749,
180,E2321200094111,青少年の家,愛知県安城市新田町池田上1,1,,,34.973753690855,137.08801759718,
181,E2321200096111,赤松保育園,愛知県安城市赤松町隅田川55,1,,,34.938079208635,137.06948630407,
182,E2321200098111,安城高等学校,愛知県安城市赤松町大北103,1,,,34.947517368211,137.07008418173,
183,E2321200099121,総合福祉センター,愛知県安城市赤松町大北78-1,1,,指定一般避難所での共同生活が困難な高齢者又は障害者及びその介助者,34.945819862975,137.07239100624,
184,E2321200103111,東部公民館,愛知県安城市大岡町源覚16,1,,,34.960913007971,137.10606365954,
185,E2321200105111,安城東部小学校,愛知県安城市大岡町前畑72-1,1,,,34.957242569131,137.10717456014,
186,E2321200109111,安城市民交流センター,愛知県安城市大東町11-3,1,,,34.96355083333,137.08416653767,
187,E2321200111111,安城中部小学校,愛知県安城市大東町12-8,1,,,34.96552091379,137.08461580539,
188,E2321200116111,安城農林高等学校,愛知県安城市池浦町茶筅木1,1,,,34.968334964566,137.07893705243,
189,E2321200126121,北部福祉センター,愛知県安城市東栄町6-9,1,,指定一般避難所での共同生活が困難な高齢者又は障害者及びその介助者,34.984352998004,137.09757635953,
190,E2321200129111,明祥中学校,愛知県安城市東端町住吉1-12,1,,,34.906433255508,137.02637945284,
191,E2321200131111,明和小学校,愛知県安城市東端町明和66,1,,,34.90378926827,137.02754652867,
192,E2321200140111,みその保育園,愛知県安城市美園町1-29,1,,,34.978287156361,137.04851655162,
193,E2321200147111,安城西部小学校,愛知県安城市福釜町猿町128,1,,,34.94484877451,137.05835509448,
194,E2321200149111,西部公民館,愛知県安城市福釜町釜ケ渕20-1,1,,,34.947203753667,137.04390514806,
195,E2321200150121,西部福祉センター,愛知県安城市福釜町西天12,1,,指定一般避難所での共同生活が困難な高齢者又は障害者及びその介助者,34.947713696536,137.04409449205,
196,E2321200151111,安城西中学校,愛知県安城市福釜町中根43,1,,,34.950038453511,137.04916283219,
197,E2321200153111,安城東高等学校,愛知県安城市北山崎町大土塚10,1,,,34.965396555144,137.10292216159,
198,E2321200156111,三河安城小学校,愛知県安城市箕輪町昭和47,1,,,34.960047219725,137.06438043799,
199,E2321200157111,みのわ保育園,愛知県安城市箕輪町神戸169-3,1,,,34.9590426636,137.05963454766,
200,E2321200163111,北部公民館,愛知県安城市里町4-12-4,1,,,34.992726879663,137.09057919962,
201,E2321200166111,里町小学校,愛知県安城市里町足取1-5,1,,,34.997833467618,137.09783620003,
202,E2321200169111,東山中学校,愛知県安城市里町東山1,1,,,34.994310246512,137.10055196101,
203,E2321200170111,二本木小学校,愛知県安城市緑町1-23-1,1,,,34.972965437044,137.05129236223,
204,E2321200176111,明祥公民館,愛知県安城市和泉町大下38-1,1,,,34.912532462219,137.04425422151,
205,E2321200176121,明祥福祉センター,愛知県安城市和泉町大下38-1,1,,指定一般避難所での共同生活が困難な高齢者又は障害者及びその介助者,34.912391695184,137.04415766199,
206,E2321200178111,丈山小学校,愛知県安城市和泉町南本郷1,1,,,34.918763317734,137.04574253081,
207,E2320300002111,奥小学校,愛知県一宮市奥町字貴船前24,1,,,35.325784838665,136.75806846136,
208,E2320300004111,奥中学校,愛知県一宮市奥町字上平池55,1,,,35.326362969538,136.7640685448,
209,E2320300006111,開明小学校,愛知県一宮市開明字城堀20,1,,,35.321049739308,136.77223551004,
210,E2320300007111,尾西第三中学校,愛知県一宮市開明字村上54,1,,,35.317241458882,136.7581745976,
211,E2320300009111,北部中学校,愛知県一宮市貴船1-6-10,1,,,35.312213992275,136.80722315947,
212,E2320300010111,貴船小学校,愛知県一宮市貴船1-8-46,1,,,35.311698789429,136.81040349013,
213,E2320300011111,起小学校,愛知県一宮市起字西生出35,1,,,35.30617752314,136.74017488306,
214,E2320300014111,葉栗北小学校,愛知県一宮市光明寺字畳手55,1,,,35.351915027023,136.80169166971,
215,E2320300015111,向山小学校,愛知県一宮市向山町3-1,1,,,35.295212355154,136.80715911379,
216,E2320300016111,葉栗中学校,愛知県一宮市高田字清水100,1,,,35.339359251133,136.80490507998,
217,E2320300017111,今伊勢中学校,愛知県一宮市今伊勢町宮後字郷中茶原52,1,,,35.318711916789,136.78630166433,
218,E2320300018111,今伊勢小学校,愛知県一宮市今伊勢町新神戸字乾26,1,,,35.321877917675,136.79258310771,
219,E2320300019111,今伊勢西小学校,愛知県一宮市今伊勢町馬寄字西平4-1,1,,,35.324072456639,136.78256102868,
220,E2320300020111,丹陽小学校,愛知県一宮市三ツ井5-22-1,1,,,35.276556136997,136.83922763903,
221,E2320300022111,三条小学校,愛知県一宮市三条字苅16,1,,,35.306607874878,136.7597037934,
222,E2320300023111,尾西第一中学校,愛知県一宮市三条字宮西50,1,,,35.300098675412,136.75435530558,
223,E2320300024111,西成東小学校,愛知県一宮市春明字中切1,1,,,35.317202387442,136.84364979658,
224,E2320300025111,小信中島小学校,愛知県一宮市小信中島字南平口59,1,,,35.315239329626,136.74685061538,
225,E2320300026111,朝日西小学校,愛知県一宮市上祖父江字高須賀18,1,,,35.279782182918,136.72033899628,
226,E2320300027111,瀬部小学校,愛知県一宮市瀬部字川原55,1,,,35.328791821379,136.83519870808,
227,E2320300028111,大徳小学校,愛知県一宮市西五城字荒子中切26-1,1,,,35.297241312193,136.74721521506,
228,E2320300030111,西成小学校,愛知県一宮市西大海道字障子目30,1,,,35.318380877569,136.83250240441,
229,E2320300031111,西成中学校,愛知県一宮市西大海道字柏木15,1,,,35.319300361842,136.83096693933,
230,E2320300032111,千秋東小学校,愛知県一宮市千秋町加納馬場字松下54,1,,,35.30441216409,136.87118724065,
231,E2320300034111,千秋中学校,愛知県一宮市千秋町佐野字高須2982,1,,,35.301845647517,136.86182375222,
232,E2320300035111,千秋小学校,愛知県一宮市千秋町佐野字北浦136,1,,,35.303886843452,136.85662654866,
233,E2320300036111,千秋南小学校,愛知県一宮市千秋町小山1329,1,,,35.290595601095,136.85026996986,
234,E2320300080111,一宮南高等学校,愛知県一宮市千秋町町屋字平松6-1,,受入対象者は他市町村等から受入れ要請のあった被災者とする。,,35.293003,136.85701,
235,E2320300038111,浅井中学校,愛知県一宮市浅井町前野字郷西145,1,,,35.343775998485,136.82498012765,
236,E2320300039111,浅井中小学校,愛知県一宮市浅井町大日比野字東若栗61,1,,,35.343714402106,136.82335601697,
237,E2320300040111,浅井北小学校,愛知県一宮市浅井町大野字南土山75,1,,,35.349592407705,136.82574359977,
238,E2320300042111,浅井南小学校,愛知県一宮市浅井町東浅井字地蔵386,1,,,35.334561767664,136.82629802446,
239,E2320300043111,南部中学校,愛知県一宮市浅野字土井ノ内1-1,1,,,35.298593378507,136.82607683805,
240,E2320300044111,浅野小学校,愛知県一宮市浅野字野口95,1,,,35.296652108196,136.83033155678,
241,E2320300045111,丹陽西小学校,愛知県一宮市多加木1-17-1,1,,,35.284264996817,136.81399381612,
242,E2320300046111,宮西小学校,愛知県一宮市大宮4-5-33,1,,,35.312458276938,136.80127056844,
243,E2320300047111,大志小学校,愛知県一宮市大志2-7-6,1,,,35.298952046968,136.80507591224,
244,E2320300048111,赤見小学校,愛知県一宮市大赤見字清水2467,1,,,35.308913851975,136.82846569951,
245,E2320300049111,葉栗小学校,愛知県一宮市大毛字南出30,1,,,35.34144506408,136.8069002202,
246,E2320300050111,大和中学校,愛知県一宮市大和町苅安賀字上東出80,1,,,35.288504355144,136.78494330314,
247,E2320300051111,大和西小学校,愛知県一宮市大和町苅安賀字東北出3248,1,,,35.291893235691,136.77891083054,
248,E2320300052111,大和東小学校,愛知県一宮市大和町戸塚字薬師浦320,1,,,35.284367788175,136.79293118156,
249,E2320300053111,大和南小学校,愛知県一宮市大和町戸塚字連田1-2,1,,,35.274760326195,136.790166322,
250,E2320300054111,大和南中学校,愛知県一宮市大和町南高井字蓮原2-1,1,,,35.272695186692,136.78262852573,
251,E2320300055111,丹陽南小学校,愛知県一宮市丹陽町九日市場2666,1,,,35.263976064563,136.83632560002,
252,E2320300056111,丹陽中学校,愛知県一宮市丹陽町三ツ井字鬼ケ島6,1,,,35.282792344498,136.83639172302,
253,E2320300058111,西成東部中学校,愛知県一宮市定水寺字五反田10,1,,,35.311964609288,136.8366673836,
254,E2320300059111,萩原中学校,愛知県一宮市萩原町串作字河室浦1,1,,,35.277102217662,136.76714030053,
255,E2320300079111,一宮西高等学校,愛知県一宮市萩原町串作字河田1,,受入対象者は他市町村等から受入れ要請のあった被災者とする。,,35.279552,136.767303,
256,E2320300061111,中島小学校,愛知県一宮市萩原町西宮重字中光堂850,1,,,35.272816334707,136.77310460825,
257,E2320300062111,萩原小学校,愛知県一宮市萩原町萩原字河原崎1544,1,,,35.28100634859,136.75625832966,
258,E2320300063111,中部中学校,愛知県一宮市八幡4-1-111,1,,,35.306026841612,136.78867050128,
259,E2320300064111,富士小学校,愛知県一宮市富士2-5-14,1,,,35.304213974421,136.81716542362,
260,E2320300067111,神山小学校,愛知県一宮市平和2-12-7,1,,,35.301655868657,136.78883681262,
261,E2320300078111,一宮高等学校,愛知県一宮市北園通6-9,,受入対象者は他市町村等から受入れ要請のあった被災者とする。,,35.295933,136.809673,
262,E2320300068111,北方中学校,愛知県一宮市北方町北方字宮浦42,1,,,35.36030110513,136.78055340309,
263,E2320300069111,北方小学校,愛知県一宮市北方町北方字宮浦43,1,,,35.361535243736,136.78201888746,
264,E2320300070111,末広小学校,愛知県一宮市末広2-20-1,1,,,35.29567971078,136.78807114447,
265,E2320300071111,朝日東小学校,愛知県一宮市明地字江端8,1,,,35.279517552608,136.73628583196,
266,E2320300072111,尾西第二中学校,愛知県一宮市明地字油屋前30,1,,,35.278884846313,136.74288871208,
267,E2320300073111,木曽川西小学校,愛知県一宮市木曽川町玉ノ井字道路寺7-3,1,,,35.340202884336,136.76431894722,
268,E2320300074111,黒田小学校,愛知県一宮市木曽川町黒田字古城26-2,1,,,35.344553372128,136.78032243153,
269,E2320300076111,木曽川東小学校,愛知県一宮市木曽川町黒田八ノ通り141-1,1,,,35.341648258181,136.78934302784,
270,E2320300077111,木曽川中学校,愛知県一宮市木曽川町里小牧字北青木25,1,,,35.343265381861,136.76833369444,
271,E2322000005111,片原一色小学校,愛知県稲沢市一色中屋敷町64,1,,,35.244159,136.74685,
272,E2322000006111,稲沢西中学校,愛知県稲沢市稲沢町前田365-10,1,,,35.246685,136.791226,
273,E2322000007111,稲沢北小学校,愛知県稲沢市稲島3-58,1,,,35.262744,136.788407,
274,E2322000011111,稲沢西小学校,愛知県稲沢市稲葉5-9-1,1,,,35.25128,136.788631,
275,E2322000014111,大里西小学校,愛知県稲沢市奥田計用町107,1,,,35.225252,136.80742,
276,E2322000015111,大里中学校,愛知県稲沢市奥田寺切町69,1,,,35.229612,136.812254,
277,E2322000018111,下津小学校,愛知県稲沢市下津ふじ塚町83,1,,,35.261538,136.828505,
278,E2322000023111,髙御堂小学校,愛知県稲沢市高御堂10-3-1,1,,,35.245495,136.798633,
279,E2322000027111,坂田小学校,愛知県稲沢市坂田町狐沢18,1,,,35.212397,136.762943,
280,E2322000030111,治郎丸中学校,愛知県稲沢市治郎丸柳町1-1,1,,,35.264837,136.812405,
281,E2322000032111,小正小学校,愛知県稲沢市小池正明寺町東川田4100,1,,,35.246024,136.815635,
282,E2322000034111,稲沢中学校,愛知県稲沢市正明寺2-1-1,1,,,35.251997,136.805936,
283,E2322000035111,名古屋文理大学文化フォーラム　小ホール,愛知県稲沢市正明寺3-114,1,,,35.24532,136.807198,
284,E2322000036111,清水小学校,愛知県稲沢市清水寺前町126,1,,,35.256761,136.757786,
285,E2322000042111,丸甲小学校,愛知県稲沢市祖父江町甲新田芝八5-2,1,,,35.230994,136.727762,
286,E2322000043111,山崎小学校,愛知県稲沢市祖父江町山崎ニ本木70,1,,,35.260668,136.732886,
287,E2322000044111,祖父江町体育館,愛知県稲沢市祖父江町山崎下批486-1,1,,,35.252684,136.724856,
288,E2322000047111,祖父江中学校,愛知県稲沢市祖父江町上牧下川田456,1,,,35.248635,136.721027,
289,E2322000052111,祖父江小学校,愛知県稲沢市祖父江町祖父江七曲52,1,,,35.263943,136.714316,
290,E2322000054111,杏和高等学校,愛知県稲沢市祖父江町二俣宮西1-1,1,,,35.243555,136.725453,
291,E2322000056111,領内小学校,愛知県稲沢市祖父江町二俣上川原706,1,,,35.24451,136.731405,
292,E2322000058111,長岡小学校,愛知県稲沢市祖父江町馬飼449-1,1,,,35.246849,136.69266,
293,E2322000059111,牧川小学校,愛知県稲沢市祖父江町両寺内砂崎990,1,,,35.242299,136.712631,
294,E2322000063111,稲沢東高等学校,愛知県稲沢市大塚南6-33,1,,,35.235351,136.799067,
295,E2322000066111,大塚小学校,愛知県稲沢市大塚北9-68,1,,,35.241639,136.799835,
296,E2322000068112,総合体育館　アリーナ,愛知県稲沢市朝府町5-1,1,,,35.252248,136.775027,
297,E2322000068111,勤労福祉会館　多目的ホール,愛知県稲沢市朝府町5-1,1,,,35.251393,136.775169,
298,E2322000069111,稲沢東小学校,愛知県稲沢市長野6-50,1,,,35.260011,136.815444,
299,E2322000070111,大里東小学校,愛知県稲沢市日下部北町1-27,1,,,35.234978,136.825359,
300,E2322000071111,大里東中学校,愛知県稲沢市日下部北町3-68,1,,,35.233655,136.822749,
301,E2322000074111,千代田小学校,愛知県稲沢市福島町比舎田102,1,,,35.221962,136.775354,
302,E2322000075111,千代田中学校,愛知県稲沢市福島町比舎田17,1,,,35.22215,136.774476,
303,E2322000077111,稲沢緑風館高等学校,愛知県稲沢市平野町加世11,1,,,35.240515,136.786071,
304,E2322000079111,六輪小学校,愛知県稲沢市平和町塩川52,1,,,35.200996,136.734921,
305,E2322000081111,三宅小学校,愛知県稲沢市平和町下三宅北出1,1,,,35.216257,136.752853,
306,E2322000085111,平和町体育館,愛知県稲沢市平和町中三宅二丁割35,1,,,35.216096,136.742331,
307,E2322000086111,平和中学校,愛知県稲沢市平和町平池七反田53,1,,,35.216149,136.740811,
308,E2322000088111,法立小学校,愛知県稲沢市平和町法立東瀬古7,1,,,35.22351,136.738563,
309,E2322000089111,明治中学校,愛知県稲沢市片原一色町小山1,1,,,35.243846,136.754995,
310,E2322000091111,国分小学校,愛知県稲沢市矢合町三島屋敷3440,1,,,35.241061,136.771363,
311,E2320200002111,葵中学校,愛知県岡崎市伊賀新町31-1,1,,,34.97451,137.176078,
312,E2320200003111,愛宕小学校,愛知県岡崎市伊賀町愛宕山1,1,,,34.968247125522,137.1670066635,
313,E2320200004111,井田小学校,愛知県岡崎市井田町茨坪4-3,1,,,34.975088617311,137.17997434303,
314,E2320200005111,六ツ美北中学校,愛知県岡崎市井内町六反2,1,,,34.920092621892,137.14317700546,
315,E2320200006111,梅園小学校,愛知県岡崎市稲熊町4-68-1,1,,,34.962991843616,137.17337962848,
316,E2320200007111,矢作西小学校,愛知県岡崎市宇頭町長合40,1,,,34.973517296022,137.1180910681,
317,E2320200010111,愛知県立岡崎工科高等学校,愛知県岡崎市羽根町陣場47,1,,,34.92614,137.171478,
318,E2320200011111,羽根小学校,愛知県岡崎市羽根町池脇24-2,1,,,34.928128794294,137.16474837594,
319,E2320200012111,愛知県立岡崎商業高等学校,愛知県岡崎市栄町3-76,1,,,34.947929,137.179459,
320,E2320200013111,奥殿小学校,愛知県岡崎市奥殿町仲西73-2,1,,,35.030218319943,137.20095807564,
321,E2320200014111,美合小学校,愛知県岡崎市岡町南石原30,1,,,34.929393188806,137.20302006146,
322,E2320200015111,六ツ美中部小学校,愛知県岡崎市下青野町井戸尻71,1,,,34.910015,137.12267,
323,E2320200016111,六ツ美中学校,愛知県岡崎市下青野町井戸尻72,1,,,34.909550420152,137.1215065098,
324,E2320200120121,社会福祉法人　ユーアンドアイ　特別養護老人ホーム　額田の里,愛知県岡崎市夏山町シモツキテン1-1,,,市と施設間で調整された特定の高齢者,34.95687,137.307823,
325,E2320200018111,夏山小学校,愛知県岡崎市夏山町細田7-1,1,,,34.937132722043,137.30964963958,
326,E2320200020111,額田中学校,愛知県岡崎市樫山町原新田88,1,,,34.920135716977,137.29895914377,
327,E2320200022111,豊富小学校,愛知県岡崎市樫山町西ノ沢3,1,,,34.918201008761,137.29803739031,
328,E2320200023111,大樹寺小学校,愛知県岡崎市鴨田町広元31,1,,,34.983342,137.164607,
329,E2320200025111,河合中学校,愛知県岡崎市茅原沢町上平7,1,,,34.937849,137.241294,
330,E2320200026111,美川中学校,愛知県岡崎市丸山町ハサマ4-1,1,,,34.936005323613,137.19826261137,
331,E2320200027111,岩津小学校,愛知県岡崎市岩津町申堂24-2,1,,,35.001379713243,137.17407084904,
332,E2320200029111,矢作北小学校,愛知県岡崎市橋目町西遠山9-2,1,,,34.980869,137.137554,
333,E2320200030111,新香山中学校,愛知県岡崎市桑原町大沢20-86,1,,,35.025384065609,137.18370643216,
334,E2320200118121,社会福祉法人　瑞穂会　特別養護老人ホーム　くわがい,愛知県岡崎市桑谷町西平地45,,,市と施設間で調整された特定の高齢者,34.890728,137.215332,
335,E2320200031111,恵田小学校,愛知県岡崎市恵田町三月ケ入71-1,1,,,35.010149813891,137.20980571096,
336,E2320200032111,根石小学校,愛知県岡崎市欠町石ケ崎1-2,1,,,34.9556484190304,137.187784509348,
337,E2320200034111,小豆坂小学校,愛知県岡崎市戸崎町藤狭13-5,1,,,34.928875,137.173024,
338,E2320200035111,南中学校,愛知県岡崎市戸崎町野畔8-1,1,,,34.935673499101,137.16336617709,
339,E2320200036111,広幡小学校,愛知県岡崎市広幡町11-1,1,,,34.969955,137.160996,
340,E2320200040111,細川小学校,愛知県岡崎市細川町石田45,1,,,35.025949,137.173884,
341,E2320200041115,形埜小学校,愛知県岡崎市桜形町中嶋13,1,,,34.98927,137.31419,
342,E2320200043111,東海中学校,愛知県岡崎市山綱町中柴51,1,,,34.895030108461,137.24940566851,
343,E2320200047111,上地小学校,愛知県岡崎市上地3-31,1,,,34.912900725591,137.16973016058,
344,E2320200048111,北中学校,愛知県岡崎市上里1-10,1,,,34.99416678405,137.16426676216,
345,E2320200050111,城南小学校,愛知県岡崎市城南町1-11,1,,,34.934096,137.153943,
346,E2320200051111,城北中学校,愛知県岡崎市城北町3-1,1,,,34.963804862193,137.15740053792,
347,E2320200052111,連尺小学校,愛知県岡崎市城北町4,1,,,34.965205,137.157497,
348,E2320200053111,秦梨小学校,愛知県岡崎市秦梨町世土田2,1,,,34.959091716288,137.24791074091,
349,E2320200054111,岡崎小学校,愛知県岡崎市針崎町フロ1,1,,,34.916681,137.152333,
350,E2320200055111,翔南中学校,愛知県岡崎市針崎町春咲1-2,1,,,34.919266136018,137.160418838,
351,E2320200056111,生平小学校,愛知県岡崎市生平町鶸場25-1,1,,,34.936763353761,137.25669107954,
352,E2320200059111,宮崎小学校,愛知県岡崎市石原町古城9,1,,,34.940308755664,137.3694993287,
353,E2320200061111,愛知県立岡崎北高等学校,愛知県岡崎市石神町17-1,1,,,34.971424,137.1763,
354,E2320200062111,六ツ美西部小学校,愛知県岡崎市赤渋町道本33,1,,,34.928776127465,137.13722904355,
355,E2320200063111,千万町楽校,愛知県岡崎市千万町町宮西8,1,,,34.9643252743394,137.364586271256,
356,E2320200065111,男川小学校,愛知県岡崎市大平町中道17,1,,,34.939978031564,137.19700193713,
357,E2320200066111,大門小学校,愛知県岡崎市大門4-4-1,1,,,34.988136320113,137.15557059373,
358,E2320200067111,矢作南小学校,愛知県岡崎市大和町西島13,1,,,34.947289,137.126222,
359,E2320200068111,常磐中学校,愛知県岡崎市滝町山籠109,1,,,34.988103946103,137.20706509959,
360,E2320200069111,常磐小学校,愛知県岡崎市滝町入ノ谷3-4,1,,,34.985430927814,137.19945401567,
361,E2320200070111,甲山中学校,愛知県岡崎市中町北野東20-1,1,,,34.95981862142,137.178995,
362,E2320200071111,六ツ美南部小学校,愛知県岡崎市中島町下井ノ上9-1,1,,,34.889177215015,137.12503820391,
363,E2320200073111,岡崎市ホタル学校,愛知県岡崎市鳥川町小デノ沢5-1,1,,,34.901870200158,137.33399761018,
364,E2320200074111,常磐南小学校,愛知県岡崎市田口町岩本12-4,1,,,34.971973802189,137.23022966566,
365,E2320200075111,六ツ美北部小学校,愛知県岡崎市土井町炭焼2,1,,,34.922134836622,137.14149676041,
366,E2320200076111,みつわ広場,愛知県岡崎市東河原町黒石17,1,,,34.916667192137,137.36504392146,
367,E2320200077111,岩津中学校,愛知県岡崎市東蔵前2-36,1,,,34.997755828491,137.17374537603,
368,E2320200078112,愛知県立岩津高等学校,愛知県岡崎市東蔵前町馬場5,1,,,34.999413,137.173706,
369,E2320200079111,矢作北中学校,愛知県岡崎市東大友町筆屋43-1,1,,,34.973561063606,137.13871630152,
370,E2320200081111,藤川小学校,愛知県岡崎市藤川町西町北44,1,,,34.912601557659,137.21865507689,
371,E2320200117121,社会福祉法人　愛知玉葉会　第二藤花荘,愛知県岡崎市藤川町唐沢15-7,,,市と施設間で調整された特定の障がい者,34.912226,137.210969,
372,E2320200082111,愛知県立岡崎西高等学校,愛知県岡崎市日名南町7,1,,,34.967602,137.154007,
373,E2320200084111,緑丘小学校,愛知県岡崎市美合町沢渡12,1,,,34.918856565068,137.18707293237,
374,E2320200085111,山中小学校,愛知県岡崎市舞木町天神越1,1,,,34.898548,137.240573,
375,E2320200086111,福岡中学校,愛知県岡崎市福岡町井杭3,1,,,34.897433,137.156583,
376,E2320200087111,福岡小学校,愛知県岡崎市福岡町西市仲3,1,,,34.903346096854,137.15333057632,
377,E2320200088111,常磐東小学校,愛知県岡崎市米河内町惣作32,1,,,34.997237833235,137.22855783933,
378,E2320200089111,下山小学校,愛知県岡崎市保久町市場16,1,,,35.009287779768,137.30166959573,
379,E2320200090111,矢作中学校,愛知県岡崎市暮戸町蓮代18,1,,,34.966926,137.130166,
380,E2320200091111,北野小学校,愛知県岡崎市北野町山下1-1,1,,,34.984896,137.136221,
381,E2320200093111,本宿小学校,愛知県岡崎市本宿町三本松入14-1,1,,,34.896001717328,137.2629756652,
382,E2320200095111,竜海中学校,愛知県岡崎市明大寺町栗林48-1,1,,,34.945425387666,137.16567964166,
383,E2320200096111,三島小学校,愛知県岡崎市明大寺町池上1,1,,,34.946079508897,137.172453824,
384,E2320200097111,愛知県立岡崎高等学校,愛知県岡崎市明大寺町伝馬1,1,,,34.945568,137.170807,
385,E2320200098111,矢作東小学校,愛知県岡崎市矢作町切戸28,1,,,34.96288597283,137.14488277577,
386,E2320200100112,愛知県立岡崎東高等学校,愛知県岡崎市竜泉寺町後山27,1,,,34.912872,137.208145,
387,E2320200101111,竜谷小学校,愛知県岡崎市竜泉寺町松本34-4,1,,,34.900546,137.204022,
388,E2320200102111,竜美丘小学校,愛知県岡崎市竜美台1-1,1,,,34.938875,137.174274,
389,E2320200103111,竜南中学校,愛知県岡崎市緑丘2-17,1,,,34.916598,137.179969,
390,E2320200106111,六名小学校,愛知県岡崎市六名3-2-1,1,,,34.946304554928,137.15732356931,
391,E2342500001111,蟹江町体育館,愛知県蟹江町学戸3-2,,,,35.132926,136.786911,
392,E2342500002111,蟹江中央公民館,愛知県蟹江町学戸3-3,,,,35.133241,136.786745,
393,E2342500003111,学戸小学校,愛知県蟹江町学戸4-236,1,,,35.133742,136.784216,
394,E2342500004111,蟹江西保育所,愛知県蟹江町学戸4-29,,,,35.134587,136.784969,
395,E2342500005111,舟入ふれあいプラザ,愛知県蟹江町舟入1-444,,,,35.12337,136.792747,
396,E2342500006111,舟入小学校,愛知県蟹江町舟入3-70,1,,,35.122114,136.790939,
397,E2342500007111,蟹江町産業文化会館,愛知県蟹江町城1-214,,,,35.137158,136.790924,
398,E2342500008111,蟹江保育所,愛知県蟹江町城1-525,,,,35.136595,136.793916,
399,E2342500009111,蟹江児童館,愛知県蟹江町城4-243,,,,35.130074,136.790658,
400,E2342500010111,蟹江南保育所,愛知県蟹江町城4-244,,,,35.130354,136.79081,
401,E2342500011111,蟹江小学校,愛知県蟹江町城4-500,1,,,35.130601,136.792399,
402,E2342500012111,須西小学校,愛知県蟹江町須成西6-114,1,,,35.143798,136.783841,
403,E2342500013111,蟹江北中学校,愛知県蟹江町須成西9-55-1,1,,,35.141113,136.781046,
404,E2342500014111,蟹江町図書館,愛知県蟹江町大字蟹江新田字札中地101-1,,,,35.127432,136.778387,
405,E2342500015111,新蟹江児童館,愛知県蟹江町大字蟹江新田字大海用149-5,,,,35.120557,136.777813,
406,E2342500016111,新蟹江小学校,愛知県蟹江町大字蟹江新田字仲川原198,1,,,35.120777,136.781688,
407,E2342500018111,蟹江町希望の丘広場,愛知県蟹江町大字新千秋字後西50,1,,,35.117136,136.773107,
408,E2342500020111,須成保育所,愛知県蟹江町大字須成字古苗代1733,,,,35.147624,136.791143,
409,E2342500022111,みどりの家,愛知県蟹江町大字西之森字海山282-2,,,,35.137656,136.776436,
410,E2342500023111,蟹江町多世代交流施設,愛知県蟹江町大字西之森字海山326-3,1,,,35.13555145,136.7769389,
411,E2342500025111,新蟹江北保育所,愛知県蟹江町富吉3-217,,,,35.123601,136.772533,
412,E2342500026111,蟹江中学校,愛知県蟹江町宝3-20,1,,,35.128864,136.797381,
413,E2321400001111,中部保育園遊戯室,愛知県蒲郡市旭町22-18,,,,34.826993890636,137.221087738,
414,E2321400004121,みらいあ,愛知県蒲郡市栄町11-13,,,市が特定した者,34.823548909697,137.21751860553,
415,E2321400007111,形原北小学校体育館,愛知県蒲郡市金平町屋敷田1,1,,,34.783102690576,137.18031608544,
416,E2321400008111,形原北保育園遊戯室,愛知県蒲郡市金平町三本木1,,,,34.811537569324,137.18579019972,
417,E2321400009121,グループホームみかんの木,愛知県蒲郡市金平町堀ノ内2-2,,,市が特定した者,34.8126854216984,137.18519070263,
418,E2321400010111,形原小学校体育館,愛知県蒲郡市形原町御嶽34-2,1,,,34.79946,137.186252,
419,E2321400011121,形原眺海園,愛知県蒲郡市形原町西稲荷18-2,,,市が特定した者,34.809265394307,137.17651500414,
420,E2321400012111,形原南保育園遊戯室,愛知県蒲郡市形原町西根崎17-4,,,,34.799436275336,137.1862745161,
421,E2321400013111,蒲郡文化広場,愛知県蒲郡市形原町袋川25-1,1,,,34.795911307015,137.17985116856,
422,E2321400014111,形原保育園遊戯室,愛知県蒲郡市形原町中村3-3,,,,34.795214357813,137.18376157921,
423,E2321400015111,形原中学校体育館,愛知県蒲郡市形原町佃20-1,1,,,34.801486,137.181559,
424,E2321400016121,形原眺海園ぬくもりの家,愛知県蒲郡市形原町南新田55-7,,,市が特定した者,34.8064818094185,137.189077572359,
425,E2321400017121,グループホームなばな苑,愛知県蒲郡市形原町南名田19-4,,,市が特定した者,34.7959210205362,137.177877474136,
426,E2321400018111,形原四区しあわせ会館,愛知県蒲郡市形原町北上松22,,,,34.795896,137.179853,
427,E2321400019121,憩いの杜蒲郡,愛知県蒲郡市形原町北新田41-1,,,市が特定した者,34.8088806041532,137.189554245479,
428,E2321400021111,五井町多目的ホール,愛知県蒲郡市五井町岡海道79-5,,,,34.83895081809,137.24443234229,
429,E2321400022121,五井眺海園,愛知県蒲郡市五井町五反田7-1,,,市が特定した者,34.835482409927,137.24671443087,
430,E2321400023121,五井の里,愛知県蒲郡市五井町殿海道11-1,,,市が特定した者,34.834596550361,137.24301533326,
431,E2321400026121,グループホームはっぴい,愛知県蒲郡市三谷町伊与戸1-2,,,市が特定した者,34.8192624100732,137.257679343249,
432,E2321400027121,特別養護老人ホーム百華苑,愛知県蒲郡市三谷町姥ケ懐23,,,市が特定した者,34.8210185846859,137.257025307335,
433,E2321400028111,三谷中学校体育館,愛知県蒲郡市三谷町原山1-40,1,,,34.814903372725,137.26219195413,
434,E2321400029121,楽笑モール（まるまるカフェ内）,愛知県蒲郡市三谷町須田10-68,,,避難行動要支援者,34.8183249590174,137.240645720759,
435,E2321400033111,三谷東保育園遊戯室,愛知県蒲郡市三谷町東4-146,,,,34.813150497721,137.25677842362,
436,E2321400035111,三谷東小学校体育館,愛知県蒲郡市三谷町南山1-7,1,,,34.814309469967,137.25785665374,
437,E2321400036111,三谷小学校体育館,愛知県蒲郡市三谷町迫1-1,1,,,34.816830061582,137.24593236475,
438,E2321400040121,アットホーム三谷,愛知県蒲郡市三谷北通4-117-1,,,市が特定した者,34.820671547872,137.24227953847,
439,E2321400045111,拾石町会館,愛知県蒲郡市拾石町塩浜81,,,,34.802667472643,137.18209025764,
440,E2321400046121,蒲郡眺海園,愛知県蒲郡市拾石町浅岡1-7,,,市が特定した者,34.814463733842,137.19842672669,
441,E2321400048111,蒲郡高等学校　体育館・武道場,愛知県蒲郡市上本町8-9,1,,,34.831704798581,137.23041872042,
442,E2321400050111,蒲郡中学校体育館,愛知県蒲郡市新井町13-18,,,,34.829318965601,137.23510035779,
443,E2321400053111,蒲郡西部小学校体育館,愛知県蒲郡市神ノ郷町壱町田10,1,,,34.839681752259,137.22333342765,
444,E2321400054111,西部保育園遊戯室,愛知県蒲郡市神ノ郷町壱町田14-5,,,,34.840145866116,137.22415309861,
445,E2321400055121,特別養護老人ホーム楓の杜,愛知県蒲郡市神ノ郷町下向山35,,,市が特定した者,34.8282279054684,137.214990053897,
446,E2321400056111,勤労福祉会館,愛知県蒲郡市神明町18-4,,,,34.825441931983,137.2276387922,
447,E2321400057121,生きがいセンター,愛知県蒲郡市神明町22-2,,,避難行動要支援者,34.825663219905,137.22882258697,
448,E2321400058111,南部保育園遊戯室,愛知県蒲郡市神明町22-28,,,,34.825384759206,137.23021090159,
449,E2321400059111,蒲郡南部小学校体育館,愛知県蒲郡市神明町22-3,1,,,34.826396327656,137.23013552302,
450,E2321400060111,中部中学校体育館,愛知県蒲郡市水竹町下川原11-1,1,,,34.84180766452,137.22886697437,
451,E2321400062111,蒲郡北部小学校体育館,愛知県蒲郡市清田町間堰52,1,,,34.843121815823,137.23275312473,
452,E2321400063111,北部保育園遊戯室,愛知県蒲郡市清田町門前2-16,,,,34.843461782274,137.23148025178,
453,E2321400064111,西浦保育園遊戯室,愛知県蒲郡市西浦町丸落20-3,,,,34.783917997813,137.18066769021,
454,E2321400065111,西浦小学校体育館,愛知県蒲郡市西浦町宮地10,1,,,34.783922,137.180706,
455,E2321400066111,西浦中学校体育館,愛知県蒲郡市西浦町原山1-24,1,,,34.782287,137.183366,
456,E2321400067111,愛知工科大学・愛知工科大学自動車短期大学,愛知県蒲郡市西迫町馬乗50-2,1,,,34.821465066055,137.20170714974,
457,E2321400068121,けあビジョンホーム蒲郡,愛知県蒲郡市大塚町岸脇7,,,市が特定した者,34.8109770644766,137.270313223624,
458,E2321400069121,わくわくワーク大塚,愛知県蒲郡市大塚町後広畑25-2,,,避難行動要支援者,34.819595315857,137.28678052991,
459,E2321400070121,蒲郡市養護老人ホーム,愛知県蒲郡市大塚町後広畑84-1,,,市が特定した者,34.819261335984,137.28636299658,
460,E2321400070111,大塚保育園遊戯室,愛知県蒲郡市大塚町後広畑84-1,,,,34.818816535008,137.28680824328,
461,E2321400071121,つつじ寮,愛知県蒲郡市大塚町後広畑85-1,,,避難行動要支援者,34.819630547372,137.28617971508,
462,E2321400072111,蒲郡東高等学校　体育館・武道場,愛知県蒲郡市大塚町上千尾12-2,1,,,34.819574631463,137.27471716955,
463,E2321400073111,大塚西保育園遊戯室,愛知県蒲郡市大塚町西屋敷68-1,,,,34.81217548063,137.27233456997,
464,E2321400074111,大塚小学校体育館,愛知県蒲郡市大塚町大門42-5,1,,,34.814365001462,137.28948917601,
465,E2321400075111,大塚中学校体育館,愛知県蒲郡市大塚町南向山15-3,1,,,34.813858514616,137.29195680831,
466,E2321400076121,特別養護老人ホームさくらの木,愛知県蒲郡市大塚町南向山25-5,,,市が特定した者,34.8125224639818,137.292156602781,
467,E2321400077121,グループホームすずらん,愛知県蒲郡市竹谷町奥林29-1,,,市が特定した者,34.8345269479634,137.20701774543,
468,E2321400078111,塩津小学校体育館,愛知県蒲郡市竹谷町今御堂31-1,1,,,34.831180746707,137.20487797945,
469,E2321400079111,塩津保育園遊戯室,愛知県蒲郡市竹谷町今御堂63-1,,,,34.827075952717,137.20105640338,
470,E2321400080111,塩津中学校体育館,愛知県蒲郡市竹谷町上ノ山2,1,,,34.832153775475,137.1936830165,
471,E2321400083121,なごみの郷,愛知県蒲郡市柏原町加治替戸3-1,,,市が特定した者,34.837415560164,137.21137048788,
472,E2321400088111,竹島小学校体育館,愛知県蒲郡市府相町3-40,1,,,34.826120922963,137.23723123958,
473,E2321400089121,アットホーム平田,愛知県蒲郡市平田町上六反田1-1,,,市が特定した者,34.830993916615,137.23694036407,
474,E2321400102111,平田町民センター,愛知県蒲郡市平田町西長根49,,,,34.828321973435,137.24117173204,
475,E2321400092111,とかみ会館,愛知県蒲郡市豊岡町下久貝18-1,,,,34.824064522989,137.25393523019,
476,E2321400093111,上組会館,愛知県蒲郡市豊岡町軒山11-1,,,,34.832529560457,137.24953505141,
477,E2321400094111,東部保育園遊戯室,愛知県蒲郡市豊岡町池田16-3,,,,34.829362542531,137.24464508617,
478,E2321400095111,蒲郡東部小学校体育館,愛知県蒲郡市豊岡町池田3,1,,,34.829183606851,137.24479157597,
479,E2321400096111,迫公民館,愛知県蒲郡市豊岡町八ツ田27-9,,,,34.829348748845,137.25252736455,
480,E2321400098111,中央小学校体育館,愛知県蒲郡市緑町3-49,1,,,34.829339760194,137.21823017671,
481,E2321400099111,市民体育センター武道館,愛知県蒲郡市緑町3-69,,,,34.827437053611,137.21658809884,
482,E2321000001111,愛知教育大学,愛知県刈谷市井ケ谷町広沢1,1,,,35.05166,137.049283,
483,E2321000002111,北部生涯学習センター,愛知県刈谷市井ケ谷町松ケ崎6-26,,,,35.055283,137.058612,
484,E2321000003111,平成小学校,愛知県刈谷市一ツ木町3-18-1,1,,,35.008309,137.029295,
485,E2321000004121,一ツ木福祉センター,愛知県刈谷市一ツ木町4-40-3,,,要配慮者,35.014109,137.023705,
486,E2321000005111,産業技術センター,愛知県刈谷市恩田町1-157-1,1,,,35.008392,137.020957,
487,E2321000006121,高齢者福祉センター,愛知県刈谷市下重原町3-120,,,要配慮者,34.984609,137.014457,
488,E2321000007122,すぎな作業所,愛知県刈谷市下重原町3-32,,,要配慮者,34.985752,137.014282,
489,E2321000007121,心身障害者福祉会館,愛知県刈谷市下重原町3-32,,,要配慮者,34.986184,137.014301,
490,E2321000008111,小高原小学校,愛知県刈谷市原崎町1-101,1,,,35.000088,137.004404,
491,E2321000009111,富士松市民センター,愛知県刈谷市今川町2-152,,,,35.030631,137.018829,
492,E2321000010111,富士松中学校,愛知県刈谷市今川町花岡114,1,,,35.031593,137.028233,
493,E2321000011111,富士松南小学校,愛知県刈谷市今川町山脇1,1,,,35.025801,137.012358,
494,E2321000012111,刈谷東中学校,愛知県刈谷市山池町1-201,1,,,34.998594,136.995553,
495,E2321000013111,刈谷北高等学校,愛知県刈谷市寺横町1-67,1,,,34.990785,136.993761,
496,E2321000014111,総合文化センター,愛知県刈谷市若松町2-104,,,,34.989152,137.0069,
497,E2321000015111,刈谷高等学校,愛知県刈谷市寿町5-101,1,,,34.982997,136.998911,
498,E2321000016111,刈谷南中学校,愛知県刈谷市住吉町2-1,1,,,34.986324,137.011131,
499,E2321000017111,住吉小学校,愛知県刈谷市住吉町3-70,1,,,34.984904,137.007563,
500,E2321000018111,小垣江市民センター,愛知県刈谷市小垣江町小道45-1,,,,34.964385,136.998348,
501,E2321000019111,依佐美中学校,愛知県刈谷市小垣江町上沢渡5-1,1,,,34.960904,137.014022,
502,E2321000020111,小垣江小学校,愛知県刈谷市小垣江町西王地1-1,1,,,34.963207,136.997618,
503,E2321000021111,小垣江東小学校,愛知県刈谷市小垣江町白沢36,1,,,34.958261,137.007435,
504,E2321000021121,刈谷特別支援学校,愛知県刈谷市小垣江町白沢36,1,,要配慮者,34.958187,137.008642,
505,E2321000022111,東刈谷市民センター,愛知県刈谷市松栄町2-16-1,,,,34.977841,137.03253,
506,E2321000023111,亀城小学校,愛知県刈谷市城町1-25-1,1,,,34.988767,136.987184,
507,E2321000024111,夢と学びの科学体験館,愛知県刈谷市神田町1-39-3,,,,34.988128,137.012932,
508,E2321000025111,産業振興センター,愛知県刈谷市相生町1-1-6,,,,34.990793,137.010975,
509,E2321000026111,子ども相談センター,愛知県刈谷市大手町1-51,,,,34.987757,137.003744,
510,E2321000027111,かりがね小学校,愛知県刈谷市築地町2-15-1,1,,,35.013177,137.017879,
511,E2321000028111,雁が音中学校,愛知県刈谷市築地町3-9-1,1,,,35.016907,137.012156,
512,E2321000029111,衣浦小学校,愛知県刈谷市天王町3-27,1,,,34.977019,136.988627,
513,E2321000030111,東刈谷小学校,愛知県刈谷市東刈谷町3-8,1,,,34.974492,137.038688,
514,E2321000031111,北部市民センター,愛知県刈谷市東境町住吉78-2,,,,35.038155,137.039396,
515,E2321000032111,富士松北小学校,愛知県刈谷市東境町焼田10-5,1,,,35.046364,137.041204,
516,E2321000033111,富士松東小学校,愛知県刈谷市東境町堀池71,1,,,35.033728,137.036161,
517,E2321000034111,日高小学校,愛知県刈谷市日高町1-201,1,,,35.004684,136.995403,
518,E2321000035111,双葉小学校,愛知県刈谷市半城土中町3-12-2,1,,,34.97621,137.020685,
519,E2321000036111,刈谷東高等学校,愛知県刈谷市半城土町三ツ又20,1,,,34.984619,137.018904,
520,E2321000037111,朝日小学校,愛知県刈谷市野田町陣戸池151,1,,,34.969916,137.032465,
521,E2321000038111,朝日中学校,愛知県刈谷市野田町陣戸池152,1,,,34.968746,137.028662,
522,E2321000039121,南部福祉センター,愛知県刈谷市野田町西田78-2,,,要配慮者,34.977376,137.026547,
523,E2321000039111,南部生涯学習センター,愛知県刈谷市野田町西田78-2,,,,34.977376,137.026547,
524,E2321000040111,刈谷工科高等学校,愛知県刈谷市矢場町2-210,1,,,34.996511,136.999308,
525,E2322800001111,保健センター,愛知県岩倉市旭町1-20,1,,,35.2767897270659,136.871231516832,
526,E2322800002111,井上会館,愛知県岩倉市井上町東畑田156-1,1,,,35.2990355014793,136.876426046072,
527,E2322800004111,第四児童館,愛知県岩倉市稲荷町羽根24-3,1,,,35.2687578752438,136.871517082475,
528,E2322800005111,岩倉市役所,愛知県岩倉市栄町1-66,1,,,35.2794363383777,136.871441237832,
529,E2322800007111,第三児童館,愛知県岩倉市下本町下市場27,,,,35.2781812675686,136.877024306292,
530,E2322800009121,下寺保育園,愛知県岩倉市下本町下寺廻107-1,1,左記のうち、避難生活において何らかの特別な配慮が必要であり、避難所での共同生活が困難な方,要配慮者（乳幼児、妊産婦）,35.2736454929235,136.875388531894,
531,E2322800010111,大上市場会館,愛知県岩倉市宮前町1-2,1,,,35.2835510463898,136.87102125756,
532,E2322800013111,市民プラザ,愛知県岩倉市昭和町2-17,1,,,35.2737116855721,136.873793292312,
533,E2322800013112,図書館,愛知県岩倉市昭和町2-17,1,,,35.2738474507332,136.873546529083,
534,E2322800015121,五条川小学校放課後児童クラブ施設,愛知県岩倉市神野町郷浦18,1,左記のうち、避難生活において何らかの特別な配慮が必要であり、避難所での共同生活が困難な方,要配慮者（乳幼児、妊産婦）,35.295256597564,136.87469939961,
535,E2322800015111,五条川小学校,愛知県岩倉市神野町郷浦18,1,,,35.2952500300234,136.874071762684,
536,E2322800016111,神野会館,愛知県岩倉市神野町平久田41,1,,,35.2917623154721,136.872999648743,
537,E2322800017111,岩倉中学校,愛知県岩倉市西市町竹之宮24,1,,,35.28123390122,136.862908662483,
538,E2322800018111,ふれあいセンター,愛知県岩倉市西市町無量寺2-1,1,,,35.2810562754174,136.865716423737,
539,E2322800020111,石仏会館,愛知県岩倉市石仏町中屋敷597-1,1,,,35.2945175903046,136.870643133642,
540,E2322800022111,川井町公会堂,愛知県岩倉市川井町井上1308,,,,35.264031,136.863741,
541,E2322800024111,泉会館,愛知県岩倉市泉町西新溝廻間1-7,1,,,35.2856431653858,136.867210735836,
542,E2322800025111,曽野小学校,愛知県岩倉市曽野町井森1,1,,,35.2674330011829,136.879955082238,
543,E2322800026111,曽野町公会堂,愛知県岩倉市曽野町宮前1,1,,,35.2696522377715,136.879198939218,
544,E2322800027121,医療法人ようてい会るるどの泉,愛知県岩倉市曽野町郷前3,,左記のうち、避難生活において何らかの特別な配慮が必要であり、避難所での共同生活が困難な方,要配慮者（高齢者）,35.2689250968665,136.878328185657,
545,E2322800028111,岩倉南部中学校,愛知県岩倉市曽野町江毛1,1,,,35.2709565515559,136.882651978585,
546,E2322800030111,防災コミュニティセンター,愛知県岩倉市大山寺元町8-7,1,,,35.2652856237344,136.872115810833,
547,E2322800031111,大市場町公会堂,愛知県岩倉市大市場町郷廻184-3,1,,,35.2738399858525,136.880085181289,
548,E2322800032111,南部老人憩の家,愛知県岩倉市大地町郷前32,1,,,35.2719033546648,136.868170933437,
549,E2322800033121,南部保育園,愛知県岩倉市大地町小森5,1,左記のうち、避難生活において何らかの特別な配慮が必要であり、避難所での共同生活が困難な方,要配慮者（乳幼児、妊産婦）,35.2733296763629,136.866581026389,
550,E2322800034111,岩倉南小学校,愛知県岩倉市大地町小森93-1,1,,,35.2730012961394,136.866134682549,
551,E2322800036111,みどりの家（地域交流センター）,愛知県岩倉市中央町2-20,1,,,35.2778768424376,136.867609158544,
552,E2322800038111,くすのきの家（地域交流センター）,愛知県岩倉市中本町西出口15-1,1,,,35.281673547027,136.875068235864,
553,E2322800040111,東新町公会堂,愛知県岩倉市東新町釜之口1-1,,,,35.2807848970889,136.88385927437,
554,E2322800041121,ポプラの家（地域交流センター）,愛知県岩倉市東新町南江向24-5,,左記のうち、避難生活において何らかの特別な配慮が必要であり、避難所での共同生活が困難な方,要配慮者（乳幼児、妊産婦）,35.28107937996,136.883951912936,
555,E2322800042111,岩倉東小学校,愛知県岩倉市東町掛目1,1,,,35.2850999665995,136.88376261269,
556,E2322800043121,あゆみの家（子ども発達支援施設）,愛知県岩倉市東町仙奈158,,左記のうち、避難生活において何らかの特別な配慮が必要であり、避難所での共同生活が困難な方,要配慮者（障がい児）,35.2858711392954,136.88171179499,
557,E2322800044122,岩倉福祉会　第２みのりの里,愛知県岩倉市東町仙奈170,,,要配慮者（障がい児、障がい者）,35.28612,136.882221,
558,E2322800045121,いわくら福祉会第１みのりの里,愛知県岩倉市東町仙奈180,,左記のうち、避難生活において何らかの特別な配慮が必要であり、避難所での共同生活が困難な方,要配慮者（障がい児、障がい者）,35.2861462479061,136.881043554887,
559,E2322800046111,東町会館,愛知県岩倉市東町東市場屋敷351-1,1,,,35.2842152517549,136.876946039773,
560,E2322800048111,中野会館,愛知県岩倉市東町馬出58-2,1,,,35.2889710122464,136.872185180976,
561,E2322800050111,さくらの家（多世代交流センター）,愛知県岩倉市八剱町下池田806-1,1,地震時は福祉避難所として使用,,35.2874733079487,136.875945592015,
562,E2322800050121,さくらの家（多世代交流センター）,愛知県岩倉市八剱町下池田806-1,1,左記のうち、避難生活において何らかの特別な配慮が必要であり、避難所での共同生活が困難な方,（水害時）　一般避難所として開設 （地震時） 　要配慮者（高齢者）,35.2875259493332,136.875851514177,
563,E2322800051111,八剱会館,愛知県岩倉市八剱町郷81-1,1,,,35.2935868503524,136.877082526725,
564,E2322800053111,北島町公会堂,愛知県岩倉市北島町宮東1297,1,,,35.2736245244939,136.848849005016,
565,E2322800063121,一期一会福祉会岩倉一期一会荘花むすび,愛知県岩倉市北島町七反田15,,左記のうち、避難生活において何らかの特別な配慮が必要であり、避難所での共同生活が困難な方,要配慮者（高齢者）,35.277835,136.85591,
566,E2322800054111,岩倉総合高等学校,愛知県岩倉市北島町川田1,1,,,35.2780862163432,136.854100880477,
567,E2322800055121,一期一会福祉会岩倉一期一会荘,愛知県岩倉市北島町二本木7,,左記のうち、避難生活において何らかの特別な配慮が必要であり、避難所での共同生活が困難な方,要配慮者（高齢者）,35.2769451531301,136.855716813156,
568,E2322800056111,ＪＡ愛知北岩倉支店,愛知県岩倉市本町神明西11,,,,35.2806322027749,136.873150812963,
569,E2322800057111,生涯学習センター,愛知県岩倉市本町神明西20,1,,,35.2790179645672,136.873577468597,
570,E2322800058111,岩倉北小学校,愛知県岩倉市本町南新溝廻間2,1,,,35.2855960422098,136.870290581096,
571,E2322800059121,中部保育園,愛知県岩倉市本町畑中65,1,左記のうち、避難生活において何らかの特別な配慮が必要であり、避難所での共同生活が困難な方,要配慮者（乳幼児、妊産婦）,35.2855261614366,136.872931358267,
572,E2322800060111,野寄町公会堂,愛知県岩倉市野寄町屋敷922,,,,35.269413323925,136.856212536049,
573,E2322800062111,総合体育文化センター,愛知県岩倉市鈴井町下新田123,1,,,35.2845840748302,136.863748047539,
574,E2321500059121,養護老人ホームぬく森,愛知県犬山市羽黒安戸南1-55,,,高齢者・障害者等,35.356382,136.968782,
575,E2321500058121,ともいき福祉会（ぬく森・第二）,愛知県犬山市羽黒安戸南一丁目57,,,高齢者・障害者等,35.356528238057,136.96935364517,
576,E2321500061121,橋五子ども未来園,愛知県犬山市橋爪東1-77,,,妊婦・乳幼児,35.371308,136.948027,
577,E2321500004111,楽田ふれあいセンター,愛知県犬山市字外屋敷59-1,1,,,35.327873023773,136.94860967457,
578,E2321500060111,南部高齢者活動センター,愛知県犬山市字郷西299-4,1,,,35.346031758005,136.95664794896,
579,E2321500052121,楽田子ども未来園,愛知県犬山市字若宮48-4,,,乳幼児・妊産婦,35.332769078519,136.95050626583,
580,E2321500007111,楽田小学校,愛知県犬山市字城山97,1,,,35.328424394306,136.95088029552,
581,E2321500008111,青塚古墳史跡公園,愛知県犬山市字青塚22-3,1,,,35.325622517975,136.92981390842,
582,E2321500054121,楽田西子ども未来園,愛知県犬山市字二タ田16,,,乳幼児・妊産婦,35.328675630529,136.94289064356,
583,E2321500053121,楽田東子ども未来園,愛知県犬山市字番前5-3,,,乳幼児・妊産婦,35.33302128165,136.95841246054,
584,E2321500009111,池野小学校,愛知県犬山市字杁下51,1,,,35.335982551553,136.99156107585,
585,E2321500010111,市民交流センター,愛知県犬山市松本町4-21,1,,,35.3787179960438,136.948245044947,
586,E2321500013111,犬山西小学校,愛知県犬山市上坂町5-2,1,,,35.376293872482,136.93054918675,
587,E2321500044121,上木子ども未来園,愛知県犬山市上野新町289,,,乳幼児・妊産婦,35.369985199793,136.92094409663,
588,E2321500055121,ひかり学園,愛知県犬山市前原字橋爪山123,,,高齢者・障害者等,35.367342897097,136.98578403537,
589,E2321500002121,ともいき福祉会（ぬく森）,愛知県犬山市前原字橋爪山15-121,,,高齢者・障害者等,35.36899760468,136.98278128494,
590,E2321500014111,東小学校,愛知県犬山市大字羽黒字安戸西1-2,,,,35.36174653545,136.96079338212,
591,E2321500050121,羽黒児童センター,愛知県犬山市大字羽黒字貴船浦5-4,,,乳幼児・妊産婦,35.349243363701,136.94635337746,
592,E2321500049121,羽黒北子ども未来園,愛知県犬山市大字羽黒字向浦55-8,,,乳幼児・妊産婦,35.35838476612,136.95830905678,
593,E2321500051121,羽黒南子ども未来園,愛知県犬山市大字羽黒字寺海道30,,,乳幼児・妊産婦,35.34361848214,136.94493478426,
594,E2321500015111,羽黒小学校,愛知県犬山市大字羽黒字前川原67,1,,,35.348829227445,136.95155457965,
595,E2321500016111,犬山市体育館（エナジーサポートアリーナ）,愛知県犬山市大字羽黒字竹ノ腰17-2,1,,,35.357235982744,136.95137021639,
596,E2321500017111,犬山市体育センター（勤労青少年ホーム）,愛知県犬山市大字羽黒新田字上堅筬1-1,1,,,35.336586896342,136.93648706317,
597,E2321500018111,南部中学校,愛知県犬山市大字羽黒新田字畑田1,1,,,35.342240486365,136.95126415159,
598,E2321500019111,南老人福祉センター,愛知県犬山市大字橋爪字巾屋敷56-1,1,,,35.372612414877,136.94091200676,
599,E2321500020111,村田機械（株）体育館,愛知県犬山市大字橋爪字中島2,1,,,35.369520783018,136.93794070776,
600,E2321500021111,犬山南小学校,愛知県犬山市大字橋爪字末友28,1,,,35.375002966811,136.9407246595,
601,E2321500022111,栗栖小学校,愛知県犬山市大字栗栖字野口455,1,,,35.41194272074,136.96436509271,
602,E2321500024111,内田老人憩の家,愛知県犬山市大字犬山字大門先18,1,,,35.389613264466,136.94513392763,
603,E2321500045121,丸山子ども未来園,愛知県犬山市大字犬山字辰ヶ池45-2,,,乳幼児・妊産婦,35.385710976494,136.94917388138,
604,E2321500025111,丸山地区学習等供用施設,愛知県犬山市大字犬山字中ノ宮43-1,1,,,35.386084142337,136.95244087329,
605,E2321500026111,犬山北小学校,愛知県犬山市大字犬山字北古券2,1,,,35.384671343404,136.93710447168,
606,E2321500027111,犬山高等学校,愛知県犬山市大字犬山字北首塚2,1,,,35.380426811397,136.93633129608,
607,E2321500028111,五郎丸老人憩の家,愛知県犬山市大字五郎丸字新田組67,,,,35.362625470669,136.94104800825,
608,E2321500029111,今井小学校,愛知県犬山市大字今井字若宮8,1,,,35.367157138712,137.00137344541,
609,E2321500030111,上野地区学習等供用施設,愛知県犬山市大字上野字郷1508,1,,,35.369840009408,136.92567648304,
610,E2321500031111,前原老人憩の家,愛知県犬山市大字前原字横町1-1,1,,,35.365325529166,136.96947542552,
611,E2321500032111,犬山市民健康館,愛知県犬山市大字前原字橋爪山15,,,,35.36921551592,136.98146189288,
612,E2321500048121,城東第２子ども未来園,愛知県犬山市大字前原字南中根1,,,乳幼児・妊産婦,35.365243864334,136.96568646547,
613,E2321500034111,善師野公民館,愛知県犬山市大字善師野字上紅屋19,1,,,35.389478872684,136.98152614261,
614,E2321500035111,塔野地公民館,愛知県犬山市大字塔野地字西中ノ切26,1,,,35.375980431028,136.96506612098,
615,E2321500036111,城東中学校,愛知県犬山市大字塔野地字田口洞39-101,1,,,35.378631198223,136.97299648018,
616,E2321500037111,城東小学校,愛知県犬山市大字塔野地字東屋敷1,1,,,35.379162137506,136.97098149752,
617,E2321500038111,東部老人憩の家,愛知県犬山市大字富岡字株池113-1,1,,,35.38056003635,136.96321257428,
618,E2321500039111,富岡第一公民館,愛知県犬山市大字富岡字南洞891-2,1,,,35.38026504357,136.96085182416,
619,E2321500041111,犬山中学校,愛知県犬山市大字木津字宮前15,1,,,35.3771680524,136.92867721296,
620,E2321500043111,長者町会館,愛知県犬山市長者町1-1,1,,,35.348825622757,136.96743752284,
621,E2321500057121,溢愛館,愛知県犬山市富岡字片洞1073-97,,,高齢者・障害者等,35.384324501007,136.96640618964,
622,E2350100001111,幸田文化公園（さくら会館）,愛知県幸田町大字芦谷字蒲野25-1,1,,,34.854222796925,137.16873672558,
623,E2350100002111,幸田保育園,愛知県幸田町大字芦谷字宮ノ根14-1,1,,,34.862218244052,137.16995425282,
624,E2350100003111,芦谷コミュニティセンター,愛知県幸田町大字芦谷字宮ノ根15-7,1,,,34.861845561504,137.17014486365,
625,E2350100004111,幸田老人憩の家,愛知県幸田町大字芦谷字後シロ15-1,1,,,34.861627016351,137.16585951396,
626,E2350100006111,芦谷公民館,愛知県幸田町大字芦谷字神ノ前27-3,1,,,34.857874869398,137.17116371604,
627,E2350100008111,荻谷小学校,愛知県幸田町大字芦谷字東山1,1,,,34.86025195022,137.17357265264,
628,E2350100012111,永野老人憩の家,愛知県幸田町大字永野字訳田128,1,,,34.887625439428,137.14394973697,
629,E2350100015111,横落コミュニティセンター,愛知県幸田町大字横落字郷中67,1,,,34.86600433451,137.17510295778,
630,E2350100016111,高齢者生きがいセンター,愛知県幸田町大字横落字竹ノ花32,1,,,34.868020415185,137.17095067918,
631,E2350100017111,中央小学校,愛知県幸田町大字横落字北門1,1,,,34.869422332455,137.17166576424,
632,E2350100018111,荻農村センター,愛知県幸田町大字荻字下61-1,1,,,34.863100194614,137.18018359514,
633,E2350100112111,幸田南部まちづくり交流拠点施設（やまびこ館）,愛知県幸田町大字逆川字大坪143-2,1,,,34.831929,137.152317,
634,E2350100020111,逆川農村センター,愛知県幸田町大字逆川字大坪31-2,1,,,34.832405818677,137.15225468649,
635,E2350100021111,久保田コミュニティホーム,愛知県幸田町大字久保田字社口25-2,1,,,34.889071304902,137.19034176955,
636,E2350100024111,桐山老人憩の家,愛知県幸田町大字桐山字善田山76-3,1,,,34.843796966051,137.15087413795,
637,E2350100026111,桐山中央コミュニティホーム,愛知県幸田町大字桐山字中屋敷17-5,1,,,34.843156923003,137.14756944965,
638,E2350100027111,高力老人憩の家,愛知県幸田町大字高力字越丸13-1,1,,,34.88672663224,137.16809000023,
639,E2350100029111,幸田高校,愛知県幸田町大字高力字神山78,1,,,34.882181057648,137.16860233056,
640,E2350100030111,坂崎公民館,愛知県幸田町大字坂崎字御屋敷22-1,1,,,34.894335114163,137.17392997169,
641,E2350100031111,坂崎７番組コミュニティホーム,愛知県幸田町大字坂崎字城1,1,,,34.89591627138,137.16717388751,
642,E2350100035111,坂崎保育園,愛知県幸田町大字坂崎字揚り山11-1,1,,,34.894841437077,137.17702735782,
643,E2350100036111,坂崎小学校,愛知県幸田町大字坂崎字揚り山31,1,,,34.892699879317,137.17684738566,
644,E2350100037111,上六栗老人憩の家,愛知県幸田町大字上六栗字中切34,1,,,34.846950199031,137.16388777607,
645,E2350100040111,老人福祉センター,愛知県幸田町大字深溝字一之宮2-1,1,,,34.843298422747,137.17828190974,
646,E2350100041111,里西コミュニティホーム,愛知県幸田町大字深溝字一之宮7-1,1,,,34.842545562263,137.1782121723,
647,E2350100042111,一ノ瀬コミュニティホーム,愛知県幸田町大字深溝字花籠53,1,,,34.8317301073192,137.165387930948,
648,E2350100043111,市場公民館,愛知県幸田町大字深溝字会下後37,1,,,34.839906496227,137.16992958152,
649,E2350100045111,里保育園,愛知県幸田町大字深溝字宮前5,1,,,34.842345999102,137.17922882457,
650,E2350100046111,里東老人憩の家,愛知県幸田町大字深溝字権行寺21-3,1,,,34.833681043099,137.18247922603,
651,E2350100047111,南部中学校,愛知県幸田町大字深溝字舟山5-5,1,,,34.841042162023,137.16820851119,
652,E2350100050111,里曲松コミュニティホーム,愛知県幸田町大字深溝字小杉山1-124,1,,,34.844710719679,137.17159689124,
653,E2350100051111,海谷公民館,愛知県幸田町大字深溝字上一木16,1,,,34.827218223351,137.18727250999,
654,E2350100052111,仲組コミュニティホーム,愛知県幸田町大字深溝字石打1-1,1,,,34.829701778371,137.18881746238,
655,E2350100054111,三ヶ根駅前コミュニティホーム,愛知県幸田町大字深溝字大池田18,1,,,34.835378613002,137.17704989152,
656,E2350100056111,深溝保育園,愛知県幸田町大字深溝字天上坂1-1,1,,,34.834954724673,137.17403205076,
657,E2350100057111,里中央コミュニティホーム,愛知県幸田町大字深溝字内山32,1,,,34.838346215204,137.18128487067,
658,E2350100058111,深溝小学校,愛知県幸田町大字深溝字南道祖神11,1,,,34.834672457322,137.17531188927,
659,E2350100059111,市場中央コミュニティホーム,愛知県幸田町大字深溝字南道祖神26,1,,,34.835067342861,137.17628251073,
660,E2350100060111,深溝老人憩の家,愛知県幸田町大字深溝字南道祖神30-1,1,,,34.834660700055,137.17665027775,
661,E2350100062111,深溝児童館,愛知県幸田町大字深溝字里4-1,1,,,34.838295522709,137.17882119693,
662,E2350100063111,須美老人ふれあいの家,愛知県幸田町大字須美字遣水1-5,1,,,34.856109245908,137.13475581867,
663,E2350100064111,須美公民館,愛知県幸田町大字須美字向屋敷88-2,1,,,34.855895621046,137.13111784777,
664,E2350100065111,北部中学校,愛知県幸田町大字相見字越丸36,1,,,34.887482084109,137.16541728771,
665,E2350100067111,大草老人憩の家,愛知県幸田町大字大草字羽根9,1,,,34.877755663603,137.181076044,
666,E2350100068111,町民会館,愛知県幸田町大字大草字丸山60,1,,,34.87261129383,137.17958860326,
667,E2350100069111,幸田小学校,愛知県幸田町大字大草字三ツ石18,1,,,34.878760039306,137.17264184544,
668,E2350100070111,大草西コミュニティホーム,愛知県幸田町大字大草字寺西16-6,1,,,34.88148610265,137.17583708953,
669,E2350100072111,大草東コミュニティホーム,愛知県幸田町大字大草字祢宜屋敷22-1,1,,,34.877653588373,137.18964834905,
670,E2350100073111,大草南コミュニティホーム,愛知県幸田町大字大草字馬場6-3,1,,,34.874751052399,137.17508361466,
671,E2350100074111,大草保育園,愛知県幸田町大字大草字北川後50,1,,,34.87739002654,137.17380340048,
672,E2350100075111,長嶺コミュニティホーム,愛知県幸田町大字長嶺字南郷中28,1,,,34.897034177958,137.18925061281,
673,E2350100078111,欠間児童館,愛知県幸田町大字菱池字欠間11,1,,,34.87477079776,137.16876648362,
674,E2350100080111,幸田中学校,愛知県幸田町大字菱池字黒方19,1,,,34.866586517366,137.16828412625,
675,E2350100081111,幸田中央公民館,愛知県幸田町大字菱池字黒方78,1,,,34.866084418623,137.1671046461,
676,E2350100082111,岩堀公民館,愛知県幸田町大字菱池字昆沙門1-1,1,,,34.87007062154,137.1669554866,
677,E2350100083111,岩堀老人憩の家,愛知県幸田町大字菱池字昆沙門2,1,,,34.870237868496,137.16713787682,
678,E2350100084111,桜坂コミュニティホーム,愛知県幸田町大字菱池字桜坂31-1,1,,,34.864393986802,137.17007868386,
679,E2350100086111,鷲田コミュニティホーム,愛知県幸田町大字菱池字寺西6,1,,,34.882314231863,137.16405905822,
680,E2350100087111,障害者地域活動支援センター,愛知県幸田町大字菱池字城山143-1,1,,,34.877980810436,137.16031196532,
681,E2350100089111,新田老人憩の家,愛知県幸田町大字菱池字新田110,1,,,34.88423976825,137.14951601845,
682,E2350100090111,菱池保育園,愛知県幸田町大字菱池字前田25-1,1,,,34.870770434755,137.16380351837,
683,E2350100091111,わしだ保育園,愛知県幸田町大字菱池字大久後16-1,1,,,34.879355990537,137.16562683171,
684,E2350100095111,鷲田公民館,愛知県幸田町大字菱池字野々宮102-1,1,,,34.879105147799,137.16621155327,
685,E2350100096111,豊坂保育園,愛知県幸田町大字野場字井戸田40-1,1,,,34.864487105859,137.15428540905,
686,E2350100097111,野場老人憩の家,愛知県幸田町大字野場字下市場53,1,,,34.870509628698,137.14629674607,
687,E2350100098111,野場ふれあいセンター,愛知県幸田町大字野場字下片田19,1,,,34.871554743963,137.14594459864,
688,E2350100100111,勤労者体育センター,愛知県幸田町大字野場字鶏島50-1,1,,,34.865499829897,137.15305511128,
689,E2350100101111,豊坂小学校,愛知県幸田町大字野場字鶏島55,1,,,34.865780944265,137.15370311475,
690,E2350100103111,野場南部コミュニティホーム,愛知県幸田町大字野場字南野105,1,,,34.86738077031,137.14620016318,
691,E2350100107111,六栗コミュニティホーム,愛知県幸田町大字六栗字八幡24-2,1,,,34.854019887419,137.1608501758,
692,E2350100108111,六栗公民館,愛知県幸田町大字六栗字本郷5-1,1,,,34.856679833444,137.16028993179,
693,E2321700001111,古知野東公民館,愛知県江南市宮後町清水161,1,,,35.339938,136.887857,
694,E2321700002111,古知野東小学校（体育館）,愛知県江南市宮後町船渡58,1,,,35.342998737028,136.8817508381,
695,E2321700004111,老人福祉センター,愛知県江南市古知野町宮裏121,1,,,35.339776803321,136.86529174474,
696,E2321700006111,古知野南小学校（体育館）,愛知県江南市古知野町大塔72,1,,,35.334787839406,136.86786846018,
697,E2321700007111,古知野中保育園,愛知県江南市古知野町熱田203,,,,35.342422920263,136.87087007667,
698,E2321700010111,宮田保育園,愛知県江南市後飛保町新開23,,,,35.352466741809,136.84443491647,
699,E2321700011111,宮田中学校（体育館）,愛知県江南市後飛保町前川210,1,,,35.350117201259,136.85091547713,
700,E2321700012111,宮田小学校（体育館）,愛知県江南市後飛保町両家125,1,,,35.351633521595,136.84872348773,
701,E2321700013111,古知野中学校（体育館）,愛知県江南市高屋町遠場148,1,,,35.341891949903,136.87685694719,
702,E2321700014111,江南市武道館,愛知県江南市高屋町清水118,1,,,35.349746,136.874145,
703,E2321700014112,ＫＴＸアリーナ（江南市スポーツセンター）,愛知県江南市高屋町清水118,1,,,35.349746208297,136.87482793825,
704,E2321700016111,布袋北小学校（体育館）,愛知県江南市今市場町秋津220,1,,,35.329644737241,136.88280322055,
705,E2321700017111,布袋南部地区学習等供用施設,愛知県江南市小折本町小松原28,1,,,35.309638,136.88076,
706,E2321700019111,草井小学校（体育館）,愛知県江南市小杁町長者毛西1,1,,,35.362869618063,136.87180492988,
707,E2321700021111,西部中学校（体育館）,愛知県江南市上奈良町観音寺60,1,,,35.325676348265,136.85505687845,
708,E2321700024111,中央保育園,愛知県江南市赤童子町南山33,,,,35.332518470184,136.87485175576,
709,E2321700027111,すいとぴあ江南（研修室Ａ・Ｂ）,愛知県江南市草井町西200,1,,,35.37101436219,136.87881073525,
710,E2321700030111,藤里小学校（体育館）,愛知県江南市村久野町藤里1,1,,,35.358400627013,136.8593966783,
711,E2321700031111,北部中学校（体育館）,愛知県江南市村久野町平松245,1,,,35.359750598437,136.88019281461,
712,E2321700032111,門弟山小学校（体育館）,愛知県江南市村久野町門弟山272,1,,,35.348980827682,136.86333571507,
713,E2321700034111,古知野西小学校（体育館）,愛知県江南市東野町郷前西88,1,,,35.333333829247,136.85100354566,
714,E2321700037111,布袋小学校（体育館）,愛知県江南市布袋下山町南167,1,,,35.31557436776,136.87068794198,
715,E2321700038111,布袋ふれあい会館（会議室・談話室・娯楽室）,愛知県江南市布袋町東359,1,,,35.318910721921,136.87130162175,
716,E2321700041111,布袋中学校（体育館）,愛知県江南市北山町西7,1,,,35.320032148911,136.87621617757,
717,E2321700045111,布袋北部地区学習等供用施設,愛知県江南市木賀町新開278,1,,,35.324232,136.870637,
718,E2321700047111,古知野北小学校（体育館）,愛知県江南市和田町宮145,1,,,35.356243035114,136.88505750237,
719,E2322700001111,吉浜交流館　屋内施設,愛知県高浜市屋敷町5-12-8,1,,,34.940479,136.995865,
720,E2322700002111,吉浜小学校　体育館,愛知県高浜市屋敷町5-8-1,1,,,34.941808083009,136.99774252565,
721,E2322700005121,コミュニケアガーデン高浜,愛知県高浜市呉竹町3-7-12,,受入は、原則として市からの要請による。,要介護の高齢者及び身体障がい者,34.940142561645,136.9902494195,
722,E2322700006121,吉浜保育園,愛知県高浜市呉竹町3-8-20,1,受入は、原則として市からの要請による。,妊産婦及び乳幼児,34.940371230601,136.98985781698,
723,E2322700009111,高取ふれあいプラザ　屋内施設,愛知県高浜市向山町1-214-4,1,,,34.926326809675,137.00193780506,
724,E2322700011121,たかとりこども園,愛知県高浜市向山町2-1-15,,受入は、原則として市からの要請による。,妊産婦及び乳幼児,34.92709325165,137.00441616231,
725,E2322700013121,授産所高浜安立,愛知県高浜市向山町6-1-1,1,受入は、原則として市からの要請による。,知的障がい者及び精神障がい者,34.924107501879,136.9960415669,
726,E2322700014111,旧大山会館,愛知県高浜市春日町2-1-1,1,,,34.931718369653,136.98498235662,
727,E2322700018121,翼幼保園,愛知県高浜市神明町2-8-2,,受入は、原則として市からの要請による。,妊産婦及び乳幼児,34.942552307206,137.00306403623,
728,E2322700019111,翼小学校　体育館,愛知県高浜市神明町5-1-1,1,,,34.936824825898,137.00390908084,
729,E2322700021111,高浜ひかり幼稚園　屋内施設,愛知県高浜市清水町6-6-36,1,,,34.927959698205,137.01737190688,
730,E2322700022111,高浜児童センター,愛知県高浜市青木町6-1-15,1,,,34.923920708384,136.9887788739,
731,E2322700022113,高浜小学校　メインアリーナ,愛知県高浜市青木町6-1-15,1,,,34.92395615262,136.98931217107,
732,E2322700022112,地域交流施設たかぴあ　サブアリーナほか屋内施設,愛知県高浜市青木町6-1-15,1,,,34.923762367425,136.98899881503,
733,E2322700023121,たかはまこども園,愛知県高浜市青木町6-1-94,1,受入は、原則として市からの要請による。,妊産婦及び乳幼児,34.924591528351,136.98897503157,
734,E2322700026121,チャレンジサポートたかはま,愛知県高浜市沢渡町4-6-26,,受入は、原則として市からの要請による。,知的障がい者、精神障がい者及び身体障がい者,34.93060354738,136.99513007664,
735,E2322700027111,東海会館　屋内施設,愛知県高浜市田戸町2-2-59,1,,,34.914647841855,136.98247685813,
736,E2322700028121,南部デイサービスセンター,愛知県高浜市田戸町3-5-25,,受入は、原則として市からの要請による。,要介護の高齢者、身体障がい者、知的障がい者及び精神障がい者,34.911583543874,136.98550080361,
737,E2322700029121,高浜南部保育園,愛知県高浜市田戸町3-5-26,1,受入は、原則として市からの要請による。,妊産婦及び乳幼児,34.911970423762,136.98542328392,
738,E2322700030121,地域連携型福祉施設　あっぽ,愛知県高浜市田戸町3-8-21,,受入は、原則として市からの要請による。,要介護の高齢者、身体障がい者、知的障がい者及び精神障がい者,34.912115289048,136.98467725426,
739,E2322700032121,よしいけ保育園,愛知県高浜市湯山町4-7-13,,受入は、原則として市からの要請による。,妊産婦及び乳幼児,34.934661037686,136.99782493965,
740,E2322700032122,葭池デイサービスセンター,愛知県高浜市湯山町4-7-13,,受入は、原則として市からの要請による。,要介護の高齢者及び身体障がい者,34.934573082038,136.99820581333,
741,E2322700033121,ケアハウス湯山安立,愛知県高浜市湯山町5-7-5,,受入は、原則として市からの要請による。,要介護の高齢者及び身体障がい者,34.9310160268963,137.000489946083,
742,E2322700036111,女性文化センター　屋内施設,愛知県高浜市湯山町6-6-4,1,,,34.930457876128,136.99675102046,
743,E2322700037111,高浜中学校　体育館及び武道場,愛知県高浜市湯山町7-1-1,1,,,34.932698182696,136.99390172383,
744,E2322700038111,南中学校　体育館及び武道場,愛知県高浜市二池町3-3-2,1,,,34.918716991229,136.99386214846,
745,E2322700039111,ボートレースチケットショップ高浜　屋内施設,愛知県高浜市二池町4-5-5,1,,,34.914617875337,136.99378293212,
746,E2322700043121,中央保育園,愛知県高浜市稗田町2-3-7,,受入は、原則として市からの要請による。,妊産婦及び乳幼児,34.927085387441,136.9943202616,
747,E2322700044111,南部第２ふれあいプラザ,愛知県高浜市碧海町3-5-4,1,,,34.918452426291,136.98726007845,
748,E2322700045111,港小学校　体育館,愛知県高浜市碧海町4-1-7,1,,,34.916749258708,136.98423545682,
749,E2322700046121,特別養護老人ホーム　高浜安立荘,愛知県高浜市芳川町1-2-73,1,受入は、原則として市からの要請による。,要介護の高齢者及び身体障がい者,34.941042722622,136.98171085772,
750,E2322700051121,養護老人ホーム　高浜安立,愛知県高浜市豊田町3-1-15,,受入は、原則として市からの要請による。,要介護の高齢者及び身体障がい者,34.937292908809,137.0108245539,
751,E2322700054111,県立高浜高等学校　体育館,愛知県高浜市本郷町1-6-1,1,,,34.928405393563,136.99710716244,
752,E2322700056111,高取小学校　体育館,愛知県高浜市本郷町6-6-1,1,,,34.928355121227,137.00357181168,
753,E2322700060121,こもれびの里・高浜,愛知県高浜市論地町3-6-16,,受入は、原則として市からの要請による。,要介護の高齢者及び身体障がい者,34.917673743315,137.00490775934,
754,E2322700062121,特別養護老人ホーム　論地がるてん,愛知県高浜市論地町3-7-117,,受入は、原則として市からの要請による。,要介護の高齢者及び身体障がい者,34.917397322471,137.00315119297,
755,E2322700064111,コパンスポーツクラブ高浜　屋内施設,愛知県高浜市論地町5-6-55,1,,,34.917588380424,136.99621669153,
756,E2320600002111,春日井市立押沢台小学校,愛知県春日井市押沢台2-7,,,,35.283944,137.065478,
757,E2320600004111,春日井市立南城中学校,愛知県春日井市下市場町1-2-3,,,,35.25625061,136.9997263,
758,E2320600009121,南部ふれあいセンター,愛知県春日井市下条町666-6,,,要配慮者,35.22728,136.97607,
759,E2320600011121,少年自然の家,愛知県春日井市廻間町1102-1,,,要配慮者,35.303683,137.05518,
760,E2320600015121,第二希望の家,愛知県春日井市岩成台3-3-6,,,要配慮者（知的障がい児・者の受入を優先）,35.274676,137.038089,
761,E2320600016111,春日井市立岩成台小学校,愛知県春日井市岩成台6-3,,,,35.276103,137.045874,
762,E2320600017111,春日井市立岩成台西小学校,愛知県春日井市岩成台8-1,,,,35.278661,137.037407,
763,E2320600020121,西部ふれあいセンター,愛知県春日井市宮町3-8-2,,,要配慮者,35.253797,136.945073,
764,E2320600021111,春日井市立春日井小学校,愛知県春日井市宮町字宮町3,,,,35.253336,136.939405,
765,E2320600022111,春日井市立牛山小学校,愛知県春日井市牛山町2150,,,,35.26958,136.939481,
766,E2320600024111,春日井市立玉川小学校,愛知県春日井市玉野町1687,,,,35.273389,137.068556,
767,E2320600026111,春日井市立北城小学校,愛知県春日井市金ケ口町1550,,,,35.265484,137.00561,
768,E2320600027111,春日井市立篠原小学校,愛知県春日井市熊野町北1-1,,,,35.250729,136.995816,
769,E2320600029111,春日井市立鳥居松小学校,愛知県春日井市月見町45,,,,35.24034,136.971702,
770,E2320600031111,春日井市立東高森台小学校,愛知県春日井市高森台7-3,,,,35.295222,137.057796,
771,E2320600032111,春日井市立高森台小学校,愛知県春日井市高森台8-1,,,,35.289824,137.050178,
772,E2320600035121,高蔵寺ふれあいセンター,愛知県春日井市高蔵寺町3-2-1,,,要配慮者,35.262585,137.041565,
773,E2320600037111,春日井市立高座小学校,愛知県春日井市高蔵寺町北4-777-1,,,,35.267766,137.046014,
774,E2320600039121,坂下公民館,愛知県春日井市坂下町4-250-1,,,要配慮者,35.293254,137.021627,
775,E2320600040111,春日井市立坂下小学校,愛知県春日井市坂下町5-324,,,,35.291683,137.02567,
776,E2320600042111,春日井市立篠木小学校,愛知県春日井市篠木町5-1313-3,,,,35.256116,136.98758,
777,E2320600141111,春日井市立東部中学校,愛知県春日井市篠木町6-1315-1,,,,35.254671,136.991135,二次開設避難所
778,E2320600043111,春日井市立勝川小学校,愛知県春日井市若草通2-1-1,,,,35.235162,136.95841,
779,E2320600046111,春日井市立不二小学校,愛知県春日井市出川町3-14-1,,,,35.266863,137.024941,
780,E2320600048111,春日井市立出川小学校,愛知県春日井市出川町8-3-1,,,,35.264081,137.014425,
781,E2320600050111,春日井市立八幡小学校,愛知県春日井市春見町23-2,,,,35.249191,136.975294,
782,E2320600051111,春日井市立山王小学校,愛知県春日井市勝川新町1-49,,,,35.233567,136.949015,
783,E2320600058111,春日井市立小野小学校,愛知県春日井市小野町5-70,,,,35.228849,136.966139,
784,E2320600063111,中部大学（体育館・サブアリーナ）,愛知県春日井市松本町1200,1,,,35.275181,137.012799,
785,E2320600142111,春日井市立坂下中学校,愛知県春日井市神屋町408,,,,35.304864,137.030273,二次開設避難所
786,E2320600065111,春日井市立神屋小学校,愛知県春日井市神屋町860,,,,35.298237,137.024427,
787,E2320600068111,春日井市立神領小学校,愛知県春日井市神領町1-1-8,,,,35.247479,137.008921,
788,E2320600072111,春日井市立西山小学校,愛知県春日井市西山町1575-6,,,,35.278103,136.97427,
789,E2320600073121,ハーモニー春日井,愛知県春日井市西尾町392,,,要配慮者,35.315787,137.043263,
790,E2320600074111,春日井市立西尾小学校,愛知県春日井市西尾町6-6,,,,35.317492,137.042011,
791,E2320600075121,味美ふれあいセンター,愛知県春日井市西本町1-15-1,,,要配慮者,35.233314,136.936585,
792,E2320600078111,春日井市立石尾台小学校,愛知県春日井市石尾台6-2,,,,35.287784,137.060337,
793,E2320600079121,福祉作業所,愛知県春日井市浅山町1-2-61,,,要配慮者（知的障がい児・者の受入を優先）,35.254136,136.984518,
794,E2320600079122,総合福祉センター,愛知県春日井市浅山町1-2-61,,,要配慮者,35.253916,136.983395,
795,E2320600082111,春日井市立大手小学校,愛知県春日井市大手町3-24-1,,,,35.263952,136.958451,
796,E2320600140111,愛知県立春日井泉高等学校,愛知県春日井市大泉寺町1059-1,,,,35.266297,137.001928,二次開設避難所
797,E2320600086121,知多公民館,愛知県春日井市知多町4-55,,,要配慮者,35.23419576,136.9435323,
798,E2320600087121,保健センター,愛知県春日井市中央台1-1-7,,,要配慮者,35.278305,137.04849,
799,E2320600088121,東部市民センター,愛知県春日井市中央台2-2-1,,,要配慮者,35.286333,137.048933,
800,E2320600089111,春日井市立中央台小学校,愛知県春日井市中央台8-3,,,,35.283928,137.051525,
801,E2320600093121,第一希望の家,愛知県春日井市中切町3-3-9,,,要配慮者（知的障がい児・者の受入を優先）,35.223829,136.972336,
802,E2320600095121,鷹来公民館,愛知県春日井市町屋町3610-1,,,要配慮者,35.271514,136.955928,
803,E2320600136111,愛知県立春日井高等学校,愛知県春日井市鳥居松町1-55,,,,35.241829,136.966823,二次開設避難所
804,E2320600138111,愛知県立春日井西高等学校,愛知県春日井市田楽町1320,,,,35.271736,136.949432,二次開設避難所
805,E2320600102111,春日井市立鷹来小学校,愛知県春日井市田楽町1845,,,,35.275287,136.954377,
806,E2320600104111,春日井市立松原小学校,愛知県春日井市東野町1-9,,,,35.263896,136.978772,
807,E2320600105111,春日井市立東野小学校,愛知県春日井市東野町4-13,,,,35.27044,136.98633,
808,E2320600107121,グリーンパレス春日井,愛知県春日井市東野町字落合池1-2,,,要配慮者,35.272169,136.991447,
809,E2320600108111,高蔵寺まなびと交流センター,愛知県春日井市藤山台1-1,,,,35.28543,137.042995,
810,E2320600137111,愛知県立高蔵寺高等学校,愛知県春日井市藤山台1-3-2,,,,35.285553,137.046158,二次開設避難所
811,E2320600109111,春日井市立藤山台小学校,愛知県春日井市藤山台3-2,,,,35.284536,137.036869,
812,E2320600111111,西藤山台運動交流ひろば,愛知県春日井市藤山台5-8,,,,35.279844,137.033161,
813,E2320600113111,春日井市立松山小学校,愛知県春日井市如意申町1-8-1,,,,35.246093,136.942444,
814,E2320600139111,愛知県立春日井南高等学校,愛知県春日井市如意申町3-5-1,,,,35.246254,136.945998,二次開設避難所
815,E2320600120111,春日井市立柏原小学校,愛知県春日井市柏原町5-15,,,,35.248204,136.962788,
816,E2320600127111,春日井市立味美小学校,愛知県春日井市味美町3-41,,,,35.236507,136.943051,
817,E2320600128111,春日井市立白山小学校,愛知県春日井市味美白山町2-3-1,,,,35.231199,136.931726,
818,E2320600132111,春日井市立上条小学校,愛知県春日井市弥生町5277-1,,,,35.239917,136.980549,
819,E2320600135111,春日井市立丸田小学校,愛知県春日井市六軒屋町西1-15-1,,,,35.2583039,136.97106,
820,E2321900001111,安田会館,愛知県小牧市安田町5,,,,35.297486,136.91852,
821,E2321900002111,山北保育園,愛知県小牧市安田町98,,,,35.298938,136.915699,
822,E2321900003111,応時中学校,愛知県小牧市応時1-130,1,,,35.283747,136.93268,
823,E2321900004111,大山保育園,愛知県小牧市応時1-265,,,,35.282546,136.933631,
824,E2321900005111,小牧大山会館,愛知県小牧市応時4-163,,,,35.280895,136.931274,
825,E2321900006111,横内会館,愛知県小牧市横内39,,,,35.318141,136.914038,
826,E2321900007111,北里市民センター,愛知県小牧市下小針中島2-130,,,,35.269364,136.905306,
827,E2321900008111,北里中学校,愛知県小牧市下小針中島2-170,1,,,35.269254,136.903513,
828,E2321900009111,北里小学校,愛知県小牧市下小針中島2-50,1,,,35.270543,136.905189,
829,E2321900010111,北里保育園,愛知県小牧市下小針中島2-90,,,,35.270101,136.906313,
830,E2321900011111,下小針会館,愛知県小牧市下小針天神3-23,,,,35.269133,136.908143,
831,E2321900012111,下末参集殿,愛知県小牧市下末1475,,,,35.284426,136.959313,
832,E2321900013111,河内屋会館,愛知県小牧市河内屋新田749,,,,35.318641,136.911923,
833,E2321900014111,御屋敷会館,愛知県小牧市外堀1-103,,,,35.281796,136.912454,
834,E2321900015111,池新田会館,愛知県小牧市外堀2-241,,,,35.278959,136.91096,
835,E2321900016111,小針入鹿新田会館,愛知県小牧市外堀3-110,,,,35.276578,136.908871,
836,E2321900017111,小牧市スポーツ公園,愛知県小牧市間々原新田737,1,,,35.304605,136.922222,
837,E2321900018111,間々原会館,愛知県小牧市間々原新田917-1,,,,35.302379,136.917161,
838,E2321900019111,間々会館,愛知県小牧市間々本町354,1,,,35.296834,136.911072,
839,E2321900020111,岩崎西区区会会館,愛知県小牧市岩崎1-186-1,,,,35.31244401362,136.92839535392,
840,E2321900021111,岩崎中会館,愛知県小牧市岩崎1337,,,,35.312678,136.932264,
841,E2321900022111,岩崎団地ふれあい会館,愛知県小牧市岩崎1500,,,,35.316553,136.928688,
842,E2321900023111,岩崎保育園,愛知県小牧市岩崎1533-4,,,,35.317269,136.931248,
843,E2321900024111,岩崎中学校,愛知県小牧市岩崎2588,1,,,35.310831,136.922485,
844,E2321900025111,岩崎原会館,愛知県小牧市岩崎原3-118,,,,35.317285,136.925274,
845,E2321900026111,小牧特別支援学校,愛知県小牧市久保一色1129-2,1,,,35.31735,136.93983,
846,E2321900027111,久保一色本田会館,愛知県小牧市久保一色1781-1,,,,35.318399,136.938012,
847,E2321900028111,田県久保山会館,愛知県小牧市久保一色237-7,,,,35.317736,136.945827,
848,E2321900029111,久保一色会館,愛知県小牧市久保一色3179-4,,,,35.319782,136.932485,
849,E2321900030111,ガーデン岩崎会館,愛知県小牧市久保一色3411-17,,,,35.314963,136.933335,
850,E2321900031111,一色小学校,愛知県小牧市久保一色3500,1,,,35.316877,136.93215,
851,E2321900032111,小牧工科高校,愛知県小牧市久保一色3737-1,1,,,35.320296197954,136.92723145767,
852,E2321900154121,第３老人福祉センター,愛知県小牧市久保一色954-1,,,避難行動要支援者,35.319363,136.943653,
853,E2321900033111,一色保育園,愛知県小牧市久保一色南2-8,,,,35.318762,136.936654,
854,E2321900034111,味岡市民センター,愛知県小牧市久保新町60,,,,35.311082,136.939183,
855,E2321900035111,久保会館,愛知県小牧市久保本町33-2,,,,35.312744,136.940066,
856,E2321900036111,郷中会館,愛知県小牧市郷中2-186,,,,35.276777,136.918962,
857,E2321900037111,南スポーツセンター,愛知県小牧市郷中2-201,1,,,35.276632,136.92119,
858,E2321900038111,元町会館,愛知県小牧市元町1-120,,,,35.290532,136.905168,
859,E2321900039111,古雅集会所,愛知県小牧市古雅2-25,,,,35.301646,136.978987,
860,E2321900040111,古雅保育園,愛知県小牧市古雅3-54,,,,35.301939,136.97716,
861,E2321900041111,池之内川南集会場,愛知県小牧市古雅4-83,,,,35.305728,136.977457,
862,E2321900042111,光ケ丘小学校,愛知県小牧市光ケ丘3-50,1,,,35.303352,136.992685,
863,E2321900043111,光ケ丘中学校,愛知県小牧市光ケ丘3-52,1,,,35.302282,136.993759,
864,E2321900044111,光ケ丘会館,愛知県小牧市光ケ丘3-64,,,,35.300435,136.991289,
865,E2321900045111,高根会館,愛知県小牧市高根3-401,,,,35.288075,136.973715,
866,E2321900046111,さくら保育園,愛知県小牧市桜井40,,,,35.284009,136.921718,
867,E2321900047111,三ツ渕保育園,愛知県小牧市三ツ渕1622,,,,35.291617,136.893812,
868,E2321900048111,三ツ渕北保育園,愛知県小牧市三ツ渕2130-1,,,,35.30012,136.889272,
869,E2321900049111,三ツ渕原団地会館,愛知県小牧市三ツ渕2350-198,,,,35.299806,136.885816,
870,E2321900050111,三ツ渕小学校,愛知県小牧市三ツ渕480,1,,,35.29198,136.892909,
871,E2321900051111,三ツ渕会館,愛知県小牧市三ツ渕534-4,,,,35.292305,136.891602,
872,E2321900052111,市之久田会館,愛知県小牧市市之久田1-338-1,,,,35.271443,136.920285,
873,E2321900053111,篠岡会館,愛知県小牧市篠岡1-36,,,,35.305177,136.984605,
874,E2321900054111,東部市民センター,愛知県小牧市篠岡2-23,,,,35.30271,136.982487,
875,E2321900055111,篠岡小学校,愛知県小牧市篠岡2-25,1,,,35.304,136.982276,
876,E2321900056111,篠岡中学校,愛知県小牧市篠岡2-28,1,,,35.30518,136.982343,
877,E2321900057111,篠岡保育園,愛知県小牧市篠岡2-30,,,,35.307818,136.981896,
878,E2321900058111,小牧南小学校,愛知県小牧市若草町82,1,,,35.279896,136.923839,
879,E2321900059111,舟津会館,愛知県小牧市舟津839-4,,,,35.287597,136.896481,
880,E2321900060111,春日寺会館,愛知県小牧市春日寺1-137,,,,35.256635,136.931901,
881,E2321900061111,小松寺団地会館,愛知県小牧市小松寺1118-296,,,,35.309792,136.949667,
882,E2321900062111,味岡中学校,愛知県小牧市小松寺4-1,1,,,35.308506845942,136.94433436442,
883,E2321900063111,小松寺会館,愛知県小牧市小松寺5-118,,,,35.308368,136.943058,
884,E2321900064111,味岡小学校,愛知県小牧市小松寺5-150,1,,,35.307371690562,136.94119191534,
885,E2321900065111,小針会館,愛知県小牧市小針2-228,,,,35.274657,136.915941,
886,E2321900066121,第２老人福祉センター,愛知県小牧市小針2-572-2,,,避難行動要支援者,35.271512,136.916861,
887,E2321900067111,大輪体育館,愛知県小牧市小牧1-114,,,,35.293763,136.919045,
888,E2321900068111,大輪井上会館,愛知県小牧市小牧1-117,,,,35.293699,136.919319,
889,E2321900069111,小牧高校,愛知県小牧市小牧1-321,1,,,35.292933,136.918563,
890,E2321900070111,寺浦会館,愛知県小牧市小牧1-494,,,,35.291091,136.91911,
891,E2321900071111,市民会館,愛知県小牧市小牧2-107,1,,,35.293507,136.923459,
892,E2321900072111,第二保育園,愛知県小牧市小牧2-216,,,,35.292495,136.924633,
893,E2321900073111,小牧小学校,愛知県小牧市小牧3-17,1,,,35.291216,136.923485,
894,E2321900074111,浦田五共会館,愛知県小牧市小牧3-58,,,,35.291226,136.923994,
895,E2321900075111,東町会館,愛知県小牧市小牧4-368,,,,35.287693,136.92382,
896,E2321900076111,小牧中部公民館,愛知県小牧市小牧5-253,,,,35.288861,136.919179,
897,E2321900077111,西町会館,愛知県小牧市小牧5-627,,,,35.288816,136.917453,
898,E2321900078111,南岩崎台会館,愛知県小牧市小牧原1-45,,,,35.307061,136.926748,
899,E2321900079111,小牧原西部会館,愛知県小牧市小牧原1-98,,,,35.306957,136.924239,
900,E2321900080111,小牧原北会館,愛知県小牧市小牧原2-157,,,,35.306075,136.932077,
901,E2321900081111,小牧原西会館,愛知県小牧市小牧原新田1031-1,,,,35.301915,136.925389,
902,E2321900082111,小牧原小学校,愛知県小牧市小牧原新田1125,1,,,35.301312,136.922254,
903,E2321900083111,小牧原会館,愛知県小牧市小牧原新田1672,,,,35.300976,136.929722,
904,E2321900084111,小牧原街道会館,愛知県小牧市小牧原新田1850-1,,,,35.300409,136.933897,
905,E2321900085111,上新町会館,愛知県小牧市小牧原新田442-1,,,,35.294093,136.9307,
906,E2321900086111,小牧原南会館,愛知県小牧市小牧原新田745-104,,,,35.297555,136.930343,
907,E2321900087111,小木保育園,愛知県小牧市小木2-350-1,,,,35.280583,136.900301,
908,E2321900088111,小木上会館,愛知県小牧市小木2-361,,,,35.280314,136.899785,
909,E2321900089111,小木中会館,愛知県小牧市小木3-321,,,,35.277841,136.898805,
910,E2321900090111,小木下会館,愛知県小牧市小木4-143,,,,35.276403,136.894543,
911,E2321900091111,小木小学校,愛知県小牧市小木西2-1,1,,,35.278133,136.89315,
912,E2321900092111,小牧南高校,愛知県小牧市小木東2-183,1,,,35.276303,136.901898,
913,E2321900093111,とみづか会館,愛知県小牧市小木南3-443,,,,35.270863,136.891885,
914,E2321900094111,小牧勤労センター,愛知県小牧市上末2233-2,1,,,35.292931,136.954778,
915,E2321900095111,上末会館,愛知県小牧市上末3158-9,,,,35.293976,136.963071,
916,E2321900096111,陶小学校,愛知県小牧市上末3450-282,1,,,35.293885,136.964929,
917,E2321900098111,陶保育園,愛知県小牧市上末字稲葉台1,,,,35.292589,136.960458,
918,E2321900100111,大城保育園,愛知県小牧市城山3-2-1,,,,35.294694,136.988519,
919,E2321900101111,大城小学校,愛知県小牧市城山3-8,1,,,35.293494,136.989219,
920,E2321900102111,城山会館,愛知県小牧市城山5-117,,,,35.295541,136.983869,
921,E2321900103111,常普請会館,愛知県小牧市常普請2-170,,,,35.283926,136.917821,
922,E2321900104111,トラックターミナル会館,愛知県小牧市新小木1-72,,,,35.282919,136.887027,
923,E2321900106111,懐会館,愛知県小牧市新町1-158,,,,35.29802,136.92093,
924,E2321900107111,大新田会館,愛知県小牧市新町2-294,,,,35.294828,136.926133,
925,E2321900108111,レイモンド小牧保育園,愛知県小牧市新町3-135,,,,35.296176160945,136.92961607103,
926,E2321900109111,小牧西中学校,愛知県小牧市西之島2200,1,,,35.291169,136.89688,
927,E2321900110111,西部コミュニティセンター,愛知県小牧市西之島528-1,,,,35.298801,136.897284,
928,E2321900111111,西之島会館,愛知県小牧市西之島746-1,,,,35.296581,136.901247,
929,E2321900112111,村中小学校,愛知県小牧市村中1045,1,,,35.306809,136.906727,
930,E2321900113111,村中会館,愛知県小牧市村中388-1,,,,35.298025,136.905096,
931,E2321900114111,多気会館,愛知県小牧市多気西町134-1,,,,35.262604,136.900463,
932,E2321900116111,リサイクルプラザ,愛知県小牧市大草5786-83,,,,35.308314,137.006222,
933,E2321900117111,小牧ケ丘老人憩の家,愛知県小牧市大草5962-3,,,,35.3061,137.008631,
934,E2321900118111,大草会館,愛知県小牧市大草中27,,,,35.28955,136.992643,
935,E2321900119111,池之内会館,愛知県小牧市池之内774,,,,35.312113,136.975217,
936,E2321900120111,朝日会館,愛知県小牧市中央1-128,,,,35.291304,136.928221,
937,E2321900121111,米野小学校,愛知県小牧市中央5-339,1,,,35.285574,136.937054,
938,E2321900122121,あさひ学園,愛知県小牧市中央6-101,,,避難行動要支援者,35.285442,136.931701,
939,E2321900122111,第一幼稚園,愛知県小牧市中央6-101,,,,35.285733,136.931648,
940,E2321900123111,米野会館,愛知県小牧市中央6-271,,,,35.284968,136.934775,
941,E2321900124111,哥津会館,愛知県小牧市東3-20,,,,35.280248,136.942744,
942,E2321900125111,東新会館,愛知県小牧市東新町184,,,,35.284685,136.926177,
943,E2321900126111,東田中会館,愛知県小牧市東田中227,,,,35.302877,136.938797,
944,E2321900127111,東田中老人憩の家,愛知県小牧市東田中569-1,,,,35.300316,136.939052,
945,E2321900128111,桃ケ丘会館,愛知県小牧市桃ケ丘1-47-1,,,,35.298291,136.978865,
946,E2321900129111,桃陵中学校,愛知県小牧市桃ケ丘2-1,1,,,35.29727,136.979162,
947,E2321900130111,桃ケ丘小学校,愛知県小牧市桃ケ丘2-3,1,,,35.29806,136.977404,
948,E2321900131111,藤島団地会館,愛知県小牧市藤島1-79,,,,35.271396,136.885799,
949,E2321900132111,藤島会館,愛知県小牧市藤島町居屋敷186,,,,35.266829,136.884135,
950,E2321900133111,梵天藤栄会館,愛知県小牧市藤島町梵天110-2,,,,35.270568,136.890259,
951,E2321900134111,藤島保育園,愛知県小牧市藤島町梵天110-35,,,,35.269034,136.891966,
952,E2321900135111,南外山会館,愛知県小牧市南外山259-2,,,,35.269864,136.926695,
953,E2321900136111,二重堀会館,愛知県小牧市二重堀491-1,,,,35.291902,136.938124,
954,E2321900137111,入鹿会館,愛知県小牧市入鹿出新田483,,,,35.30897,136.904992,
955,E2321900138111,文津会館,愛知県小牧市文津801-1,,,,35.306123,136.946462,
956,E2321900139111,南部コミュニティセンター,愛知県小牧市北外山1187,,,,35.274882,136.92874,
957,E2321900140111,北外山会館,愛知県小牧市北外山1337,,,,35.274104,136.927213,
958,E2321900141111,みどり台会館,愛知県小牧市北外山1962-89,,,,35.282512,136.928763,
959,E2321900142111,桜井会館,愛知県小牧市北外山610,,,,35.284491,136.924046,
960,E2321900144111,堀の内会館,愛知県小牧市堀の内2-109,,,,35.291128,136.907666,
961,E2321900145111,小牧中学校,愛知県小牧市堀の内4-30,1,,,35.287484,136.911986,
962,E2321900146111,本庄会館,愛知県小牧市本庄2112-1,,,,35.307734,136.956749,
963,E2321900147111,タウン本庄会館,愛知県小牧市本庄2588-214,,,,35.310526,136.954046,
964,E2321900148111,本庄小学校,愛知県小牧市本庄2597-40,1,,,35.31208,136.953269,
965,E2321900149111,本庄保育園,愛知県小牧市本庄2597-433,,,,35.312163,136.951964,
966,E2321900150111,本庄台老人憩の家,愛知県小牧市本庄2613-304,,,,35.311646195337,136.96140067909,
967,E2321900151121,第１老人福祉センター,愛知県小牧市野口2426-1,,,避難行動要支援者,35.318179,136.992592,
968,E2321900152111,野口会館,愛知県小牧市野口柿花73,,,,35.313726,136.990343,
969,E2321900153111,林会館,愛知県小牧市林北101-4,,,,35.316164,136.981512,
970,E2321600134111,サザンアリーナ,愛知県常滑苅屋字加茂151,,,,34.851742,136.865076,
971,E2321600002111,空港島第１旅客ターミナルビル,愛知県常滑市セントレア1-1,1,,,34.85906,136.814503,
972,E2321600005111,西浦北小学校,愛知県常滑市井戸田町3-177,1,,,34.873976,136.857691,
973,E2321600008111,鬼崎中保育園,愛知県常滑市榎戸町1-106,1,,,34.910483,136.828674,
974,E2321600009111,榎戸公会堂,愛知県常滑市榎戸町1-52,1,,,34.910687,136.828576,
975,E2321600014111,奥条会館オクトピア,愛知県常滑市奥条7-31,,,,34.88718,136.85242,
976,E2321600015111,常石保育園,愛知県常滑市奥条7-36,1,,,34.886673,136.852195,
977,E2321600017111,南陵公民館,愛知県常滑市苅屋字加茂151,1,,,34.851672,136.865623,
978,E2321600018111,苅屋公民館,愛知県常滑市苅屋町2-23,1,,,34.85534,136.861582,
979,E2321600019111,南陵中学校,愛知県常滑市苅屋町5-50,1,,,34.852386,136.863375,
980,E2321600021111,久米公民館,愛知県常滑市久米字松下101,,,,34.925942,136.850548,
981,E2321600022111,三和小学校,愛知県常滑市久米字諏訪山183,1,,,34.927643,136.856841,
982,E2321600025111,常滑市体育館,愛知県常滑市金山字下砂原78-1,1,,,34.91601,136.84027,
983,E2321600135111,常滑高等学校,愛知県常滑市金山字四井池10,,,,34.913961,136.839574,
984,E2321600029111,前山会館,愛知県常滑市金山字前田111,1,,,34.923724,136.844288,
985,E2321600031111,青海中学校,愛知県常滑市金山字南平井13-1,1,,,34.9267,136.839428,
986,E2321600032111,三和南保育園,愛知県常滑市金山字平井120,1,,,34.925312,136.848749,
987,E2321600033111,石瀬公会堂,愛知県常滑市金山字北平井99,1,,,34.927656,136.840123,
988,E2321600034111,宮山公会堂,愛知県常滑市金山字油手36-1,,,,34.928409,136.837781,
989,E2321600035111,青海こども園,愛知県常滑市金山字油手6,1,,,34.928562,136.83476,
990,E2321600041111,西浦南小学校,愛知県常滑市古場字栗下前5,1,,,34.857974,136.862273,
991,E2321600046111,広目公会堂,愛知県常滑市広目字前田面1-2,1,,,34.821226,136.878433,
992,E2321600048111,鬼崎中学校,愛知県常滑市港町3-1,1,,,34.907822,136.824035,
993,E2321600128111,ＳＡＫＡＩ保育園,愛知県常滑市坂井字東垣内51-2,1,,,34.818954,136.868448,
994,E2321600055111,丸山保育園,愛知県常滑市山方町7-156,1,,,34.876871,136.844759,
995,E2321600058111,常滑中学校,愛知県常滑市字二ノ田16-14,1,,,34.899097,136.860746,
996,E2321600059111,鬼崎北小学校,愛知県常滑市住吉町2-56,1,,,34.924755,136.825569,
997,E2321600060111,鬼崎北保育園,愛知県常滑市住吉町5-36,1,,,34.923397,136.82988,
998,E2321600062111,小倉公会堂,愛知県常滑市小倉町3-261-2,,,,34.936162,136.833787,
999,E2321600065111,三和西保育園,愛知県常滑市小倉町8-110,1,,,34.932917,136.832943,
1000,E2321600066111,蒲池コミュニティセンター,愛知県常滑市小林町3-113-1,1,,,34.919397,136.82637,
1001,E2321600067111,鈴渓会館,愛知県常滑市小鈴谷字荒子103-1,,,,34.829041,136.871376,
1002,E2321600072111,ボートレースとこなめ（東スタンド２・３階）,愛知県常滑市新開町4-111,,,,34.885795,136.83393,
1003,E2321600073111,鬼崎西保育園,愛知県常滑市新田町2-18-3,1,,,34.910833,136.823819,
1004,E2321600077111,とこなめ市民交流センター,愛知県常滑市神明町3-35,,,,34.915518,136.828214,
1005,E2321600080111,瀬木会館,愛知県常滑市瀬木町1-32,,,,34.886823,136.844473,
1006,E2321600081111,瀬木保育園,愛知県常滑市瀬木町2-94,1,,,34.887077,136.846511,
1007,E2321600082111,常滑東小学校,愛知県常滑市瀬木町4-100,1,,,34.888778,136.848627,
1008,E2321600084111,西之口公民館,愛知県常滑市西之口8-1,1,,,34.927792,136.825295,
1009,E2321600090111,大谷公会堂,愛知県常滑市大谷字奥條24-7,,,,34.842784,136.86599,
1010,E2321600095111,小鈴谷保育園,愛知県常滑市大谷朝陽ケ丘1-95,1,,,34.836854,136.870175,
1011,E2321600133111,小鈴谷小学校,愛知県常滑市大谷朝陽ヶ丘1-94,,,,34.836427,136.869381,
1012,E2321600096111,青海公民館,愛知県常滑市大塚町177,,,,34.931051,136.842342,
1013,E2321600098111,大野小学校,愛知県常滑市大野町10-70,1,,,34.932995,136.828296,
1014,E2321600104111,樽水公民館,愛知県常滑市樽水町4-77,1,,,34.874628,136.848792,
1015,E2321600106111,多屋公民館,愛知県常滑市虹の丘5-74,,,,34.900184,136.837113,
1016,E2321600111111,保示会館,愛知県常滑市保示町1-111,1,,,34.878613,136.841237,
1017,E2321600113111,常滑西小学校,愛知県常滑市本町3-136,1,,,34.884353,136.84265,
1018,E2321600114111,鬼崎南小学校,愛知県常滑市明和町2-47,1,,,34.905894,136.831712,
1019,E2321600117111,矢田公民館,愛知県常滑市矢田字青木118,1,,,34.931813,136.865922,
1020,E2321600122111,檜原公会堂,愛知県常滑市檜原字平井前1-11,1,,,34.855843,136.887436,
1021,E2322100002121,新城市養護老人ホーム　寿楽荘,愛知県新城市一鍬田字東清水野12-3,,,高齢者,34.867279525438,137.50050842638,
1022,E2322100005111,旧黄柳野小学校,愛知県新城市黄柳野字池田684-23,1,,,34.874704529374,137.57929139904,
1023,E2322100006121,鳳来ケアセンター,愛知県新城市下吉田字下田18-3,,,高齢者,34.910061149686,137.60480021754,
1024,E2322100007111,黄柳川小学校,愛知県新城市下吉田字五反田187-1,1,,,34.905929585147,137.6059261059,
1025,E2322100008111,旧海老小学校,愛知県新城市海老字宮前17,1,,,35.025574489924,137.55848389991,
1026,E2322100009111,海老構造改善センター,愛知県新城市海老字千原田5-1,1,,,35.020293087558,137.55558163311,
1027,E2322100010111,吉川公民館,愛知県新城市吉川字上林55-1,1,,,34.883096425889,137.55052051653,
1028,E2322100012111,鳳来寺小学校,愛知県新城市玖老勢字大栗平1,1,,,34.978650971513,137.56202952483,
1029,E2322100013121,鳳来こども園,愛知県新城市玖老勢字便福17,,,小学生以下の子（障碍児を含む。）,34.984210632532,137.55754121643,
1030,E2322100014111,玖老勢コミュニティプラザ,愛知県新城市玖老勢字薮ノ内12-3,1,,,34.98648746957,137.55995810057,
1031,E2322100015121,小規模多機能ホームろくじゅ新城,愛知県新城市黒田字萩平野69-2,,,高齢者,34.868765291793,137.50536206698,
1032,E2322100016111,作手農村環境改善センター,愛知県新城市作手高松字柿平9-7,1,,,34.947739691602,137.45496039098,
1033,E2322100085111,作手中学校,愛知県新城市作手高里字ブック田5,1,,,34.97996916,137.42380729,
1034,E2322100017121,作手子育て支援センター,愛知県新城市作手高里字縄手上20-1,,,小学生以下の子（障碍児を含む。）,34.976194531917,137.42084082281,
1035,E2322100018121,高齢者生活福祉センター　虹の郷,愛知県新城市作手高里字縄手上22,,,高齢者,34.97590082892,137.42157305228,
1036,E2322100019111,つくで交流館　作手小学校,愛知県新城市作手高里字縄手上28-1,1,,,34.976349743246,137.4226148859,
1037,E2322100021111,新城有教館高等学校作手校舎,愛知県新城市作手高里字木戸口1-2,1,,,34.977628265648,137.42570451867,
1038,E2322100022111,作手農村集落多目的共同利用施設,愛知県新城市作手菅沼字マンゼ18,1,,,35.030586955783,137.46184318659,
1039,E2322100024111,旧開成小学校,愛知県新城市作手田原字朴橋3,1,,,34.991117064737,137.4278081713,
1040,E2322100080111,新城有教館高等学校,愛知県新城市桜淵・中野合併地,1,,,34.898633944777,137.50597924841,
1041,E2322100026111,旧連谷小学校,愛知県新城市四谷3-2,1,,,35.044161673508,137.5622701592,
1042,E2322100028121,城北子育て支援センター,愛知県新城市字宮ノ後39-2,,,小学生以下の子（障碍児を含む。）,34.90346570156,137.49394157714,
1043,E2322100030111,新城小学校,愛知県新城市字西入船76,1,,,34.897755690303,137.49704054775,
1044,E2322100031111,新城中学校,愛知県新城市字滝ノ上1,1,,,34.899100312786,137.5014785017,
1045,E2322100032111,七郷一色コミュニティプラザ,愛知県新城市七郷一色字西貝津26-2,1,,,34.965879117374,137.67879692625,
1046,E2322100034111,山吉田トレーニングセンター,愛知県新城市上吉田字山本2-2,1,,,34.901483056996,137.60154643759,
1047,E2322100035121,山吉田こども園,愛知県新城市上吉田字松沢5,,,小学生以下の子（障碍児を含む。）,34.899986835209,137.60375190201,
1048,E2322100036121,東郷西こども園,愛知県新城市上平井字昭和970,,,小学生以下の子（障碍児を含む。）,34.911849356471,137.50455646152,
1049,E2322100039111,千郷小学校,愛知県新城市杉山字前野4-1,1,,,34.89629558966,137.48355601452,
1050,E2322100040111,西部公民館,愛知県新城市杉山字道目記24,1,,,34.896155071506,137.48232391387,
1051,E2322100040112,千郷中学校,愛知県新城市杉山字道目記24,1,,,34.896846461059,137.48203884619,
1052,E2322100041121,千郷東こども園,愛知県新城市杉山字野中64-1,,,小学生以下の子（障碍児を含む。）,34.897541648032,137.48195317449,
1053,E2322100042111,鳳来東小学校,愛知県新城市川合字コシ75-1,1,,,35.003049746785,137.66513796369,
1054,E2322100047121,大野こども園,愛知県新城市大野字久羅下39,,,小学生以下の子（障碍児を含む。）,34.949534579892,137.60445070936,
1055,E2322100048111,鳳来中央集会所,愛知県新城市大野字久羅下39-2,1,,,34.94872853248,137.60354976365,
1056,E2322100049111,東陽小学校,愛知県新城市大野字小林70,1,,,34.948971655458,137.60852348332,
1057,E2322100083111,東郷中学校,愛知県新城市竹広字宮川162-2,1,,,34.916313213378,137.52191272973,
1058,E2322100052121,長篠こども園,愛知県新城市長篠字丸井19-1,,,小学生以下の子（障碍児を含む。）,34.938070289956,137.57559546614,
1059,E2322100053111,鳳来中部小学校,愛知県新城市長篠字竹田14,1,,,34.931484843325,137.56794770429,
1060,E2322100054111,鳳来中学校,愛知県新城市長篠字仲野1,1,,,34.935725027062,137.57429887309,
1061,E2322100055111,庭野小学校,愛知県新城市庭野字川大田33,1,,,34.889701006312,137.49747494241,
1062,E2322100057111,舟着小学校,愛知県新城市日吉字小袋13,1,,,34.902628697324,137.52362893463,
1063,E2322100058111,東部高齢者生きがいセンター,愛知県新城市能登勢字白岩32,1,,,34.975832793581,137.61567557395,
1064,E2322100059111,東郷東小学校,愛知県新城市八束穂402-2,1,,,34.922442386535,137.53153360405,
1065,E2322100061121,八名こども園,愛知県新城市富岡字杉畑54-5,,,小学生以下の子（障碍児を含む。）,34.862811151773,137.50816435627,
1066,E2322100063111,八名中学校,愛知県新城市富岡字萩平野3,1,,,34.863923629317,137.50534606027,
1067,E2322100064111,八名小学校,愛知県新城市富岡字半ノ木15-1,1,,,34.861622182405,137.50601610823,
1068,E2322100081111,旧鳳来西小学校,愛知県新城市布里字小松ヶ根50,1,,,34.989086531682,137.52066534164,
1069,E2322100068111,東郷西小学校,愛知県新城市平井字東原37-1,1,,,34.909127995915,137.50816149577,
1070,E2322100075111,千郷西こども園,愛知県新城市豊島字馬渡11-2,1,,,34.880834651064,137.46696361874,
1071,E2322100086121,西部福祉会館,愛知県新城市野田字上市場26-2,,,障がい者,34.888679,137.472525,
1072,E2322100078121,社会福祉法人　新城福祉会　レインボーはうす,愛知県新城市矢部字本並48,,,障がい者,34.918324976216,137.50819001265,
1073,E2320400001111,西陵小学校,愛知県瀬戸市すみれ台1-77,1,,,35.239529,137.074475,
1074,E2320400002111,西陵地域交流センター,愛知県瀬戸市はぎの台1-1,1,,,35.238328,137.071643,
1075,E2320400003111,南山中学校,愛知県瀬戸市ひまわり台5-1,1,,,35.235638,137.07176,
1076,E2320400004111,掛川小学校,愛知県瀬戸市下半田川町592-41,1,,,35.284336,137.108737,
1077,E2320400005111,下半田川町民会館,愛知県瀬戸市下半田川町842,1,,,35.287891,137.119836,
1078,E2320400006112,旧深川小学校,愛知県瀬戸市宮脇町53,1,,,35.228703,137.104667,
1079,E2320400006111,深川公民館,愛知県瀬戸市宮脇町53,1,,,35.228092,137.104178,
1080,E2320400007111,本地会館,愛知県瀬戸市駒前町20-1,1,,,35.204117,137.063294,
1081,E2320400008111,陶原公民館,愛知県瀬戸市熊野町98,1,,,35.220308,137.089346,
1082,E2320400009111,原山小学校,愛知県瀬戸市原山台3-98,1,,,35.208841,137.090053,
1083,E2320400010111,原山公民館,愛知県瀬戸市原山台8-163,1,,,35.212841,137.097555,
1084,E2320400011111,水無瀬中学校,愛知県瀬戸市原山町1,1,,,35.216824,137.093028,
1085,E2320400012111,陶原小学校,愛知県瀬戸市原山町1-3,1,,,35.218816,137.090474,
1086,E2320400013111,旧古瀬戸小学校,愛知県瀬戸市古瀬戸町70,1,,,35.227362,137.113536,
1087,E2320400014111,品野中学校,愛知県瀬戸市広之田町2-5,1,,,35.256356,137.128893,
1088,E2320400015111,水野小学校,愛知県瀬戸市小田妻町2-22,1,,,35.245243,137.081847,
1089,E2320400016111,祖母懐公民館,愛知県瀬戸市上ノ切町43,1,,,35.221212,137.106155,
1090,E2320400017111,上半田川町民会館,愛知県瀬戸市上半田川町362-1,1,,,35.272205,137.14481,
1091,E2320400018111,品野台地域交流センター,愛知県瀬戸市上品野町1211,1,,,35.255525847662,137.13499134293,
1092,E2320400019111,品野台小学校,愛知県瀬戸市上品野町1234,1,,,35.255496,137.133319,
1093,E2320400021111,長根公民館,愛知県瀬戸市城屋敷町22,1,,,35.21767,137.072603,
1094,E2320400024111,古瀬戸公民館,愛知県瀬戸市西拝戸町16-10,1,,,35.226367,137.113949,
1095,E2320400025111,東明公民館,愛知県瀬戸市西拝戸町16-3,1,,,35.224906,137.127536,
1096,E2320400026111,にじの丘学園,愛知県瀬戸市中山町1-57,1,,,35.219848,137.111297,
1097,E2320400027111,水野地域交流センター,愛知県瀬戸市中水野町1-150,1,,,35.245682,137.081579,
1098,E2320400029111,山口公民館,愛知県瀬戸市田中町108,1,,,35.196232,137.101305,
1099,E2320400033111,東山小学校,愛知県瀬戸市東山町71,1,,,35.230139,137.066922,
1100,E2320400034112,水南小学校,愛知県瀬戸市東松山町154,1,,,35.231106,137.08207,
1101,E2320400034111,水南公民館,愛知県瀬戸市東松山町154,1,,,35.230307,137.082305,
1102,E2320400035111,新郷地域交流センター,愛知県瀬戸市東赤重町1-100,1,,,35.209097315837,137.08575869797,
1103,E2320400036111,長根小学校,愛知県瀬戸市東長根町166,1,,,35.214219,137.076091,
1104,E2320400037111,旧東明小学校,愛知県瀬戸市東明町50,1,,,35.22372,137.126708,
1105,E2320400039111,旧道泉小学校,愛知県瀬戸市道泉町44,1,,,35.22637,137.093874,
1106,E2320400040111,道泉地域交流センター,愛知県瀬戸市道泉町53-5,1,,,35.225313,137.093425,
1107,E2320400041111,瀬戸ＳＯＬＡＮ小学校,愛知県瀬戸市道泉町76-1,1,,,35.22690099,137.0923929,
1108,E2320400042111,水野中学校,愛知県瀬戸市日の出町34,1,,,35.244743,137.076941,
1109,E2320400043111,萩山小学校,愛知県瀬戸市萩山台2-22,1,,,35.21308,137.099044,
1110,E2320400044111,萩山公民館,愛知県瀬戸市萩山台4-2-2,1,,,35.211331,137.1025,
1111,E2320400045111,光陵中学校,愛知県瀬戸市萩山台9-244,1,,,35.206826,137.099121,
1112,E2320400047111,幡山公民館,愛知県瀬戸市幡山町71,1,,,35.202556,137.080351,
1113,E2320400048111,幡山西小学校,愛知県瀬戸市幡西町203,1,,,35.20253,137.070412,
1114,E2320400049111,幡山中学校,愛知県瀬戸市幡中町106,1,,,35.197246,137.080716,
1115,E2320400050111,八幡公民館,愛知県瀬戸市八幡台1-145-2,1,,,35.208092,137.094414,
1116,E2320400051111,八幡小学校,愛知県瀬戸市八幡台3-1,1,,,35.207469,137.095524,
1117,E2320400052111,幡山東小学校,愛知県瀬戸市八幡町455,1,,,35.201661,137.105742,
1118,E2320400053111,下品野地域交流センター,愛知県瀬戸市品野町6-116,1,,,35.25078,137.123925,
1119,E2320400054111,下品野小学校,愛知県瀬戸市品野町6-223,1,,,35.251263,137.121172,
1120,E2320400056111,效範公民館,愛知県瀬戸市北山町39,1,,,35.225626,137.072136,
1121,E2320400059111,效範小学校,愛知県瀬戸市效範町1-1,1,,,35.222299,137.070237,
1122,E2323300003111,星の宮小学校,愛知県清須市阿原神門125,1,,,35.2090344212961,136.855986236136,
1123,E2323300064111,県立新川高校,愛知県清須市阿原北野18,1,,,35.214745,136.861282,
1124,E2323300004111,清洲中学校,愛知県清須市一場695,1,,,35.2218195552852,136.843906729893,
1125,E2323300010111,中之切保育園,愛知県清須市春日砂賀東95,1,,,35.2312403530852,136.84856507648,
1126,E2323300012111,春日中学校,愛知県清須市春日振形126,1,,,35.2384965860224,136.841382786494,
1127,E2323300013111,春日小学校,愛知県清須市春日振形131,1,,,35.237049953059,136.84195812522,
1128,E2323300015111,ネギヤ保育園,愛知県清須市春日須ケ田21,1,,,35.2429253383912,136.835087916476,
1129,E2323300021111,新川小学校,愛知県清須市須ケ口1239,1,,,35.1992160762998,136.852352753041,
1130,E2323300022111,新川中学校,愛知県清須市須ケ口750,1,,,35.2040085466311,136.84746883433,
1131,E2323300026111,五条川防災センター,愛知県清須市清洲1-6-1,1,,,35.216879,136.837202,
1132,E2323300024111,清洲小学校,愛知県清須市清洲1013,1,,,35.2142078588217,136.837623944623,
1133,E2323300027121,清須市清洲勤労福祉会館（アルコ清洲）,愛知県清須市清洲2537,,,高齢者（要介護1～3） 障害者（身体障害者2～6級）,35.2130614359599,136.844161728284,
1134,E2323300028111,清洲東小学校,愛知県清須市清洲2576,1,,,35.2133480031154,136.842686398691,
1135,E2323300030111,清洲市民センター,愛知県清須市清洲弁天96-1,1,,,35.2168594377128,136.845532463354,
1136,E2323300036111,西枇杷島中学校,愛知県清須市西枇杷島町七畝割3-1,1,,,35.1997714008868,136.857924824864,
1137,E2323300037111,西枇杷島小学校,愛知県清須市西枇杷島町住吉1,1,,,35.1982546581559,136.865118421271,
1138,E2323300039111,にしび創造センター,愛知県清須市西枇杷島町小田井1-12-1,1,,,35.2036353612748,136.871755529909,
1139,E2323300042111,古城小学校,愛知県清須市西枇杷島町城並2-2-1,1,,,35.2084907501621,136.8705815665,
1140,E2323300045111,西枇杷島福祉センター,愛知県清須市西枇杷島町大野37-1,1,,,35.1938658554945,136.86051659104,
1141,E2323300052111,新川防災センター,愛知県清須市中河原10,1,,,35.1918456953066,136.850602195806,
1142,E2323300058111,桃栄小学校,愛知県清須市桃栄2-21,1,,,35.1973423294569,136.839446012354,
1143,E2321300001111,一色中部小学校,愛知県西尾市一色町一色下乾地55,1,,,34.815416036443,137.02537029673,
1144,E2321300002111,一色町公民館・一色地域交流センター,愛知県西尾市一色町一色東前新田8,1,,,34.806377106238,137.02825177815,
1145,E2321300003111,佐久島しおさい学校,愛知県西尾市一色町佐久島影無50,1,,,34.72728408,137.042846,
1146,E2321300004111,佐久島開発総合センター,愛知県西尾市一色町佐久島掛梨40,1,,,34.727321,137.044119,
1147,E2321300005111,一色町体育館,愛知県西尾市一色町坂田新田沖向95,1,,,34.787954,137.021274,
1148,E2321300006111,一色西部小学校,愛知県西尾市一色町治明通縄68,1,,,34.821861051583,137.01634369426,
1149,E2321300007111,一色西部保育園,愛知県西尾市一色町治明東川田2-1,1,,,34.820760797648,137.01527400257,
1150,E2321300008111,一色南部小学校,愛知県西尾市一色町中外沢上大割115,1,,,34.809941068909,137.01637711909,
1151,E2321300009111,一色東部小学校,愛知県西尾市一色町野田堤外36,1,,,34.797207039971,137.03812785303,
1152,E2321300010111,福地北部小学校,愛知県西尾市鵜ケ池町大道10,1,,,34.845999177879,137.05938492537,
1153,E2321300012111,東部中学校,愛知県西尾市下永良町西後落20,1,,,34.872690365433,137.10100097415,
1154,E2321300013111,総合福祉センター,愛知県西尾市花ノ木町2-1,1,,,34.8678295008,137.05844623603,
1155,E2321300014111,西尾コンベンションホール,愛知県西尾市花ノ木町4-64,,,,34.8639256211,137.05682422815,
1156,E2321300015111,県立鶴城丘高等学校,愛知県西尾市亀沢町300,1,,,34.873022683318,137.04890559676,
1157,E2321300091111,ホワイトウェイブ２１,愛知県西尾市吉良町岡山大岩山70,1,,,34.846296,137.077994,
1158,E2321300017111,荻原小学校,愛知県西尾市吉良町荻原烏帽子16,1,,,34.808739848093,137.06269176802,
1159,E2321300018111,吉良カントリークラブ,愛知県西尾市吉良町乙川北大山31,1,,,34.799271814081,137.0927213866,
1160,E2321300019111,吉良保健センター,愛知県西尾市吉良町吉田大切間17-3,1,,,34.796453356172,137.06484735949,
1161,E2321300020111,吉田小学校,愛知県西尾市吉良町吉田大切間18,1,,,34.796455481391,137.0666920399,
1162,E2321300021111,横須賀ふれあいセンター,愛知県西尾市吉良町小牧郷前5,1,,,34.828299001623,137.0780353671,
1163,E2321300022111,横須賀保育園,愛知県西尾市吉良町上横須賀宮腰162,1,,,34.833061546991,137.07427567523,
1164,E2321300023111,横須賀小学校,愛知県西尾市吉良町上横須賀菱池13-1,1,,,34.827329537357,137.07203346883,
1165,E2321300024111,津平保育園,愛知県西尾市吉良町津平下天神34,1,,,34.828084802888,137.10027065967,
1166,E2321300025111,津平小学校,愛知県西尾市吉良町津平大入1,1,,,34.826352447173,137.09516840608,
1167,E2321300026111,県立吉良高等学校,愛知県西尾市吉良町白浜新田南切1-4,,,,34.786822508168,137.0775299133,
1168,E2321300027111,白浜小学校,愛知県西尾市吉良町白浜新田北切1,1,,,34.7888543062,137.0799455144,
1169,E2321300029111,寺津小学校,愛知県西尾市巨海町若宮西25-1,1,,,34.837492838493,137.01829103723,
1170,E2321300030111,寺津中学校,愛知県西尾市巨海町若宮西5,1,,,34.838391682657,137.01956716894,
1171,E2321300031111,西尾小学校,愛知県西尾市錦城町162-1,1,,,34.865847307566,137.04926335674,
1172,E2321300032111,西尾幼稚園,愛知県西尾市錦城町162-13,1,,,34.865297644184,137.04778960722,
1173,E2321300034111,花ノ木小学校,愛知県西尾市高畠町6-1,1,,,34.861203968918,137.05759848282,
1174,E2321300035111,花ノ木保育園,愛知県西尾市今川町石橋8-2,1,,,34.859523803349,137.06063674476,
1175,E2321300036111,西尾中学校,愛知県西尾市今川町土井堀1,1,,,34.856758388973,137.06800206717,
1176,E2321300037111,福地北部保育園,愛知県西尾市細池町天神東11,1,,,34.845417423681,137.05876799254,
1177,E2321300038111,県立西尾高等学校,愛知県西尾市桜町奥新田2-2,,,,34.88260190493,137.0542573266,
1178,E2321300039111,鶴城小学校,愛知県西尾市桜町溜池27-5,1,,,34.880033611648,137.05490300916,
1179,E2321300040111,文化会館,愛知県西尾市山下町泡原30,1,,,34.86336555487,137.04543012226,
1180,E2321300042112,白ばら園,愛知県西尾市室町中屋敷95,1,,,34.856906886907,137.10216170428,
1181,E2321300042111,室場保育園,愛知県西尾市室町中屋敷95,1,,,34.857003729634,137.10251039144,
1182,E2321300043111,室場小学校,愛知県西尾市室町東毘沙門32,1,,,34.858156518132,137.09728030444,
1183,E2321300045111,スポーツ公園　総合体育館,愛知県西尾市小島町大郷1-1,1,,,34.88471263055,137.08387936421,
1184,E2321300046111,西野町ふれあいセンター,愛知県西尾市上町下屋敷17-2,1,,,34.87660297139,137.03716691353,
1185,E2321300047111,西野町小学校,愛知県西尾市上町御所ノ下20,1,,,34.873115078486,137.04040723249,
1186,E2321300048111,福地中学校,愛知県西尾市上道目記町上新田3,1,,,34.835296686148,137.0431450296,
1187,E2321300049111,矢田小学校,愛知県西尾市上矢田町神明寺24,1,,,34.854397233221,137.03072422011,
1188,E2321300050111,幡豆いきいきセンター,愛知県西尾市西幡豆町仲田14-2,1,,,34.793137649168,137.12505759432,
1189,E2321300051111,見影保育園,愛知県西尾市西幡豆町北岡割1,1,,,34.794599010619,137.11752499741,
1190,E2321300051112,幡豆小学校,愛知県西尾市西幡豆町北岡割1,1,,,34.795096805325,137.11851205032,
1191,E2321300053111,中畑小学校,愛知県西尾市中畑町犬塚65,1,,,34.869217146041,137.02250486988,
1192,E2321300055111,中央体育館,愛知県西尾市丁田町前通120,1,,,34.857459083399,137.06917298181,
1193,E2321300056111,鶴城中学校,愛知県西尾市鶴城町上道天1-2,1,,,34.876658124209,137.05577882265,
1194,E2321300057111,鶴城体育館,愛知県西尾市鶴城町上道天24-1,1,,,34.876342562305,137.05635989928,
1195,E2321300058111,東幡豆小学校,愛知県西尾市東幡豆町中尾10-2,1,,,34.791576513892,137.14742274573,
1196,E2321300059111,東幡豆体育館,愛知県西尾市東幡豆町中尾3-1,1,,,34.790948432855,137.14684760007,
1197,E2321300060111,東幡豆保育園,愛知県西尾市東幡豆町中尾36,,,,34.791652208288,137.1484829895,
1198,E2321300061111,ユリアいぶんこども園,愛知県西尾市道光寺町天王下30-2,1,,,34.869953709614,137.05912030027,
1199,E2321300063111,福地南部小学校,愛知県西尾市熱池町古新田42,1,,,34.835725721054,137.04546790887,
1200,E2321300064111,八ツ面小学校,愛知県西尾市八ツ面町市場71,1,,,34.876653979709,137.07160831433,
1201,E2321300065111,平坂中学校,愛知県西尾市平坂町吉山1-1,1,,,34.859563048699,137.02030488933,
1202,E2321300066111,西尾勤労会館,愛知県西尾市平坂町山崎9-1,1,,,34.860112,137.02148,
1203,E2321300067111,平坂小学校,愛知県西尾市平坂町輪当1,1,,,34.861489966322,137.01967539912,
1204,E2321300068111,米津小学校,愛知県西尾市米津町家下18,1,,,34.894480604458,137.05557458738,
1205,E2321300069111,三和小学校,愛知県西尾市米野町松葉内25,1,,,34.880458480549,137.10028547505,
1206,E2356100001121,老人福祉施設やすらぎの里,愛知県設楽町荒尾字宝ノ久保9,,,要配慮者,35.0896584349555,137.590471931843,
1207,E2356100007121,愛厚清嶺の風,愛知県設楽町清崎字沖13-4,,,要配慮者,35.0630423434016,137.549473862992,
1208,E2356100054111,清嶺保育園,愛知県設楽町清崎字沖23-1,,,,35.063366,137.548539,
1209,E2356100010111,清嶺小学校,愛知県設楽町清崎字箱上24,1,,,35.0670482106987,137.552960133134,
1210,E2356100012111,愛知県立田口高等学校,愛知県設楽町清崎字林ノ後5-2,1,,,35.0929209620196,137.568172636164,
1211,E2356100023111,つぐグリーンプラザ,愛知県設楽町津具字下川原6-1,1,,,35.1655502937184,137.621846172563,
1212,E2356100029111,農業構造改善センター,愛知県設楽町津具字本間7,1,,,35.1610003953637,137.633798945312,
1213,E2356100033111,田口特産物振興センター,愛知県設楽町田口字向木屋3-1,,,,35.0962633359587,137.572295687103,
1214,E2356100034111,設楽中学校,愛知県設楽町田口字大西8-1,1,,,35.1004122461506,137.573163815193,
1215,E2356100035111,田口小学校,愛知県設楽町田口字白根土1-1,1,,,35.0996075899079,137.576440442219,
1216,E2356100039111,旧田峯小学校,愛知県設楽町田峯字下畑9,1,,,35.057339,137.532207,
1217,E2356100040111,田峯農村環境改善センター,愛知県設楽町田峯字手籠前37,,,,35.0591757959201,137.531895928552,
1218,E2356100055111,名倉体育館,愛知県設楽町東納庫字ヲトシ山1-68,,,,35.154417,137.533652,
1219,E2356100045111,名倉小学校,愛知県設楽町東納庫字丸根2-6,1,,,35.15389,137.535223,
1220,E2356100047121,設楽福祉村キラリンとーぷ,愛知県設楽町東納庫字松山6-2,1,,要配慮者,35.142134,137.554547,
1221,E2336100001111,さつきケ丘防災センター,愛知県大口町さつきケ丘2-258,1,,,35.344458108537,136.90879791421,
1222,E2336100004111,大口町立大口中学校屋内運動場,愛知県大口町丸1-38,1,,,35.333051712775,136.90507477857,
1223,E2336100005111,大口町民会館,愛知県大口町丸2-8,,,,35.332260344821,136.90621102811,
1224,E2336100008112,大口町大口北防災センター,愛知県大口町城屋敷1-308,1,,,35.340755926654,136.91683966392,
1225,E2336100009111,大口町立北保育園,愛知県大口町中小口2-619,,,,35.346317528238,136.91722440643,
1226,E2336100010111,大口町立大口北小学校屋内運動場,愛知県大口町中小口3-258,1,,,35.339160771265,136.92250278471,
1227,E2336100011121,大口町健康文化センター（ほほえみプラザ）,愛知県大口町伝右1-35,1,,要配慮者,35.328362908355,136.91001559982,
1228,E2336100011111,大口町健康文化センター（ほほえみプラザ）,愛知県大口町伝右1-35,1,,,35.328489828733,136.91002096423,
1229,E2336100012111,大口町中央公民館,愛知県大口町伝右1-47,1,,,35.328630692751,136.91087434771,
1230,E2336100013111,大口町立大口南小学校屋内運動場,愛知県大口町奈良子3-116,1,,,35.318996275086,136.89543914373,
1231,E2336100014111,大口町立大口西小学校屋内運動場,愛知県大口町余野6-440,1,,,35.338850844675,136.90531149231,
1232,E2342400019111,大治町総合福祉センター「希望の家」,愛知県大治町大字砂子字西河原18,1,,,35.166125,136.817935,
1233,E2342400024111,大治南保育園,愛知県大治町大字砂子字中割28,1,,,35.160285,136.82775,
1234,E2342400017111,大治町砂子東部防災ふれあいセンター,愛知県大治町大字砂子字柳原78-1,1,,,35.158415,136.831584,
1235,E2342400023111,大治南小学校,愛知県大治町大字砂子字勇八前320,1,,,35.166282,136.819296,
1236,E2342400014111,大治西小学校,愛知県大治町大字西條字松下100,1,,,35.181031,136.812009,
1237,E2342400018111,大治町西條防災コミュニティセンター,愛知県大治町大字西條字諏訪24-1,1,,,35.181001,136.814295,
1238,E2342400022111,多世代交流センター,愛知県大治町大字西條字西之割60-1,1,,,35.175115,136.811236,
1239,E2342400021111,大治町立公民館,愛知県大治町大字馬島字大門西10,1,,,35.174781,136.81967,
1240,E2342400020111,大治町八ツ屋防災コミュニティセンター,愛知県大治町大字八ツ屋字山畔25-1,1,,,35.167473,136.830758,
1241,E2342400016111,大治町スポーツセンター,愛知県大治町大字北間島字藤田33-1,1,,,35.178448,136.829666,
1242,E2342400013111,大治小学校,愛知県大治町大字堀之内字南二反畑606,1,,,35.175805,136.821612,
1243,E2342400015111,大治中学校,愛知県大治町大字堀之内字半之返791,1,,,35.177369,136.826169,
1244,E2322300001111,大府東高校体育館,愛知県大府市横根町膝折1-4,1,,,35.021247622792,136.97950210113,
1245,E2322300003111,メディアス体育館おおぶ,愛知県大府市横根町平地191,1,,,35.012962199617,136.976098376506,
1246,E2322300004111,横根公民館,愛知県大府市横根町平地295,1,,,35.013612,136.979356,
1247,E2322300035121,デイパーク大府,愛知県大府市横根町箕手87-1,,,高齢者,35.03232,136.976391,１５世帯４５人
1248,E2322300034121,東あけび苑,愛知県大府市横根町名高山149-1,,,障がい者,35.023526,136.973467,４世帯１６人
1249,E2322300037121,ゆずの里,愛知県大府市梶田町2-70,,,高齢者,35.040064,136.966837,４世帯１２人
1250,E2322300006111,北山公民館,愛知県大府市梶田町6-274,1,,,35.033868,136.968767,
1251,E2322300036121,らくる大府,愛知県大府市吉川町4-111,,,,35.0039,136.923509,５世帯１３人
1252,E2322300007111,吉田小学校体育館,愛知県大府市吉田町4-33,1,,,35.001922841525,136.93280225083,
1253,E2322300008111,共和西小学校体育館,愛知県大府市共西町1-206,1,,,35.03805171142,136.94376777727,
1254,E2322300009111,共長公民館,愛知県大府市共和町2-8-2,1,,,35.035909155883,136.95127884469,
1255,E2322300010111,共長小学校体育館,愛知県大府市共和町6-140,1,,,35.031297435872,136.95076193324,
1256,E2322300043121,就職トレーニングセンター,愛知県大府市共和町7-83,,,障がい者,35.036989,136.9476,４世帯１２人
1257,E2322300011111,大府高校体育館,愛知県大府市月見町6-180,1,,,35.003625830423,136.95830075583,
1258,E2322300012111,石ヶ瀬会館,愛知県大府市江端町4-1,1,,,35.011738805231,136.9508880673,
1259,E2322300041121,発達支援センターおひさま,愛知県大府市江端町6-19,,,障がい児,35.011615,136.950057,９世帯３６人
1260,E2322300038121,あけび苑,愛知県大府市江端町6-9,,,障がい者,35.011955,136.949036,４世帯１０人
1261,E2322300014111,石ヶ瀬小学校体育館,愛知県大府市江端町6-99,1,,,35.010659398783,136.94970372602,
1262,E2322300015111,吉田公民館,愛知県大府市高丘町2-2,1,,,34.998503095273,136.93417464172,
1263,E2322300016111,森岡公民館,愛知県大府市森岡町4-7,1,,,35.005365830952,136.95012035082,
1264,E2322300017111,大府特別支援学校体育館,愛知県大府市森岡町7-427,1,,,34.999038910569,136.95376444956,
1265,E2322300042121,発達支援センターみのり,愛知県大府市森岡町8-172-2,,,障がい児,35.000362,136.952278,４世帯１６人
1266,E2322300018111,神田公民館,愛知県大府市神田町3-115,1,,,35.025284,136.98883,
1267,E2322300019111,神田小学校体育館,愛知県大府市神田町3-135,1,,,35.025397043122,136.98806634208,
1268,E2322300020111,大東小学校体育館,愛知県大府市大東町2-61,1,,,35.007029545428,136.97253709843,
1269,E2322300021111,大府公民館,愛知県大府市中央町4-195,1,,,35.007762548546,136.96410973035,
1270,E2322300022111,桃陵高校体育館,愛知県大府市中央町5-15,1,,,35.013320566285,136.96183142494,
1271,E2322300023111,東山小学校体育館,愛知県大府市長根町3-111,1,,,35.026335326792,136.96304276834,
1272,E2322300039121,特別養護老人ホーム大府の郷,愛知県大府市長草町ドンド19,,,高齢者,35.030567,136.942509,３世帯１２人
1273,E2322300024111,大府西中学校体育館,愛知県大府市長草町車池11,1,,,35.022593211111,136.9449694902,
1274,E2322300025111,東山公民館,愛知県大府市追分町2-341,1,,,35.029171,136.959999,
