NO,共通ID,施設・場所名,住所,指定緊急避難場所との住所同一,その他市町村長が必要と認める事項,受入対象者,緯度,経度,備考
1,E2542500001111,愛知川公民館,滋賀県愛荘町愛知川13-2,1,,,35.1710725895745,136.211753110464,
2,E2542500002111,愛知川保健センター,滋賀県愛荘町愛知川72,1,,,35.1688023854384,136.212316084464,
3,E2542500003121,福祉センターラポール秦荘いきいきセンター,滋賀県愛荘町安孫子1216-1,1,,要配慮者,35.1725757639456,136.250676904457,
4,E2542500003111,福祉センターラポール秦荘いきいきセンター,滋賀県愛荘町安孫子1216-1,1,,,35.1725485220354,136.250787467727,
5,E2542500004111,秦荘中学校,滋賀県愛荘町安孫子730,1,,,35.1747939789019,136.245944270995,
6,E2542500005111,子育て支援センターあいっ子,滋賀県愛荘町安孫子811-1,1,,,35.1755449968744,136.245538652854,
7,E2542500006111,愛知川小学校,滋賀県愛荘町沓掛480,1,,,35.1789947570748,136.210973207085,
8,E2542500007111,福祉センター愛の郷,滋賀県愛荘町市731,1,,,35.1729077613995,136.210359756516,
9,E2542500007121,福祉センター愛の郷,滋賀県愛荘町市731,1,,要配慮者,35.1727751635124,136.21024979429,
10,E2542500008111,愛知中学校,滋賀県愛荘町市779,1,,,35.1727813695071,136.212837490685,
11,E2542500009111,つくし保育園,滋賀県愛荘町川原680,1,,,35.1902677755407,136.202668747072,
12,E2542500010111,秦荘西小学校,滋賀県愛荘町島川1162,1,,,35.1668217907244,136.230836882119,
13,E2542500011111,秦荘東小学校,滋賀県愛荘町東出25,1,,,35.1774360402219,136.258887786365,
14,E2542500012111,愛知川東小学校,滋賀県愛荘町豊満573,1,,,35.1656965257072,136.21191706876,
15,E2520800001111,栗東市立治田東小学校,滋賀県栗東市安養寺147,1,,,35.0158981794485,136.003235597667,
16,E2520800002121,なごやかセンター,滋賀県栗東市安養寺190,1,,要配慮者,35.0176248566341,136.004180966329,
17,E2520800003111,コミュニティセンター治田東,滋賀県栗東市安養寺205,1,,,35.0176972498871,136.002896691356,
18,E2520800004111,学習支援センター,滋賀県栗東市安養寺3-1-1,1,,,35.021584116132,136.002323326867,
19,E2520800005111,栗東市立栗東中学校,滋賀県栗東市安養寺6-6-15,1,,,35.0193434701071,135.995503512766,
20,E2520800006111,栗東市立治田東こども園,滋賀県栗東市安養寺6-7-12,1,,,35.019892897602,135.996360832031,
21,E2520800010111,栗東市立金勝こども園,滋賀県栗東市御園1009-1,,,,34.9977386661993,136.022496518695,
22,E2520800011111,ＪＲＡ・トレセン厚生会館,滋賀県栗東市御園1028,1,,,35.0009817005189,136.014206027484,
23,E2520800011112,金勝第２保育園,滋賀県栗東市御園1028,1,,,35.0026778523506,136.014281129337,
24,E2520800012111,栗東市立金勝小学校,滋賀県栗東市御園911-1,1,,,34.9969104991856,136.0236852435,
25,E2520800013111,コミュニティセンター金勝,滋賀県栗東市御園982,1,,,34.9969371234583,136.022507038551,
26,E2520800014111,金勝児童館,滋賀県栗東市御園983,1,,,34.9975946890175,136.02311319683,
27,E2520800015111,荒張スポーツ広場,滋賀県栗東市荒張669,1,,,34.9885265306999,136.022944196147,
28,E2520800016112,栗東市立葉山保育園（幼児園）,滋賀県栗東市高野289,1,,,35.0332219815335,136.012434476873,
29,E2520800016111,栗東市立葉山幼稚園（幼児園）,滋賀県栗東市高野289,1,,,35.0330199267823,136.012799257296,
30,E2520800017111,栗東市立葉山小学校,滋賀県栗東市高野310,1,,,35.032824376979,136.013396195321,
31,E2520800018111,葉山児童館,滋賀県栗東市高野568-1,1,,,35.0353092280776,136.012835818809,
32,E2520800019111,コミュニティセンター葉山,滋賀県栗東市高野622-1,1,,,35.0354849229685,136.013350802947,
33,E2520800021111,高野公園,滋賀県栗東市高野727,1,,,35.0355087691762,136.019295138726,
34,E2520800022111,栗東市ひだまりの家,滋賀県栗東市十里399-3,1,,,35.0471045086165,135.96188122115,
35,E2520800024111,大宝西保育園,滋賀県栗東市十里400,1,,,35.0467462513187,135.961999142485,
36,E2520800025111,十里体育館,滋賀県栗東市十里405-1,1,,,35.0464620855947,135.96107726581,
37,E2520800026111,野洲川体育館,滋賀県栗東市出庭2083,1,,,35.0475610863171,136.011710855525,
38,E2520800027121,やすらぎの家,滋賀県栗東市出庭700-1,1,,要配慮者,35.0365519262247,136.004229337795,
39,E2520800032111,治田西スポーツセンター,滋賀県栗東市小柿1-1-11,1,,,35.0260750382561,135.978605970758,
40,E2520800029121,ゆうあいの家,滋賀県栗東市小柿1-10-10,1,,要配慮者,35.0271930952444,135.977380300338,
41,E2520800031111,栗東市立治田西小学校,滋賀県栗東市小柿1-5-21,1,,,35.0260667561578,135.974801081929,
42,E2520800034111,コミュニティセンター治田西,滋賀県栗東市小柿5-1-8,1,,,35.0251071547568,135.974900350412,
43,E2520800036111,栗東市立葉山東小学校,滋賀県栗東市小野320,1,,,35.0231784305822,136.01365993511,
44,E2520800037111,滋賀県立国際情報高等学校,滋賀県栗東市小野36,1,,,35.01765664,136.0184094,
45,E2520800040112,栗東市立葉山東幼稚園（幼児園）,滋賀県栗東市小野465-1,1,,,35.023592,136.012585,
46,E2520800040111,栗東市立葉山東保育園（幼児園）,滋賀県栗東市小野465-1,1,,,35.0235707615378,136.012666180771,
47,E2520800042111,葉山東児童館,滋賀県栗東市小野480-1,1,,,35.0231389985224,136.011485623269,
48,E2520800043111,滋賀県立栗東高等学校,滋賀県栗東市小野618,1,,,35.02252761,136.0066144,
49,E2520800044111,栗東市民体育館,滋賀県栗東市川辺390-1,1,,,35.0168989702736,135.991529792002,
50,E2520800045111,滋賀県立聾唖学校,滋賀県栗東市川辺664,1,,,35.0208946191115,135.9925200151,
51,E2520800046111,栗東市立治田西保育園（幼児園）,滋賀県栗東市中沢1-4-22,1,,,35.0268812396992,135.975742682364,
52,E2520800047111,栗東市立治田西幼稚園（幼児園）,滋賀県栗東市中沢1-6-3,1,,,35.0270262029588,135.975120409871,
53,E2520800050111,コミュニティセンター治田,滋賀県栗東市坊袋161-1,1,,,35.0196422553158,135.983700251409,
54,E2520800052111,栗東市立治田保育園,滋賀県栗東市坊袋162,1,,,35.0194107215212,135.983270186155,
55,E2520800053111,栗東市立治田小学校,滋賀県栗東市坊袋77,1,,,35.0189894863596,135.984319181971,
56,E2520800054111,治田児童館,滋賀県栗東市目川871-1,1,,,35.019340732944,135.981501851225,
57,E2520800055111,栗東市立治田幼稚園,滋賀県栗東市目川871-2,1,,,35.0197405163615,135.981265816836,
58,E2520800056111,栗東市立大宝東小学校,滋賀県栗東市野尻502-1,1,,,35.0379897926233,135.987998012381,
59,E2520800058111,大宝カナリヤ保育園,滋賀県栗東市野尻584,1,,,35.0358281751653,135.985657335801,
60,E2520800059111,栗東市立大宝西小学校,滋賀県栗東市霊仙寺4-2-55,1,,,35.0422572283819,135.966617192212,
61,E2520800060111,コミュニティセンター大宝西,滋賀県栗東市霊仙寺4-2-63,1,,,35.04194900277,135.967839631095,
62,E2520800061111,大宝西児童館,滋賀県栗東市霊仙寺4-2-66,1,,,35.041737912936,135.968114696429,
63,E2520800064111,大宝西幼稚園,滋賀県栗東市霊仙寺5-6-19,1,,,35.0412420122412,135.968777498105,
64,E2520800065111,コミュニティセンター葉山東,滋賀県栗東市六地蔵714-1,1,,,35.0238346068204,136.014885301369,
65,E2520800067111,栗東市立葉山中学校,滋賀県栗東市六地蔵888,1,,,35.0283938299738,136.013988652685,
66,E2520800068111,栗東芸術文化会館さきら,滋賀県栗東市綣2-1-28,1,,,35.0357508185326,135.984096608656,
67,E2520800071111,栗東市立栗東西中学校,滋賀県栗東市綣4-13-47,1,,,35.0357176715936,135.973198434515,
68,E2520800073111,大宝児童館,滋賀県栗東市綣6-13-10,1,,,35.0377739526532,135.977396138732,
69,E2520800074111,栗東市立大宝小学校,滋賀県栗東市綣7-14-19,1,,,35.0384862369909,135.978518939682,
70,E2520800075111,大宝公園,滋賀県栗東市綣7-5-5,1,,,35.0406518285994,135.981502087446,
71,E2520800077111,コミュニティセンター大宝,滋賀県栗東市綣7-9-21,1,,,35.0394070057918,135.979268607592,
72,E2520800079111,大宝こども園,滋賀県栗東市綣8-16-9,1,,,35.0402445528334,135.976202555721,
73,E2521100001111,雨山第二体育館,滋賀県湖南市雨山2-1-1,,,,35.005318,136.043492,
74,E2521100001112,雨山体育館,滋賀県湖南市雨山2-1-1,,,,35.005941,136.04335,
75,E2521100002111,下田まちづくりセンター,滋賀県湖南市下田1515,,,,35.025481,136.131469,
76,E2521100003111,下田こども園,滋賀県湖南市下田2224,1,,,35.021738,136.133754,
77,E2521100004111,下田小学校,滋賀県湖南市下田2784,1,,,35.021876,136.130734,
78,E2521100005111,夏見会館,滋賀県湖南市夏見1505-1,,,,34.993206,136.090166,
79,E2521100006111,三雲小学校,滋賀県湖南市夏見1857,1,,,34.990802,136.091518,
80,E2521100007111,保健センター,滋賀県湖南市夏見588,,,,34.997432,136.096653,
81,E2521100008111,教育サポートセンター,滋賀県湖南市柑子袋557-2,,,,35.007447,136.074197,
82,E2521100009111,柑子袋まちづくりセンター,滋賀県湖南市柑子袋860-1,,,,35.002623,136.070033,
83,E2521100011111,石部南小学校,滋賀県湖南市丸山1-1-1,1,,,34.997958,136.055458,
84,E2521100012111,京進のようちえん　ＨＯＰＰＡ石部南,滋賀県湖南市丸山1-1-2,1,,,34.999513,136.054809,
85,E2521100013111,石部高等学校,滋賀県湖南市丸山2-3-1,1,,,34.995036,136.051247,
86,E2521100014111,岩根まちづくりセンター,滋賀県湖南市岩根1155-1,,,,35.002319,136.112688,
87,E2521100015111,岩根こども園,滋賀県湖南市岩根2225,,,,35.001313,136.11412,
88,E2521100016111,岩根小学校,滋賀県湖南市岩根3791,1,,,35.006478,136.097847,
89,E2521100017111,市民産業交流促進施設（ここぴあ）,滋賀県湖南市岩根4528-1,,,,34.9966910535961,136.106803632086,
90,E2521100018111,日枝中学校,滋賀県湖南市岩根499-351,1,,,35.016586,136.118132,
91,E2521100020111,京進のようちえん　ＨＯＰＰＡ石部,滋賀県湖南市宮の森1-1-1,1,,,35.004443,136.061027,
92,E2521100021111,三雲児童館,滋賀県湖南市三雲1126,,,,34.984314,136.11009,
93,E2521100022111,三雲くじら保育園,滋賀県湖南市三雲1168,,,,34.984581,136.108755,
94,E2521100023111,三雲まちづくりセンター,滋賀県湖南市三雲1186,1,,,34.984662,136.107193,
95,E2521100023112,みくも地域人権福祉市民交流センター,滋賀県湖南市三雲1186,1,,,34.984615,136.106873,
96,E2521100024111,三雲東小学校,滋賀県湖南市三雲3100,1,,,34.974757,136.107684,
97,E2521100025111,甲西高等学校,滋賀県湖南市針1,1,,,35.003239834815,136.089529227099,
98,E2521100026111,甲西中学校,滋賀県湖南市針284,1,,,35.002146,136.084446,
99,E2521100027111,水戸小学校,滋賀県湖南市水戸町31-1,1,,,35.011864,136.122827,
100,E2521100028111,甲西北中学校,滋賀県湖南市正福寺28-1,1,,,35.013575,136.085937,
101,E2521100030111,水戸まちづくりセンター,滋賀県湖南市西峰町1,,,,35.013061,136.126383,
102,E2521100031111,市民学習交流センター（サンヒルズ甲西）,滋賀県湖南市西峰町1-1,1,,,35.013739,136.126033,
103,E2521100032111,いしべ交流センター,滋賀県湖南市石部西2-12-6,,,,35.013681,136.051793,
104,E2521100033111,石部保健センター,滋賀県湖南市石部中央1-1-3,,,,35.010021,136.059755,
105,E2521100034111,石部軽運動場,滋賀県湖南市石部中央1-1-5,,,,35.010279,136.058664,
106,E2521100035111,石部文化ホール,滋賀県湖南市石部中央1-2-3,,,,35.010688,136.059302,
107,E2521100036111,石部小学校,滋賀県湖南市石部中央2-3-1,1,,,35.006781,136.058255,
108,E2521100037111,石部保育園,滋賀県湖南市石部中央3-9-20,1,,,35.008712,136.054129,
109,E2521100038111,石部コミュニティセンター,滋賀県湖南市石部東7-6-1,1,,,35.004169,136.063917,
110,E2521100039111,石部南まちづくりセンター,滋賀県湖南市石部南3-5-1,1,,,34.994109,136.061694,
111,E2521100040111,阿星あかつき保育園,滋賀県湖南市石部南5-1-1,,,,34.99528,136.061116,
112,E2521100041111,甲西文化ホール,滋賀県湖南市中央5-57,,,,35.004943,136.085532,
113,E2521100042111,じゅらくの里「福祉パーク館」,滋賀県湖南市東寺4-4-1,1,,,34.987184,136.058953,
114,E2521100043111,京進のほいくえん　ＨＯＰＰＡ湖南水戸,滋賀県湖南市梅影町2-6,,,,35.008861,136.12294,
115,E2521100044111,水戸体育館,滋賀県湖南市梅影町4-2,1,,,35.0125,136.126406,
116,E2521100045111,平松こども園,滋賀県湖南市平松268,1,,,34.997717,136.078301,
117,E2521100046111,菩提寺くじらこども園,滋賀県湖南市菩提寺1113,,,,35.027576,136.063597,
118,E2521100047111,菩提寺小学校,滋賀県湖南市菩提寺1583-270,1,,,35.031544,136.058919,
119,E2521100048111,菩提寺北小学校,滋賀県湖南市菩提寺328,1,,,35.04548,136.06775,
120,E2521100049111,菩提寺コミュニティセンター,滋賀県湖南市菩提寺775-1,1,,,35.025873,136.063382,
121,E2521100051111,菩提寺まちづくりセンター,滋賀県湖南市菩提寺西4-2-12,1,,,35.035408,136.060364,
122,E2521100052111,石部中学校,滋賀県湖南市宝来坂4-3-1,1,,,35.00234,136.048548,
123,E2520900001112,佐山小学校,滋賀県甲賀市甲賀町小佐治2922,1,,,34.936658,136.210389,
124,E2520900003112,油日こども園,滋賀県甲賀市甲賀町上野1320,,,,34.88961,136.227645,
125,E2520900004112,油日小学校,滋賀県甲賀市甲賀町上野1322,1,,,34.890388,136.227914,
126,E2520900005111,油日コミュニティセンター,滋賀県甲賀市甲賀町上野2416,,,,34.890118,136.230936,
127,E2520900006112,佐山コミュニティセンター,滋賀県甲賀市甲賀町神保2102,1,,,34.935447,136.208888,
128,E2520900007111,甲賀北保育園,滋賀県甲賀市甲賀町神保2104,,,,34.935203,136.208554,
129,E2520900008111,甲賀中央公園体育館,滋賀県甲賀市甲賀町相模124-7,,,,34.904722,136.217617,
130,E2520900008112,甲賀共同福祉センター,滋賀県甲賀市甲賀町相模124-7,,,,34.904344,136.217401,
131,E2520900009111,甲賀中学校,滋賀県甲賀市甲賀町相模128,,,,34.903242,136.219035,
132,E2520900121111,甲賀地域市民センター,滋賀県甲賀市甲賀町相模173-1,,,,34.902862,136.215843,
133,E2520900011111,甲賀農村環境改善センター,滋賀県甲賀市甲賀町相模846,,,,34.906047,136.218231,
134,E2520900012111,大原小学校,滋賀県甲賀市甲賀町大久保1000,,,,34.909475,136.232019,
135,E2520900013111,甲賀保健センター,滋賀県甲賀市甲賀町大久保507-2,,,,34.901591,136.231514,
136,E2520900014112,大原こども園,滋賀県甲賀市甲賀町大久保952,,,,34.911141,136.23273,
137,E2520900015111,かふか生涯学習館（甲賀公民館）,滋賀県甲賀市甲賀町大原中886,,,,34.90216,136.230798,
138,E2520900136111,甲賀図書情報館,滋賀県甲賀市甲賀町大原中889,,,,34.902172,136.229304,
139,E2520900145121,社会福祉法人甲賀会　甲賀荘デイサービスセンター,滋賀県甲賀市甲賀町大原中904,,原則として、事前の受入調整を行い避難行動要支援者個別避難計画の作成を行った者を対象とする。,要介護１～５,34.901501,136.226974,
140,E2520900016111,甲賀西保育園,滋賀県甲賀市甲賀町滝838,,,,34.898167,136.212657,
141,E2520900123111,甲賀市甲南Ｂ＆Ｇ海洋センター,滋賀県甲賀市甲南町葛木30-11,,,,34.931198,136.17655,
142,E2520900147121,社会福祉法人甲南会　特別養護老人ホームせせらぎ苑,滋賀県甲賀市甲南町葛木855,,原則として、事前の受入調整を行い避難行動要支援者個別避難計画の作成を行った者を対象とする。,要支援１～要介護５,34.93219,136.179184,
143,E2520900020111,甲南体育館,滋賀県甲賀市甲南町葛木977,,,,34.929876,136.173695,
144,E2520900021112,希望ケ丘コミュニティセンター,滋賀県甲賀市甲南町希望ケ丘1-3-4,1,,,34.949323,136.176738,
145,E2520900129111,希望ヶ丘小学校,滋賀県甲賀市甲南町希望ケ丘3-34,,,,34.949518,136.172359,
146,E2520900124111,県立甲南高等学校（体育館・格技場）,滋賀県甲賀市甲南町寺庄427,,,,34.919965,136.184187,
147,E2520900028112,甲南中学校,滋賀県甲賀市甲南町寺庄841,1,,,34.92164,136.179891,
148,E2520900135111,甲南図書交流館,滋賀県甲賀市甲南町深川1865,1,,,34.929737,136.168423,
149,E2520900032111,甲南第二小学校,滋賀県甲賀市甲南町杉谷2046,,,,34.921688,136.155198,
150,E2520900134111,三桜工業株式会社,滋賀県甲賀市甲南町杉谷245,,,,34.929533,136.1582,
151,E2520900033112,杉谷公民館,滋賀県甲賀市甲南町杉谷71,1,,,34.922502,136.155986,
152,E2520900128111,レイモンド甲賀こども園,滋賀県甲賀市甲南町野尻1601-3,,,,34.912694,136.17989,
153,E2520900126111,旧ＪＡこうか宮支所,滋賀県甲賀市甲南町野川818,,,,34.88649,136.188109,
154,E2520900037111,甲南第三小学校,滋賀県甲賀市甲南町野川840,1,,,34.887067,136.18797,
155,E2520900125111,甲南地域市民センター,滋賀県甲賀市甲南町野田810,,,,34.927975,136.168051,
156,E2520900039111,甲南中部小学校,滋賀県甲賀市甲南町竜法師1137,,,,34.911564,136.172212,
157,E2520900127111,甲南情報交流センター・甲南公民館,滋賀県甲賀市甲南町竜法師600,,,,34.919825,136.170395,
158,E2520900041111,朝宮小学校,滋賀県甲賀市信楽町下朝宮268,,,,34.852974,135.974156,
159,E2520900042112,信楽中学校,滋賀県甲賀市信楽町江田950,1,,,34.870179,136.053867,
160,E2520900043112,信楽小学校,滋賀県甲賀市信楽町江田969,,,,34.871568,136.052461,
161,E2520900043111,信楽こども園,滋賀県甲賀市信楽町江田969,,,,34.871193,136.053316,
162,E2520900044112,朝宮コミュニティセンター,滋賀県甲賀市信楽町上朝宮467,1,,,34.852341,135.982081,
163,E2520900045111,朝宮保育園,滋賀県甲賀市信楽町上朝宮611,,,,34.85336,135.978582,
164,E2520900048111,多羅尾小学校,滋賀県甲賀市信楽町多羅尾2012,,,,34.810916,136.035045,
165,E2520900049112,多羅尾コミュニティセンター,滋賀県甲賀市信楽町多羅尾2067-2,1,,,34.810772,136.035343,
166,E2520900050111,信楽地域市民センター,滋賀県甲賀市信楽町長野1203,1,,,34.878088,136.059312,
167,E2520900052111,信楽体育館,滋賀県甲賀市信楽町長野1310,,,,34.882192,136.062676,
168,E2520900130111,信楽図書館,滋賀県甲賀市信楽町長野1312-1,,,,34.882318,136.061894,
169,E2520900131111,県立信楽高等学校（格技場）,滋賀県甲賀市信楽町長野317-1,,,,34.871831,136.055565,
170,E2520900132114,甲賀市立信楽産業展示館,滋賀県甲賀市信楽町勅旨2188-7,,,,34.886274,136.058558,
171,E2520900132113,滋賀県立陶芸の森第４駐車場,滋賀県甲賀市信楽町勅旨2188-7,,,,34.886807,136.059181,
172,E2520900132112,滋賀県立陶芸の森第２駐車場,滋賀県甲賀市信楽町勅旨2188-7,,,,34.885636,136.057614,
173,E2520900132111,滋賀県立陶芸の森第１駐車場,滋賀県甲賀市信楽町勅旨2188-7,,,,34.88509,136.057716,
174,E2520900133111,陶業振興用地,滋賀県甲賀市信楽町勅旨2200,,,,34.88601,136.062489,
175,E2520900055111,牧公民館,滋賀県甲賀市信楽町牧72-3,,,,34.908165,136.081749,
176,E2520900056112,雲井小学校,滋賀県甲賀市信楽町牧868,1,,,34.911517,136.082447,
177,E2520900057111,雲井保育園,滋賀県甲賀市信楽町牧873,,,,34.911513,136.08297,
178,E2520900108111,柞原会館,滋賀県甲賀市信楽町柞原164-1,1,,,34.863376,136.028978,
179,E2520900059112,小原小学校,滋賀県甲賀市信楽町柞原899,1,,,34.854378,136.028107,
180,E2520900062111,貴生川コミュニティセンター,滋賀県甲賀市水口町貴生川308-1,,,,34.952252,136.151645,
181,E2520900063111,貴生川児童クラブ,滋賀県甲賀市水口町貴生川558,,,,34.953367,136.149965,
182,E2520900143121,社会福祉法人天地会　特別養護老人ホーム兆生園,滋賀県甲賀市水口町今郷1032-25,,原則として、事前の受入調整を行い避難行動要支援者個別避難計画の作成を行った者を対象とする。,要介護１～５・高齢者,34.962906,136.201431,
183,E2520900064112,貴生川小学校,滋賀県甲賀市水口町三大寺437,1,,,34.948217,136.146643,
184,E2520900065111,伴谷東小学校,滋賀県甲賀市水口町山774,,,,34.99514,136.179057,
185,E2520900112111,あいみらい保育園,滋賀県甲賀市水口町鹿深3-39,,,,34.967733,136.171899,
186,E2520900117111,水口体育館,滋賀県甲賀市水口町鹿深3-46,,,,34.968375,136.171431,
187,E2520900116111,ここのっす園,滋賀県甲賀市水口町秋葉45-1,,,,34.966181,136.185132,
188,E2520900114111,柏木保育園,滋賀県甲賀市水口町植440,,,,34.976867,136.141454,
189,E2520900070111,岩上コミュニティセンター,滋賀県甲賀市水口町新城557,,,,34.962349,136.195556,
190,E2520900071111,岩上体育館,滋賀県甲賀市水口町新城653,,,,34.962455,136.19624,
191,E2520900072111,水口保健センター,滋賀県甲賀市水口町水口5607,,,,34.9667,136.168506,
192,E2520900137111,あいこうか市民ホール,滋賀県甲賀市水口町水口5633,,,,34.967331,136.166518,
193,E2520900073111,水口中学校（格技場含）,滋賀県甲賀市水口町水口5900,,,,34.967564,136.159641,
194,E2520900107111,まちづくり活動センター　まるーむ,滋賀県甲賀市水口町水口6009-1,1,,,34.966063,136.164183,
195,E2520900148122,社会福祉法人八起会　デイサービスセンターあさひがおか,滋賀県甲賀市水口町朝日が丘6-37,,原則として、事前の受入調整を行い避難行動要支援者個別避難計画の作成を行った者を対象とする。,要介護３～５,34.975414,136.180588,
196,E2520900148121,社会福祉法人八起会　グループホームみなくち,滋賀県甲賀市水口町朝日が丘6-37,,原則として、事前の受入調整を行い避難行動要支援者個別避難計画の作成を行った者を対象とする。,要介護３～５,34.975414,136.180588,
197,E2520900111111,県立水口高等学校（体育館・武道場）,滋賀県甲賀市水口町梅が丘3-1,,,,34.970564,136.166613,
198,E2520900077111,水口中部コミュニティセンター,滋賀県甲賀市水口町八坂7-4,,,,34.971106,136.17121,
199,E2520900113111,伴谷くじらこども園,滋賀県甲賀市水口町伴中山1015,,,,34.997418,136.155896,
200,E2520900079111,伴谷小学校,滋賀県甲賀市水口町伴中山2252,,,,35.001056,136.157118,
201,E2520900080112,伴谷コミュニティセンター,滋賀県甲賀市水口町伴中山3737-1,1,,,34.997652,136.1569,
202,E2520900115111,甲賀市水口スポーツの森（陸上競技場）,滋賀県甲賀市水口町北内貴230,,,,34.960818,136.163989,
203,E2520900115112,甲賀市水口スポーツの森（市民スタジアム）,滋賀県甲賀市水口町北内貴230,,,,34.96098,136.160373,
204,E2520900083111,柏木小学校,滋賀県甲賀市水口町北脇1132,,,,34.977233,136.149189,
205,E2520900084111,柏木コミュニティセンター,滋賀県甲賀市水口町北脇1615-1,,,,34.978419,136.147403,
206,E2520900118111,旧鮎河小学校（体育館）,滋賀県甲賀市土山町鮎河1201,,,,34.95876,136.340259,
207,E2520900091112,鮎河コミュニティセンター,滋賀県甲賀市土山町鮎河1212-1,1,,,34.95763,136.338897,
208,E2520900119111,ダイヤモンド滋賀（体育館）,滋賀県甲賀市土山町黒川1711,,,,34.928247,136.339686,
209,E2520900093111,山内コミュニティセンター,滋賀県甲賀市土山町黒川1970,,,,34.923672,136.327479,
210,E2520900096112,大野コミュニティセンター,滋賀県甲賀市土山町大野2154,1,,,34.94608,136.232934,
211,E2520900097112,滋賀県立淡海学園,滋賀県甲賀市土山町大野283-20,1,,,34.955875,136.251466,
212,E2520900098111,大野保育園,滋賀県甲賀市土山町大野461-2,,,,34.944365,136.239664,
213,E2520900099111,大野小学校,滋賀県甲賀市土山町大野949,,,,34.944578,136.23866,
214,E2520900101112,土山こども園,滋賀県甲賀市土山町南土山甲417,,,,34.93349,136.280949,
215,E2520900102112,土山小学校,滋賀県甲賀市土山町北土山1462,1,,,34.935103,136.284891,
216,E2520900103112,土山開発センター,滋賀県甲賀市土山町北土山1715,1,,,34.937686,136.283308,
217,E2520900103113,土山地域市民センター,滋賀県甲賀市土山町北土山1715,1,,,34.937852,136.283047,
218,E2520900120111,甲賀市老人福祉センターフィランソ土山,滋賀県甲賀市土山町北土山2058,,,,34.938591,136.281616,
219,E2520900105111,土山中学校,滋賀県甲賀市土山町北土山414,,,,34.931205,136.295183,
220,E2520900106112,土山体育館,滋賀県甲賀市土山町北土山414-2,1,,,34.931749,136.295559,
221,E2520900109121,社会福祉法人洗心福祉会　甲賀シルバーケア豊壽園,滋賀県甲賀市土山町北土山479,,原則として、事前の受入調整を行い避難行動要支援者個別避難計画の作成を行った者を対象とする。,要介護1～5,34.929175,136.295867,
222,E2521200001111,マキノ東小学校,滋賀県高島市マキノ町海津2384,1,,,35.4650466080544,136.074926441653,
223,E2521200002111,道の駅マキノ追坂峠,滋賀県高島市マキノ町海津897-27,1,,,35.48106438,136.0829944,
224,E2521200063111,旧マキノ北小学校在原分校,滋賀県高島市マキノ町在原506,1,,,35.5141236019661,136.074215188633,
225,E2521200004111,マキノ西小学校,滋賀県高島市マキノ町寺久保552-1,1,,,35.4722184457098,136.04324215609,
226,E2521200005111,マキノ南小学校,滋賀県高島市マキノ町新保887,1,,,35.4509269343337,136.033315359407,
227,E2521200006111,マキノ土に学ぶ里研修センター,滋賀県高島市マキノ町蛭口260-1,1,,,35.4623619585409,136.049513786233,
228,E2521200007111,マキノ中学校,滋賀県高島市マキノ町蛭口601,1,,,35.465588021008,136.047753215676,
229,E2521200008112,旧広瀬小学校,滋賀県高島市安曇川町下古賀1182,1,,,35.3563141887976,135.988821179217,
230,E2521200008111,古賀保育園,滋賀県高島市安曇川町下古賀1182,1,,,35.3556229272554,135.988670975511,
231,E2521200009111,藤波こども園,滋賀県高島市安曇川町下小川120-1,1,,,35.322898433057,136.033991146858,
232,E2521200070111,鴨川流域土地改良区事務所,滋賀県高島市安曇川町下小川2912,1,,,35.3065653974521,136.03247636775,
233,E2521200011111,藤樹の里文化芸術会館,滋賀県高島市安曇川町上小川106,1,,,35.3246093467093,136.029923578342,
234,E2521200012111,安曇川高等学校,滋賀県高島市安曇川町西万木1168,1,,,35.3345056114803,136.026105300213,
235,E2521200013111,青柳小学校,滋賀県高島市安曇川町青柳1138,1,,,35.325706511195,136.032634168804,
236,E2521200014111,安曇川図書館,滋賀県高島市安曇川町青柳1173,1,,,35.32528821,136.0301533,
237,E2521200015111,安曇川はこぶね保育園,滋賀県高島市安曇川町青柳700-1,1,,,35.3310192648847,136.037091300071,
238,E2521200016111,安曇小学校,滋賀県高島市安曇川町田中445-1,1,,,35.332865708442,136.016141176095,
239,E2521200017111,安曇川中学校,滋賀県高島市安曇川町田中567,1,,,35.3324306919419,136.015266071796,
240,E2521200018111,安曇川総合体育館,滋賀県高島市安曇川町田中630-1,1,,,35.333223,136.014259,
241,E2521200019111,安曇川ふれあいセンター,滋賀県高島市安曇川町田中89,1,,,35.3329593280627,136.019100105063,
242,E2521200020111,健康の森梅ノ子運動公園,滋賀県高島市安曇川町南古賀65,1,,,35.3451976072066,136.005559254038,
243,E2521200021111,安曇川世代交流センター,滋賀県高島市安曇川町南船木249,1,,,35.3190202640008,136.065674481294,
244,E2521200022111,本庄小学校,滋賀県高島市安曇川町南船木391,1,,,35.3194017351597,136.063491596542,
245,E2521200023111,しろふじ保育園,滋賀県高島市永田1233-1,1,,,35.3048071152146,136.006953115068,
246,E2521200024111,高島Ｂ＆Ｇ海洋センター,滋賀県高島市宮野1516,1,,,35.3063657975584,136.003048157509,
247,E2521200061111,京都精華大学朽木学舎,滋賀県高島市朽木古屋472,1,,,35.339853,135.810471,
248,E2521200025111,朽木中学校,滋賀県高島市朽木市場1055,1,,,35.3531340687442,135.913353886372,
249,E2521200026111,朽木公民館,滋賀県高島市朽木市場792,1,,,35.3517634927993,135.915998132819,
250,E2521200027111,朽木西小学校,滋賀県高島市朽木中牧187,1,,,35.3540168622751,135.805039264754,
251,E2521200028111,高島市針畑郷山村都市交流館「山帰来」,滋賀県高島市朽木中牧528,1,,,35.3578757675668,135.797737959554,
252,E2521200029111,グリーンパーク想い出の森朽木体育館,滋賀県高島市朽木柏341-3,1,,,35.3459488258385,135.920609239826,
253,E2521200032111,今津上コミュニティセンター,滋賀県高島市今津町下弘部1348-1,1,,,35.4067328777551,136.011528545609,
254,E2521200033111,大阪自彊館救護施設　角川ヴィラ,滋賀県高島市今津町角川1161,1,,,35.42107962,135.9480926,
255,E2521200034111,今津東小学校,滋賀県高島市今津町弘川59,1,,,35.4081434517794,136.030947451827,
256,E2521200035111,今津中学校,滋賀県高島市今津町弘川924,1,,,35.4136512897293,136.029575683802,
257,E2521200036111,働く女性の家,滋賀県高島市今津町今津1640,1,,,35.4041502032684,136.033407383507,
258,E2521200037111,高島高等学校,滋賀県高島市今津町今津1936,1,,,35.4060566441479,136.031367584938,
259,E2521200038111,今津勤労者体育センター,滋賀県高島市今津町今津1952-1,1,,,35.4059281862464,136.030470160217,
260,E2521200039111,今津東保育園,滋賀県高島市今津町住吉2-16-5,1,,,35.4027285384855,136.033029790853,
261,E2521200040111,今津上体育館,滋賀県高島市今津町上弘部486,1,,,35.4076720449755,136.007972069459,
262,E2521200041111,高島市民会館,滋賀県高島市今津町中沼1-3-1,1,,,35.399049403505,136.033803395119,
263,E2521200042111,今津東コミュニティセンター,滋賀県高島市今津町中沼1-4-1,1,,,35.3989308550423,136.034427375039,
264,E2521200043112,今津北小学校,滋賀県高島市今津町日置前100,1,,,35.42220019744,136.024823953398,
265,E2521200043111,今津北体育館,滋賀県高島市今津町日置前100,1,,,35.4222220548462,136.025451590297,
266,E2521200044111,今津北コミュニティセンター,滋賀県高島市今津町日置前149-1,1,,,35.4219162175099,136.024161099432,
267,E2521200045111,今津総合運動公園,滋賀県高島市今津町日置前3110,1,,,35.4191028105734,135.997395860112,
268,E2521200046111,ＥＣＣ学園高等学校,滋賀県高島市今津町椋川512-1,1,,,35.4039975780443,135.908960424495,
269,E2521200047111,高島小学校,滋賀県高島市勝野1045,1,,,35.2952265268534,136.00668533701,
270,E2521200048111,高島中学校,滋賀県高島市勝野1070,1,,,35.296150355846,136.006052335678,
271,E2521200049111,アイリッシュパーク,滋賀県高島市勝野670,1,,,35.3005038307012,136.011028056048,
272,E2521200050111,観光物産プラザ,滋賀県高島市新旭町旭1-10-1,1,,,35.3558473054598,136.0349236152,
273,E2521200051111,新旭体育館,滋賀県高島市新旭町旭818,1,,,35.3533438189021,136.038429079825,
274,E2521200052111,新旭武道館,滋賀県高島市新旭町旭820,1,,,35.3529018315933,136.038939882368,
275,E2521200053111,新旭北小学校,滋賀県高島市新旭町饗庭26,1,,,35.3638286688497,136.030075386178,
276,E2521200054111,新旭南小学校,滋賀県高島市新旭町新庄853,1,,,35.3439595666243,136.040456222622,
277,E2521200055111,新旭養護学校,滋賀県高島市新旭町太田988-6,1,,,35.3403740194964,136.046763176553,
278,E2521200056111,新旭総合福祉センターやすらぎ荘,滋賀県高島市新旭町北畑45-1,1,,,35.3493129162142,136.045292462765,
279,E2521200057111,湖西中学校,滋賀県高島市新旭町北畑564-2,1,,,35.3529259827727,136.03744268285,
280,E2521200058111,静里なのはな園,滋賀県高島市新旭町藁園2305,1,,,35.3519245441899,136.050604114029,
281,E2521200059111,高島こども園,滋賀県高島市野田1361,1,,,35.3161318179678,136.003152805796,
282,E2520700003111,県立守山北高等学校,滋賀県守山市笠原町1263,1,,,35.0934798965995,135.98625708955,
283,E2520700004111,もりやまエコパーク交流拠点施設（多目的ホールおよび駐車場）,滋賀県守山市環境学習都市宣言記念公園1-1,1,,,35.1093643246351,135.969645268433,
284,E2520700006112,守山市立吉身小学校,滋賀県守山市吉身3-2-26,1,,,35.058702966942,135.99749626937,
285,E2520700006111,吉身小学校,滋賀県守山市吉身3-2-26,1,,,35.0585536687535,135.997185133124,
286,E2520700007111,吉身幼稚園,滋賀県守山市吉身3-2-51,1,,,35.0589938416884,135.996634209754,
287,E2520700008111,吉身会館,滋賀県守山市吉身3-2-8,1,,,35.0577619479337,135.99727421049,
288,E2520700010111,守山南中学校,滋賀県守山市古高町357,1,,,35.053631606253,135.980030485368,
289,E2520700011111,中洲会館,滋賀県守山市幸津川町1043-5,1,,,35.1091099664612,135.986194829672,
290,E2520700012112,中洲こども園,滋賀県守山市幸津川町1406,1,,,35.1098758867353,135.984401312287,
291,E2520700012111,中洲小学校,滋賀県守山市幸津川町1406,1,,,35.1092307944758,135.98560294193,
292,E2520700013111,守山北中学校,滋賀県守山市荒見町235,1,,,35.0827145714562,135.981550764241,
293,E2520700014111,河西会館,滋賀県守山市今市町160,1,,,35.0800399327656,135.989405082543,
294,E2520700015111,河西幼稚園,滋賀県守山市今市町25-1,1,,,35.0800404681793,135.991838756872,
295,E2520700016111,守山会館,滋賀県守山市今宿2-5-15,1,,,35.0506646806747,135.986846323336,
296,E2520700019111,県立守山中学校・高等学校,滋賀県守山市守山3-12-34,1,,,35.058607850562,135.987013535114,
297,E2520700021111,北公民館,滋賀県守山市洲本町1353-2,1,,,35.0901527615135,135.971628960322,
298,E2520700022111,守山小学校,滋賀県守山市勝部1-13-1,1,,,35.0533847570863,135.991204608993,
299,E2520700022112,守山幼稚園,滋賀県守山市勝部1-13-1,1,,,35.053848049023,135.991008807729,
300,E2520700024111,生涯学習・教育支援センター,滋賀県守山市勝部3-9-1,1,,,35.0479855456652,135.986338438548,
301,E2520700029111,河西小学校,滋賀県守山市小島町1843,1,,,35.0790017435425,135.993669388,
302,E2520700031111,速野会館,滋賀県守山市水保町2236,1,,,35.1003459203118,135.958427907878,
303,E2520700032111,速野幼稚園,滋賀県守山市水保町2399-1,1,,,35.1012957032012,135.960024161101,
304,E2520700033111,明富中学校,滋賀県守山市水保町3045-1,1,,,35.1016822412084,135.966802921412,
305,E2520700034111,（株）ローズユニバース,滋賀県守山市杉江町1465,1,,,35.0767779430712,135.95159587165,
306,E2520700035111,守山中学校,滋賀県守山市石田町350,1,,,35.0690394717003,135.982550883871,
307,E2520700037111,玉津こども園,滋賀県守山市赤野井町39-3,1,,,35.0768420620756,135.971418230827,
308,E2520700038111,玉津小学校,滋賀県守山市赤野井町9-1,1,,,35.0773801537191,135.971174048413,
309,E2520700041111,一本松会館,滋賀県守山市川田町230,1,,,35.0765974600554,136.003713288336,
310,E2520700042111,物部小学校,滋賀県守山市二町町252,1,,,35.0473727849302,135.979014699514,
311,E2520700043111,物部幼稚園,滋賀県守山市二町町253,1,,,35.047095748822,135.97939541058,
312,E2520700047111,埋蔵文化財センター,滋賀県守山市服部町1318,1,,,35.1079883471728,135.992488625915,
313,E2520700048111,野洲川歴史公園サッカー場,滋賀県守山市服部町2439,1,,,35.10973882915,135.992420318416,
314,E2520700049111,速野小学校,滋賀県守山市木浜町112,1,,,35.1002706111426,135.959948972884,
315,E2520700050112,玉津会館,滋賀県守山市矢島町3091,1,,,35.079260062877,135.970936918843,
316,E2520700050111,地域総合センター,滋賀県守山市矢島町3091,1,,,35.0793294529463,135.9707688182,
317,E2520700051111,小津小学校,滋賀県守山市欲賀町853,1,,,35.0596626549544,135.962952942348,
318,E2520700052111,小津こども園,滋賀県守山市欲賀町879,1,,,35.0604083686214,135.963765187601,
319,E2520700053111,小津会館,滋賀県守山市欲賀町901-1,1,,,35.0599079730713,135.96403338201,
320,E2520700054111,立入が丘小学校,滋賀県守山市立入町222,1,,,35.0540654115522,136.003378291879,
321,E2520700055111,立入が丘幼稚園,滋賀県守山市立入町226-1,1,,,35.0542634376033,136.004491850054,
322,E2520600069111,第四保育所,滋賀県草津市芦浦町310-1,1,,,35.0572750545782,135.957397692772,
323,E2520600002111,常盤東総合センター,滋賀県草津市芦浦町319-1,1,,,35.0570581952609,135.957817459505,
324,E2520600002112,芦浦教育集会所,滋賀県草津市芦浦町319-1,1,,,35.0568122872615,135.95808031599,
325,E2520600003111,松原中学校,滋賀県草津市下笠町110,1,,,35.0314340091536,135.938427689882,
326,E2520600004111,総合体育館,滋賀県草津市下笠町161,1,,,35.0311467689998,135.936366913729,
327,E2520600005111,南笠東まちづくりセンター,滋賀県草津市笠山1-1-47,1,,,34.99199262792,135.945732339879,
328,E2520600006111,第三保育所,滋賀県草津市橋岡町202,1,,,35.0120286100964,135.930735888897,
329,E2520600007111,橋岡教育集会所,滋賀県草津市橋岡町68,1,,,35.0121911144384,135.9346534006,
330,E2520600008111,橋岡会館,滋賀県草津市橋岡町71,1,,,35.0119670395515,135.93493235034,
331,E2520600009111,常盤まちづくりセンター,滋賀県草津市志那中町111-1,1,,,35.0528028146562,135.944419597312,
332,E2520600010111,常盤小学校,滋賀県草津市志那中町119,1,,,35.0532877380811,135.943487190586,
333,E2520600011111,常盤こども園,滋賀県草津市志那中町278,1,,,35.0540762818772,135.942893844861,
334,E2520600012111,志津南小学校,滋賀県草津市若草2-16-2,1,,,34.9893716258281,135.971691573229,
335,E2520600013111,志津南まちづくりセンター,滋賀県草津市若草5-10,1,,,34.9852717578652,135.969862788705,
336,E2520600014111,笠縫東まちづくりセンター,滋賀県草津市集町58-8,1,,,35.036983672958,135.950803263281,
337,E2520600015111,笠縫こども園,滋賀県草津市上笠1-6-1,1,,,35.0325041671608,135.948172390045,
338,E2520600016111,笠縫小学校,滋賀県草津市上笠1-6-2,1,,,35.0323314457121,135.946993266622,
339,E2520600017111,笠縫まちづくりセンター,滋賀県草津市上笠1-6-3,1,,,35.0320341653408,135.947850524963,
340,E2520600018111,新堂中学校,滋賀県草津市新堂町111,1,,,35.044321297145,135.952207400651,
341,E2520600019111,綾羽高等学校,滋賀県草津市西渋川1-18-1,1,,,35.0258793888225,135.961947071424,
342,E2520600020111,渋川小学校,滋賀県草津市西渋川2-8-55,1,,,35.0306548013475,135.966059787847,
343,E2520600021111,草津東高等学校,滋賀県草津市西渋川2-8-65,1,,,35.0315947360314,135.967091932013,
344,E2520600022111,渋川まちづくりセンター,滋賀県草津市西渋川2-9-38,1,,,35.0303850040647,135.964741536929,
345,E2520600070111,インフロニア草津アクアティクスセンター,滋賀県草津市西大路町13-10,,,,35.02314,135.955032,
346,E2520600023111,高等技術専門校（テクノカレッジ）,滋賀県草津市青地町1093,1,,,35.0006102090038,135.970814595943,
347,E2520600024111,志津まちづくりセンター,滋賀県草津市青地町561,1,,,35.0056091254836,135.974674951932,
348,E2520600025111,志津小学校,滋賀県草津市青地町827,1,,,35.0028629498205,135.977266387708,
349,E2520600026111,志津こども園,滋賀県草津市青地町845,1,,,35.0031237708206,135.976281846373,
350,E2520600027111,草津まちづくりセンター,滋賀県草津市草津1-4-33,1,,,35.017894406907,135.96090949855,
351,E2520600028111,草津中学校,滋賀県草津市草津2-16-8,1,,,35.014429900182,135.963554236932,
352,E2520600029111,草津中央おひさまこども園,滋賀県草津市草津3-13-10,1,,,35.0142849016636,135.961017397894,
353,E2520600029121,草津中央おひさまこども園,滋賀県草津市草津3-13-10,1,,,35.0142849016636,135.961017397894,
354,E2520600030111,草津小学校,滋賀県草津市草津3-14-5,1,,,35.0137534309405,135.96168557719,
355,E2520600031111,草津第二保育所,滋賀県草津市草津町1350,1,,,35.0201731307205,135.954324896215,
356,E2520600032111,西一教育集会所,滋賀県草津市草津町1446-1,1,,,35.0191714771781,135.954276616458,
357,E2520600032112,西一会館,滋賀県草津市草津町1446-1,1,,,35.0193296338163,135.954459006674,
358,E2520600033111,ふれあい体育館,滋賀県草津市草津町1486-1,1,,,35.0196940294609,135.95047461697,
359,E2520600034111,湖南農業高等学校,滋賀県草津市草津町1839,1,,,35.01556322303,135.952220355139,
360,E2520600001112,たちばな大路こども園,滋賀県草津市大路2-1-55,1,,,35.020897524395,135.966468679675,
361,E2520600001121,たちばな大路こども園,滋賀県草津市大路2-1-55,1,,,35.020897524395,135.966468679675,
362,E2520600037111,草津第二小学校,滋賀県草津市大路2-7-62,1,,,35.0185184132457,135.966701993839,
363,E2520600038111,大路まちづくりセンター,滋賀県草津市大路2-9-11,1,,,35.020516758625,135.967007759799,
364,E2520600039111,高穂中学校,滋賀県草津市追分7-6-1,1,,,34.9983075884654,135.965590355589,
365,E2520600040111,矢倉まちづくりセンター,滋賀県草津市東矢倉2-13-6,1,,,35.0050038032636,135.95459697325,
366,E2520600041111,南笠東小学校,滋賀県草津市南笠東4-4-1,1,,,34.9907431758323,135.943801230596,
367,E2520600042111,山田こども園,滋賀県草津市南山田町672-2,1,,,35.0246864827878,135.932467719321,
368,E2520600043111,山田まちづくりセンター,滋賀県草津市南山田町678,1,,,35.0246129061836,135.931426717443,
369,E2520600044111,武道館,滋賀県草津市南山田町683,1,,,35.0240800653535,135.931888671523,
370,E2520600045111,笠縫東小学校,滋賀県草津市平井3-8-1,1,,,35.0351815373608,135.959996908102,
371,E2520600046111,笠縫東こども園,滋賀県草津市平井3-8-2,1,,,35.0356807348402,135.958680664577,
372,E2520600047111,山田小学校,滋賀県草津市北山田町350,1,,,35.0294576512685,135.929062474172,
373,E2520600048111,新田教育集会所,滋賀県草津市木川町898-15,1,,,35.0214304231549,135.951608360747,
374,E2520600049111,新田会館,滋賀県草津市木川町898-3,1,,,35.0215731548167,135.95140483664,
375,E2520600050111,草津高等学校,滋賀県草津市木川町955-1,1,,,35.0240141244442,135.948170871209,
376,E2520600068111,野村運動公園,滋賀県草津市野村3-2-5,,,,35.0237118215444,135.953791825388,
377,E2520600051111,ＹＭＩＴアリーナ（くさつシティアリーナ）,滋賀県草津市野村3-3-27,1,,,35.02420326,135.9520358,
378,E2520600052111,草津クレアホール,滋賀県草津市野路6-15-11,1,,,35.0004949247265,135.953951943512,
379,E2520600053111,玉川小学校,滋賀県草津市野路9-6-12,1,,,34.9954682724688,135.948185788255,
380,E2520600054111,玉川こども園,滋賀県草津市野路9-6-63,1,,,34.9954700128518,135.947304535221,
381,E2520600055111,玉川まちづくりセンター,滋賀県草津市野路9-7-42,1,,,34.9948215622558,135.949332035351,
382,E2520600056111,光泉中・高等学校,滋賀県草津市野路町178,1,,,35.0082333579984,135.944109141491,
383,E2520600057111,老上小学校,滋賀県草津市野路町517,1,,,35.0048156966038,135.936217979388,
384,E2520600058111,老上まちづくりセンター,滋賀県草津市野路町520,1,,,35.0036538441385,135.937449123593,
385,E2520600059111,玉川高等学校,滋賀県草津市野路東3-2-1,1,,,34.9938961396385,135.959969389192,
386,E2520600060111,玉川中学校,滋賀県草津市野路東3-3-18,1,,,34.9930784169187,135.95918345836,
387,E2520600071111,草津看護専門学校,滋賀県草津市矢橋町1824,,,,35.01176,135.925673,
388,E2520600061111,老上こども園,滋賀県草津市矢橋町4,1,,,35.0056927963015,135.936391100051,
389,E2520600062111,老上西小学校,滋賀県草津市矢橋町508-1,1,,,35.0040408093248,135.926593320648,
390,E2520600063111,老上西まちづくりセンター,滋賀県草津市矢橋町526-1,1,,,35.0037165394283,135.926614737868,
391,E2520600064111,老上中学校,滋賀県草津市矢橋町7-1,1,,,35.0055880953729,135.935977489894,
392,E2520600065111,矢橋ふたばこども園,滋賀県草津市矢橋町888-1,1,,,35.0050669661291,135.923729440759,
393,E2520600066111,矢倉こども園,滋賀県草津市矢倉2-5-21,1,,,35.0054991533605,135.951834196599,
394,E2520600067111,矢倉小学校,滋賀県草津市矢倉2-5-50,1,,,35.0047826294339,135.951572727787,
395,E2544300001111,森林資源活用センター,滋賀県多賀町萱原1309,,,,35.1759933809467,136.336027611384,
396,E2544300003111,多賀町中央公民館「多賀結いの森」,滋賀県多賀町久徳160-2,1,,,35.229526214302,136.297137239822,
397,E2544300017111,多賀町立久徳うぐいすこども園,滋賀県多賀町久徳844-1,,,,35.232052,136.299968,
398,E2544300005111,あけぼのパーク多賀,滋賀県多賀町四手976-1,1,,,35.2210060942157,136.302848981257,
399,E2544300007111,大滝小学校,滋賀県多賀町川相568,1,,,35.188022931777,136.313268439186,
400,E2544300008111,多賀中学校,滋賀県多賀町多賀210,1,,,35.2233797710178,136.295198549666,
401,E2544300009121,多賀町総合福祉保健センター「ふれあいの郷」,滋賀県多賀町多賀221-1,,,要配慮者,35.2230600484248,136.292452639342,
402,E2544300010111,Ｂ＆Ｇ海洋センター,滋賀県多賀町多賀245-2,1,,,35.2193403281387,136.294161037707,
403,E2544300012111,多賀小学校,滋賀県多賀町多賀738,1,,,35.2240147342008,136.287099999263,
404,E2544300013111,大君ケ畑体育館,滋賀県多賀町大君ケ畑558,1,,,35.2097433710757,136.372736323119,
405,E2544300015111,清涼文化センター,滋賀県多賀町敏満寺214,,,,35.2158318050365,136.282456059803,
406,E2544300016111,滝の宮スポーツ公園,滋賀県多賀町富之尾1586-5,1,,,35.1917327369484,136.296751961407,
407,E2520100001111,滋賀県立県民交流センター（ピアザ淡海）,滋賀県大津市におの浜1-1-20,1,,,35.006638700433,135.87852552832,
408,E2520100002111,県立体育館,滋賀県大津市におの浜4-2-12,1,,,35.00499092939,135.88741143758,
409,E2520100003111,県立武道館,滋賀県大津市におの浜4-2-15,1,,,35.005294115239,135.88635464723,
410,E2520100004121,障害者福祉センター,滋賀県大津市におの浜4-2-33,,,要配慮者,35.004976376372,135.88565666304,
411,E2520100005121,におの浜ふれあいスポーツセンター,滋賀県大津市におの浜4-2-40,,,要配慮者,35.005416390055,135.88586345619,
412,E2520100007111,伊香立児童クラブ,滋賀県大津市伊香立下在地町1222-1,1,,,35.143381998837,135.87372799944,
413,E2520100007112,伊香立環境交流館,滋賀県大津市伊香立下在地町1222-1,1,,,35.143460956885,135.87387820314,
414,E2520100008111,伊香立中学校体育館,滋賀県大津市伊香立下在地町414,1,,,35.149543218541,135.87831879734,
415,E2520100010112,伊香立児童館,滋賀県大津市伊香立下龍華町584-157,1,,,35.149965774029,135.89405009128,
416,E2520100010111,伊香立ふれあいセンター,滋賀県大津市伊香立下龍華町584-157,1,,,35.150220173549,135.89377650597,
417,E2520100011122,滋賀県立北大津養護学校体育館,滋賀県大津市伊香立向在地町25,,,在校生及び卒業生等のうち、あらかじめ市長が指定した者,35.135192522841,135.88912971498,
418,E2520100012111,伊香立小学校体育館,滋賀県大津市伊香立生津町132-1,1,,,35.142335525925,135.87216090912,
419,E2520100013111,伊香立市民センター,滋賀県大津市伊香立生津町133-1,1,,,35.142260953406,135.87260615582,
420,E2520100014111,瀬田東幼稚園,滋賀県大津市一里山2-20-1,1,,,34.984200052454,135.92977476224,
421,E2520100015111,瀬田東小学校体育館,滋賀県大津市一里山2-20-2,1,,,34.982465686327,135.93062735433,
422,E2520100017111,一里山公園緑のふれあいセンター,滋賀県大津市一里山3-16-1,1,,,34.985079175998,135.93466461943,
423,E2520100017112,瀬田東市民センター,滋賀県大津市一里山3-16-1,1,,,34.984806680887,135.93446613595,
424,E2520100018121,瀬田東児童クラブ,滋賀県大津市一里山3-4-1,,,要配慮者,34.984600111408,135.93597890184,
425,E2520100019111,瀬田公園体育館,滋賀県大津市一里山6-9,1,,,34.976618177033,135.93851213461,
426,E2520100021111,田上市民体育館,滋賀県大津市稲津1-10-18,1,,,34.946899576019,135.91456316748,
427,E2520100022111,南ふれあいセンター,滋賀県大津市稲津1-10-20,1,,,34.946939150122,135.91483675279,
428,E2520100024111,田上児童館,滋賀県大津市稲津1-14-30,1,,,34.946372979624,135.91355651993,
429,E2520100267111,田上老人憩の家,滋賀県大津市稲津1-14-32,,,,34.946554,135.913581,
430,E2520100028111,富士見市民センター,滋賀県大津市園山2-15-33,1,,,34.9806098138,135.88603907477,
431,E2520100029111,藤尾市民センター,滋賀県大津市横木2-4-1,1,,,34.993043520435,135.83287707177,
432,E2520100030111,逢坂小学校体育館,滋賀県大津市音羽台6-1,1,,,35.001912485958,135.86438143022,
433,E2520100031111,逢坂幼稚園,滋賀県大津市音羽台6-2,1,,,35.001955321226,135.86379722929,
434,E2520100032121,逢坂保育園,滋賀県大津市音羽台6-20,1,,妊産婦・乳幼児,35.001557239219,135.8659804514,
435,E2520100033111,下阪本市民センター,滋賀県大津市下阪本3-14-30,1,,,35.062361453898,135.87622280476,
436,E2520100034111,下阪本小学校体育館,滋賀県大津市下阪本4-10-1,1,,,35.062822162591,135.87709162836,
437,E2520100035111,下阪本幼稚園,滋賀県大津市下阪本4-15-12,1,,,35.064952158406,135.8764009222,
438,E2520100037111,日吉中学校体育館,滋賀県大津市下阪本6-38-26,1,,,35.068736925696,135.87911531773,
439,E2520100037112,日吉中学校武道場（東）,滋賀県大津市下阪本6-38-26,1,,,35.0697,135.879919,
440,E2520100037113,日吉中学校格技場（西）,滋賀県大津市下阪本6-38-26,1,,,35.069804,135.879692,
441,E2520100039111,麗湖こども園,滋賀県大津市花園町13-36,1,,,35.138978434689,135.91616148556,
442,E2520100040111,葛川中学校校舎,滋賀県大津市葛川中村町108-1,1,,,35.234126623981,135.86259367911,
443,E2520100040112,葛川小学校校舎,滋賀県大津市葛川中村町108-1,1,,,35.233854960344,135.86250784843,
444,E2520100041111,葛川市民センター,滋賀県大津市葛川坊村町237-37,1,,,35.246673782321,135.86655338401,
445,E2520100042111,葛川少年自然の家,滋賀県大津市葛川坊村町243,1,,,35.244209862747,135.8658497421,
446,E2520100043111,志賀幼稚園,滋賀県大津市勧学1-8-1,1,,,35.03481943797,135.85778720382,
447,E2520100044121,田上児童クラブ,滋賀県大津市関津6-19-1,,,要配慮者,34.933886567501,135.92938711196,
448,E2520100045111,田上幼稚園,滋賀県大津市関津6-19-8,1,,,34.934163289339,135.92968675555,
449,E2520100046111,逢坂市民センター,滋賀県大津市京町3-1-3,1,,,35.004342070772,135.86550785326,
450,E2520100048111,仰木市民センター,滋賀県大津市仰木4-15-11,1,,,35.108111264734,135.88218836227,
451,E2520100049111,仰木小学校体育館,滋賀県大津市仰木4-15-8,1,,,35.108703704732,135.88173775117,
452,E2520100050111,仰木太鼓会館,滋賀県大津市仰木4-2-50,1,,,35.108238529986,135.88026253621,
453,E2520100051111,滋賀県立北大津高校体育館,滋賀県大津市仰木の里1-23-1,1,,,35.103009153234,135.89282626759,
454,E2520100053111,認定こども園はぐくみの家　仰木星の子,滋賀県大津市仰木の里1-28-1,1,,,35.102367553478,135.88766944512,
455,E2520100054111,仰木の里幼稚園,滋賀県大津市仰木の里3-10-1,1,,,35.105620971502,135.88791098727,
456,E2520100055111,仰木の里小学校体育館,滋賀県大津市仰木の里4-4-1,1,,,35.107157716033,135.89155931522,
457,E2520100055121,仰木の里児童クラブ,滋賀県大津市仰木の里4-4-1,1,,要配慮者,35.107229179426,135.89220373074,
458,E2520100056112,仰木中学校武道場,滋賀県大津市仰木の里5-1-1,1,,,35.108334,135.889592,
459,E2520100056111,仰木中学校体育館,滋賀県大津市仰木の里5-1-1,1,,,35.108357939564,135.88958941617,
460,E2520100057111,仰木の里市民センター,滋賀県大津市仰木の里7-1-25,1,,,35.1090798615,135.89416642238,
461,E2520100059111,せんだん保育園,滋賀県大津市仰木の里東2-2-5,1,,,35.102654671131,135.898636,
462,E2520100060111,仰木の里東小学校体育館,滋賀県大津市仰木の里東6-1-1,1,,,35.109345984898,135.90140685783,
463,E2520100061111,仰木の里東幼稚園,滋賀県大津市仰木の里東6-4-1,1,,,35.109372763386,135.8994231405,
464,E2520100062121,東老人福祉センター,滋賀県大津市玉野浦6-33,,,要配慮者,34.980884189735,135.90814105617,
465,E2520100063121,志賀児童クラブ,滋賀県大津市錦織2-9-29,,,要配慮者,35.030558580919,135.85524110941,
466,E2520100269121,特別養護老人ホームひかりの里,滋賀県大津市錦織3-10-27,,,高齢者のうち、あらかじめ市長が指定した者,35.0302688,135.8585782,
467,E2520100066111,北部地域文化センター,滋賀県大津市堅田2-1-11,1,,,35.111942696513,135.91135932892,
468,E2520100068111,小野市民センター,滋賀県大津市湖青1-1-2,1,,,35.141953768913,135.92228169696,
469,E2520100069111,滋賀県立大津商業高校体育館,滋賀県大津市御陵町2-1,1,,,35.016159297329,135.85360867083,
470,E2520100070111,市民文化会館,滋賀県大津市御陵町2-3,1,,,35.015983560899,135.85280400812,
471,E2520100072111,県立スポーツ会館,滋賀県大津市御陵町4-1,1,,,35.021505514849,135.85577852446,
472,E2520100073111,晴嵐小学校体育館,滋賀県大津市光が丘町4-70,1,,,34.972083990631,135.89831298044,
473,E2520100074121,晴嵐保育園,滋賀県大津市光が丘町5-10,1,,妊産婦・乳幼児,34.971445069162,135.89758866679,
474,E2520100075111,真野保育園,滋賀県大津市向陽町4-2,1,,,35.137713099466,135.91746799176,
475,E2520100077111,皇子が丘公園体育館,滋賀県大津市皇子が丘1-1-1,1,,,35.023845660284,135.85454446599,
476,E2520100078111,皇子が丘公園第二体育館,滋賀県大津市皇子が丘1-1-50,1,,,35.024637134744,135.85220268353,
477,E2520100079121,皇子が丘保育園,滋賀県大津市皇子が丘1-20-20,1,,妊産婦・乳幼児,35.026576458185,135.85251907405,
478,E2520100081111,木戸小学校体育館,滋賀県大津市荒川1000,1,,,35.20606526404,135.92736031267,
479,E2520100082111,志賀北幼稚園,滋賀県大津市荒川880,1,,,35.206100544557,135.92845326432,
480,E2520100083121,第二松の実保育園,滋賀県大津市高砂町15-9,,,妊産婦・乳幼児,35.040730250876,135.85731874056,
481,E2520100084111,滋賀県立石山高校体育館,滋賀県大津市国分1-15-1,1,,,34.968415535664,135.89624409932,
482,E2520100085121,水のめぐみ館,滋賀県大津市黒津4-2-2,,,要配慮者,34.940418247195,135.91171967484,
483,E2520100087121,唐崎児童クラブ,滋賀県大津市際川3-38-2,1,,要配慮者,35.04394603591,135.86577271331,
484,E2520100087111,唐崎幼稚園,滋賀県大津市際川3-38-2,1,,,35.043579578051,135.86542299209,
485,E2520100088111,唐崎小学校体育館,滋賀県大津市際川4-7-1,1,,,35.044770678923,135.86710166942,
486,E2520100090111,坂本小学校体育館,滋賀県大津市坂本3-12-57,1,,,35.069205255054,135.87310253227,
487,E2520100091111,比叡山高等学校体育館,滋賀県大津市坂本4-3-1,1,,,35.069951473882,135.86466971083,
488,E2520100091112,比叡山高等学校本館,滋賀県大津市坂本4-3-1,1,,,35.069951473882,135.86466971083,
489,E2520100092111,比叡山中学校体育館,滋賀県大津市坂本4-5,1,,,35.070649562651,135.86737874193,
490,E2520100094111,坂本市民格技場,滋賀県大津市坂本6-1-11,1,,,35.071724550726,135.87122832644,
491,E2520100095111,坂本幼稚園,滋賀県大津市坂本6-1-12,1,,,35.071899814763,135.87082013311,
492,E2520100095112,坂本市民センター,滋賀県大津市坂本6-1-12,1,,,35.071408087434,135.87077185335,
493,E2520100096111,比叡ふれあいセンター,滋賀県大津市坂本6-33-19,1,,,35.077140098305,135.87435490077,
494,E2520100096112,坂本市民体育館,滋賀県大津市坂本6-33-19,1,,,35.077087416759,135.87471968119,
495,E2520100266111,比叡山延暦寺会館,滋賀県大津市坂本本町4220,,,,35.070765,135.843358,
496,E2520100098111,長等幼稚園,滋賀県大津市三井寺町10-30,1,,,35.011291565668,135.8568996946,
497,E2520100099111,瀬田南小学校体育館,滋賀県大津市三大寺1-1,1,,,34.974317828374,135.91498012929,
498,E2520100100121,瀬田南児童クラブ,滋賀県大津市三大寺1-11,,,要配慮者,34.974084858448,135.91448660285,
499,E2520100101111,みなみっこひろば（瀬田南幼稚園・瀬田南保育園）,滋賀県大津市三大寺1-3,1,,,34.974572775836,135.91560776621,
500,E2520100102111,山中会館,滋賀県大津市山中町1-12,1,,,35.039537606735,135.82269819226,
501,E2520100105111,埋蔵文化財調査センター,滋賀県大津市滋賀里1-17-23,1,,,35.043254589648,135.85565880917,
502,E2520100106111,滋賀里交流センター,滋賀県大津市滋賀里1-9-11,1,,,35.043905302391,135.8580179651,
503,E2520100111111,膳所児童館,滋賀県大津市昭和町15-15,1,,,34.99813923263,135.88781829952,
504,E2520100112111,膳所ふれあいセンター,滋賀県大津市昭和町15-25,1,,,34.998209542582,135.88752862095,
505,E2520100113121,膳所保育園,滋賀県大津市昭和町17-32,1,,妊産婦・乳幼児,34.998808219932,135.88850597321,
506,E2520100268111,滋賀アリーナ（エントランスホール　等）,滋賀県大津市上田上中野町779,1,,,34.971776,135.95106,
507,E2520100114111,田上中学校体育館,滋賀県大津市新免1-1-12,1,,,34.949862772899,135.9498692425,
508,E2520100114112,田上中学校武道場,滋賀県大津市新免1-1-12,1,,,34.949791,135.948176,
509,E2520100115111,真野小学校体育館,滋賀県大津市真野4-6-17,1,,,35.132761455911,135.91214106731,
510,E2520100116111,真野市民センター,滋賀県大津市真野4-6-2,1,,,35.131518621579,135.91273591791,
511,E2520100117111,真野幼稚園,滋賀県大津市真野4-6-27,1,,,35.133287910125,135.912226898,
512,E2520100118111,瀬田工業高校体育館,滋賀県大津市神領3-18-1,1,,,34.970462750201,135.91314549833,
513,E2520100119111,瀬田南市民センター,滋賀県大津市神領3-8-9,1,,,34.971245209477,135.9141754666,
514,E2520100120111,小野小学校体育館,滋賀県大津市水明1-34-2,1,,,35.146224050349,135.91884939875,
515,E2520100121121,小野児童館・小野児童クラブ,滋賀県大津市水明1-37-1,,,要配慮者,35.146976358764,135.92089466419,
516,E2520100123111,滋賀県立東大津高校柔剣道場,滋賀県大津市瀬田南大萱町1732-2,1,,,34.972371,135.946705,
517,E2520100123112,滋賀県立東大津高校体育館,滋賀県大津市瀬田南大萱町1732-2,1,,,34.972005544647,135.94659010182,
518,E2520100125111,粟津中学校体育館,滋賀県大津市晴嵐1-20-20,1,,,34.984815492388,135.89971206604,
519,E2520100125112,粟津中学校武道場,滋賀県大津市晴嵐1-20-20,1,,,34.984601,135.900202,
520,E2520100126111,真野中学校体育館,滋賀県大津市清風町24-1,1,,,35.141066999329,135.90418083324,
521,E2520100126112,真野中学校武道場,滋賀県大津市清風町24-1,1,,,35.141379775773,135.90422571934,
522,E2520100129111,青山小学校体育館,滋賀県大津市青山3-16-1,1,,,34.981079168555,135.97444318626,
523,E2520100130111,青山幼稚園,滋賀県大津市青山3-16-2,1,,,34.979579652075,135.97421054166,
524,E2520100131121,青山児童クラブ,滋賀県大津市青山3-16-3,,,要配慮者,34.979120020932,135.97407030767,
525,E2520100132111,青山市民センター,滋賀県大津市青山5-13-36,1,,,34.977396876796,135.9693928587,
526,E2520100133112,青山中学校武道場,滋賀県大津市青山8-24-1,1,,,34.97399613758,135.97194661395,
527,E2520100133111,青山中学校体育館,滋賀県大津市青山8-24-1,1,,,34.973952882205,135.97222094664,
528,E2520100134111,石山市民体育館,滋賀県大津市石山寺3-10-35,1,,,34.956105550934,135.90866720324,
529,E2520100135111,石山小学校体育館,滋賀県大津市石山寺3-11-20,1,,,34.955631919025,135.90948762248,
530,E2520100136111,石山市民センター,滋賀県大津市石山寺3-15-15,1,,,34.954079884997,135.90833963702,
531,E2520100137111,石山幼稚園,滋賀県大津市石山寺3-17-8,1,,,34.954210102682,135.90746238206,
532,E2520100139111,旧市立大津市民病院　付属看護専門学校,滋賀県大津市石場10-53,1,,,35.002219504314,135.87704592491,
533,E2520100140111,南郷中学校体育館,滋賀県大津市赤尾町57-1,1,,,34.940278738405,135.89368243663,
534,E2520100140112,南郷中学校武道場,滋賀県大津市赤尾町57-1,1,,,34.94056,135.893785,
535,E2520100141111,滋賀県立膳所高校体育館,滋賀県大津市膳所2-11-1,1,,,34.996450016371,135.889431345,
536,E2520100144121,中老人福祉センター,滋賀県大津市打出浜1-5,,,要配慮者,35.007057269026,135.87461662935,
537,E2520100146111,勤労福祉センター,滋賀県大津市打出浜1-6,1,,,35.00684409385,135.87516189742,
538,E2520100145111,滋賀県立芸術劇場びわ湖ホール,滋賀県大津市打出浜15-1,1,,,35.006967173168,135.87688588915,
539,E2520100265121,びわこ共生モール,滋賀県大津市大萱7-6-43,,,障害者のうち、あらかじめ市長が指定した者,34.995913,135.930545,
540,E2520100147111,瀬田市民センター,滋賀県大津市大江3-2-1,1,,,34.981418216981,135.91984085188,
541,E2520100148111,瀬田小学校体育館,滋賀県大津市大江4-2-1,1,,,34.981919276416,135.92099956617,
542,E2520100149121,瀬田児童クラブ,滋賀県大津市大江4-2-60,,,要配慮者,34.981997603518,135.92052515078,
543,E2520100150111,瀬田幼稚園,滋賀県大津市大江4-3-6,1,,,34.982578321637,135.92108482838,
544,E2520100151111,瀬田中学校体育館,滋賀県大津市大江7-1-1,1,,,34.977500967556,135.92899529042,
545,E2520100151112,瀬田中学校武道場,滋賀県大津市大江7-1-1,1,,,34.977836,135.929125,
546,E2520100152112,瀬田北中学校武道場,滋賀県大津市大将軍1-13-1,1,,,34.992638,135.923615,
547,E2520100152111,瀬田北中学校体育館,滋賀県大津市大将軍1-13-1,1,,,34.992480199829,135.92296546859,
548,E2520100153111,瀬田北幼稚園,滋賀県大津市大将軍1-14-1,1,,,34.991111168405,135.92412329797,
549,E2520100154121,瀬田北児童クラブ,滋賀県大津市大将軍1-14-2,,,要配慮者,34.991552917565,135.92418319147,
550,E2520100155111,瀬田北市民センター,滋賀県大津市大将軍1-14-30,1,,,34.991372733535,135.92434948844,
551,E2520100156111,瀬田北小学校体育館,滋賀県大津市大将軍1-14-5,1,,,34.992036336169,135.92593735618,
552,E2520100157111,大石市民センター,滋賀県大津市大石中1-1-1,1,,,34.911353434049,135.91388930796,
553,E2520100158111,大石幼稚園,滋賀県大津市大石中1-5-9,1,,,34.910403238369,135.91205467731,
554,E2520100159111,大石小学校体育館,滋賀県大津市大石東7-4-1,1,,,34.911076294873,135.91547717602,
555,E2520100162111,滋賀県立大津清陵高校体育館,滋賀県大津市大平1-14-1,1,,,34.9525493634,135.8918812446,
556,E2520100163121,大平保育園,滋賀県大津市大平2-33-22,1,,妊産婦・乳幼児,34.950153503402,135.89437605689,
557,E2520100164111,長等市民センター,滋賀県大津市大門通16-40,1,,,35.014907618043,135.85786423168,
558,E2520100165111,長等小学校体育館,滋賀県大津市大門通5-1,1,,,35.012119803469,135.8557621522,
559,E2520100166111,藤尾小学校体育館,滋賀県大津市茶戸町10-1,1,,,34.995015671096,135.83232169337,
560,E2520100168111,中央市民センター,滋賀県大津市中央2-2-5,1,,,35.008372279094,135.86546210406,
561,E2520100169111,膳所幼稚園,滋賀県大津市中庄2-6-5,1,,,34.990624715022,135.88831701832,
562,E2520100170111,膳所小学校体育館,滋賀県大津市中庄2-8-37,1,,,34.991758559741,135.88791468696,
563,E2520100171111,滋賀短期大学附属高校体育館,滋賀県大津市朝日が丘1-18-1,1,,,34.999451428812,135.86903235068,
564,E2520100172121,朝日が丘保育園,滋賀県大津市朝日が丘1-23-33,1,,妊産婦・乳幼児,35.001609182092,135.87036735025,
565,E2520100173111,晴嵐幼稚園,滋賀県大津市鳥居川町15-22,1,,,34.972850532894,135.90263025074,
566,E2520100174111,唐崎市民センター,滋賀県大津市唐崎2-10-1,1,,,35.048559968688,135.86563029458,
567,E2520100175112,唐崎中学校武道場,滋賀県大津市唐崎2-9-1,1,,,35.047004959037,135.86758066326,
568,E2520100175111,唐崎中学校体育館,滋賀県大津市唐崎2-9-1,1,,,35.047413736174,135.86822130849,
569,E2520100178111,大津幼稚園,滋賀県大津市島の関1-50,1,,,35.007563213747,135.86937662597,
570,E2520100179111,中央小学校体育館,滋賀県大津市島の関1-60,1,,,35.007848814655,135.86967166895,
571,E2520100177111,市民会館,滋賀県大津市島の関14-1,1,,,35.009452528617,135.86976776869,
572,E2520100180111,南郷市民センター,滋賀県大津市南郷1-12-13,1,,,34.942341820984,135.90824052478,
573,E2520100181121,南老人福祉センター,滋賀県大津市南郷1-14-30,,,要配慮者,34.941541496079,135.9084551015,
574,E2520100182111,南郷小学校体育館,滋賀県大津市南郷1-15-9,1,,,34.940886407632,135.90723490281,
575,E2520100184111,南郷幼稚園,滋賀県大津市南郷3-15-1,1,,,34.93861220886,135.90215865334,
576,E2520100185111,志賀小学校体育館,滋賀県大津市南志賀1-5-1,1,,,35.034990741519,135.85588283541,
577,E2520100186111,滋賀市民センター,滋賀県大津市南志賀1-8-32,1,,,35.035660359563,135.85703054961,
578,E2520100187111,小松小学校体育館,滋賀県大津市南小松1122,1,,,35.235554127832,135.95681242713,
579,E2520100188111,志賀中学校武道場,滋賀県大津市南船路1029,1,,,35.180229,135.909135,
580,E2520100188112,志賀中学校体育館,滋賀県大津市南船路1029,1,,,35.18045398268,135.9091481134,
581,E2520100191111,日吉台市民センター,滋賀県大津市日吉台1-15-1,1,,,35.079035822251,135.87856008863,
582,E2520100192111,日吉台小学校体育館,滋賀県大津市日吉台3-33-3,1,,,35.083242862855,135.8756852615,
583,E2520100194111,滋賀県立大津高校体育館,滋賀県大津市馬場1-1-1,1,,,35.001016750162,135.88303313309,
584,E2520100195111,平野小学校体育館,滋賀県大津市馬場1-2-1,1,,,35.001454861116,135.88193369553,
585,E2520100196111,平野幼稚園,滋賀県大津市馬場1-5-28,1,,,35.00270770238,135.87995516427,
586,E2520100197121,やまびこ総合支援センター,滋賀県大津市馬場2-13-50,,,知的障害者及び精神障害者のうち、あらかじめ市長が指定した者,35.000175041374,135.87832540104,
587,E2520100198111,平野市民センター,滋賀県大津市馬場3-15-45,1,,,34.99832173948,135.88206244157,
588,E2520100201111,比叡平小学校体育館,滋賀県大津市比叡平1-45-1,1,,,35.032934731375,135.83487787593,
589,E2520100202121,やまのこひろば（比叡平幼稚園・ひえい平保育園）,滋賀県大津市比叡平1-45-3,1,,要配慮者,35.032652647853,135.83412533958,
590,E2520100203121,山中比叡平児童クラブ,滋賀県大津市比叡平1-45-4,,,要配慮者,35.032226572325,135.83567029198,
591,E2520100204111,住民交流・まちづくりセンター,滋賀県大津市比叡平2-39-4,1,,,35.028516960046,135.82821817843,
592,E2520100205111,山中比叡平市民センター,滋賀県大津市比叡平3-57-1,1,,,35.031302348961,135.83134331418,
593,E2520100207112,皇子山中学校武道場,滋賀県大津市尾花川12-1,1,,,35.02037,135.858631,
594,E2520100207111,皇子山中学校体育館,滋賀県大津市尾花川12-1,1,,,35.020853520692,135.85865969875,
595,E2520100210121,旧大津公会堂,滋賀県大津市浜大津1-4-1,,,要配慮者,35.010419775611,135.86535481569,
596,E2520100213111,富士見小学校体育館,滋賀県大津市富士見台42-16,1,,,34.97921971191,135.88254050885,
597,E2520100214111,富士見幼稚園,滋賀県大津市富士見台45-5,1,,,34.979580133069,135.88395671522,
598,E2520100215112,石山中学校武道場,滋賀県大津市平津1-23-1,1,,,34.947493608681,135.90782332997,
599,E2520100215111,石山中学校体育館,滋賀県大津市平津1-23-1,1,,,34.947444937954,135.90962173293,
600,E2520100217111,上田上幼稚園,滋賀県大津市平野1-18-20,1,,,34.959632128059,135.96077082101,
601,E2520100218111,上田上小学校体育館,滋賀県大津市平野1-18-5,1,,,34.959559434114,135.95960501183,
602,E2520100219111,小松市民センター,滋賀県大津市北小松565,1,,,35.254980250597,135.97376636829,
603,E2520100220111,晴嵐市民センター,滋賀県大津市北大路1-9-5,1,,,34.975754732443,135.8992135677,
604,E2520100221111,北大路中学校体育館,滋賀県大津市北大路3-22-1,1,,,34.969377901867,135.8865649374,
605,E2520100221112,北大路中学校武道場,滋賀県大津市北大路3-22-1,1,,,34.969634,135.887065,
606,E2520100223111,上田上市民センター,滋賀県大津市牧1-1-24,1,,,34.959519866103,135.96192244042,
607,E2520100224111,膳所市民センター,滋賀県大津市本丸町6-40,1,,,34.994680972746,135.89369486513,
608,E2520100225111,生涯学習センター,滋賀県大津市本丸町6-50,1,,,34.994030532376,135.89370784666,
609,E2520100227112,打出中学校武道場,滋賀県大津市本宮2-46-1,1,,,34.996450317176,135.8717086258,
610,E2520100227111,打出中学校体育館,滋賀県大津市本宮2-46-1,1,,,34.997188293846,135.87216882631,
611,E2520100228121,滋賀保護院,滋賀県大津市本宮2-6-45,,,障害者のうちあらかじめ市長が指定した者,34.999611,135.873718,
612,E2520100229111,本福寺こども園,滋賀県大津市本堅田1-22-30,1,,,35.111354663176,135.9198112124,
613,E2520100230112,堅田中学校武道場,滋賀県大津市本堅田3-22-1,1,,,35.11408729662,135.91851671164,
614,E2520100230111,堅田中学校体育館,滋賀県大津市本堅田3-22-1,1,,,35.115080237755,135.91772152871,
615,E2520100231111,堅田小学校体育館,滋賀県大津市本堅田3-6-1,1,,,35.112473673524,135.91600491494,
616,E2520100232111,堅田幼稚園,滋賀県大津市本堅田3-7-17,1,,,35.113750637126,135.91606928795,
617,E2520100233111,堅田市民センター,滋賀県大津市本堅田3-8-1,1,,,35.114272826099,135.91474964112,
618,E2520100234111,堅田高校体育館,滋賀県大津市本堅田3-9-1,1,,,35.112969541492,135.91400935143,
619,E2520100236121,堅田保育園,滋賀県大津市本堅田4-26-1,,,妊産婦・乳幼児,35.117620041293,135.91862817834,
620,E2520100237111,第二本福寺こども園,滋賀県大津市本堅田6-14-11,1,,,35.11790314376,135.90905284632,
621,E2520100238111,堅田かすがやま翔裕館,滋賀県大津市本堅田6-16-8,1,,,35.11770715563,135.90956761823,
622,E2520100239121,天神山保育園,滋賀県大津市本堅田6-3-1,1,,妊産婦・乳幼児,35.115347138067,135.9073279747,
623,E2520100240111,木戸市民センター,滋賀県大津市木戸58,1,,,35.206305871013,135.92112817279,
624,E2520100243111,びわ湖大津館,滋賀県大津市柳が崎5-35,1,,,35.026644140617,135.86776477619,
625,E2520100245111,雄琴市民センター,滋賀県大津市雄琴1-17-2,1,,,35.090026077109,135.89562855203,
626,E2520100246121,雄琴児童クラブ,滋賀県大津市雄琴2-16-1,1,,要配慮者,35.091915706547,135.89368797382,
627,E2520100246111,雄琴小学校体育館,滋賀県大津市雄琴2-16-1,1,,,35.092839214766,135.89374208941,
628,E2520100249111,田上市民センター,滋賀県大津市里3-9-1,1,,,34.938238189022,135.92882010727,
629,E2520100250111,田上小学校体育館,滋賀県大津市里5-8-1,1,,,34.936980036143,135.9310707754,
630,E2520100251111,滋賀短期大学,滋賀県大津市竜が丘24-4,1,,,34.995521788285,135.87408714235,
631,E2520100252111,真野北小学校体育館,滋賀県大津市緑町15-2,1,,,35.144058638585,135.90812247621,
632,E2520100254111,伊香立・真野北幼稚園,滋賀県大津市緑町16-2,1,,,35.145535736102,135.91018776142,
633,E2520100255111,真野北市民センター,滋賀県大津市緑町4-1,1,,,35.141663788241,135.90881214459,
634,E2520100256111,和邇文化センター,滋賀県大津市和邇高城12,1,,,35.15953880573,135.92172954572,
635,E2520100257111,和邇市民体育館,滋賀県大津市和邇高城27-2,1,,,35.15909303706,135.92164346806,
636,E2520100258111,志賀南幼稚園,滋賀県大津市和邇今宿482-1,1,,,35.153915152384,135.92253141027,
637,E2520100260111,和邇小学校体育館,滋賀県大津市和邇中190,1,,,35.157787799182,135.91997857516,
638,E2520300001111,南中学校,滋賀県長浜市永久寺町810,1,,,35.3732308827003,136.296122996412,
639,E2520300002122,びわ北小学校,滋賀県長浜市益田町56,1,,,35.423415961023,136.22053381711,
640,E2520300002111,びわ北小学校,滋賀県長浜市益田町56,1,,,35.4233941039396,136.220329969226,
641,E2520300003111,長浜南小学校,滋賀県長浜市加田町1460,1,,,35.3681819805597,136.303847670706,
642,E2520300003122,長浜南小学校,滋賀県長浜市加田町1460,1,,,35.368106011103,136.30368464563,
643,E2520300004111,長浜市民体育館,滋賀県長浜市宮司町1203,1,,,35.3775762837733,136.287552780341,
644,E2520300004122,長浜市民体育館,滋賀県長浜市宮司町1203,1,,,35.377633573268,136.28744971553,
645,E2520300005111,虎姫高等学校,滋賀県長浜市宮部町2410,1,,,35.4197586873341,136.265503146647,
646,E2520300005122,虎姫高等学校,滋賀県長浜市宮部町2410,1,,,35.419761966045,136.26563457489,
647,E2520300006121,びわ中学校,滋賀県長浜市弓削町460,1,,,35.41854532572,136.23234603018,
648,E2520300006111,びわ中学校,滋賀県長浜市弓削町460,1,,,35.41860145386,136.232589379077,
649,E2520300007111,朝日小学校,滋賀県長浜市湖北町山本1125,1,,,35.4462936679822,136.212259640045,
650,E2520300007122,朝日小学校,滋賀県長浜市湖北町山本1125,1,,,35.446319889022,136.21231864864,
651,E2520300008111,山本山運動広場体育館,滋賀県長浜市湖北町山本2868,1,,,35.4417944704246,136.209444593778,
652,E2520300009111,湖北中学校,滋賀県長浜市湖北町速水1191,1,,,35.4441722615849,136.242347533298,
653,E2520300010111,湖北体育館,滋賀県長浜市湖北町速水1210,1,,,35.4448984382004,136.243188163482,
654,E2520300011111,速水小学校,滋賀県長浜市湖北町速水2561-1,1,,,35.4425599136716,136.235674239091,
655,E2520300011122,速水小学校,滋賀県長浜市湖北町速水2561-1,1,,,35.442506630284,136.23545927579,
656,E2520300012111,湖北文化ホール,滋賀県長浜市湖北町速水2745,1,,,35.446391597335,136.24343143018,
657,E2520300012122,湖北文化ホール,滋賀県長浜市湖北町速水2745,1,,,35.4463999001221,136.243338622578,
658,E2520300013111,虎姫運動広場体育館,滋賀県長浜市五村360-1,1,,,35.421636475494,136.26548520412,
659,E2520300013122,虎姫運動広場体育館,滋賀県長浜市五村360-1,1,,,35.421728226964,136.26543921272,
660,E2520300014122,虎姫学園,滋賀県長浜市五村88,1,,,35.420754646915,136.26396438138,
661,E2520300014111,虎姫学園,滋賀県長浜市五村88,1,,,35.4208299163881,136.264170125817,
662,E2520300015111,富永小学校,滋賀県長浜市高月町井口160,1,,,35.4892438212071,136.239548167241,
663,E2520300015122,富永小学校,滋賀県長浜市高月町井口160,1,,,35.48933275785,136.23944870002,
664,E2520300016111,高月中学校,滋賀県長浜市高月町高月2491-1,1,,,35.4698644269563,136.227063198768,
665,E2520300016122,高月中学校,滋賀県長浜市高月町高月2491-1,1,,,35.470016392812,136.22699631822,
666,E2520300017122,高月小学校,滋賀県長浜市高月町高月738,1,,,35.472357573516,136.23267180441,
667,E2520300017111,高月小学校,滋賀県長浜市高月町高月738,1,,,35.4724077273155,136.232817775306,
668,E2520300018111,古保利小学校,滋賀県長浜市高月町西柳野38,1,,,35.4638861382478,136.211642674206,
669,E2520300018122,古保利小学校,滋賀県長浜市高月町西柳野38,1,,,35.463907984338,136.2117928779,
670,E2520300019111,高月まちづくりセンター,滋賀県長浜市高月町渡岸寺141-1,1,,,35.4747870071695,136.235231065774,
671,E2520300019122,高月まちづくりセンター,滋賀県長浜市高月町渡岸寺141-1,1,,,35.4748245037344,136.235267794086,
672,E2520300020111,七郷小学校,滋賀県長浜市高月町唐川248,1,,,35.4852585149083,136.219604346908,
673,E2520300020122,七郷小学校,滋賀県長浜市高月町唐川248,1,,,35.48525414685,136.21947023648,
674,E2520300021111,高月運動広場体育館,滋賀県長浜市高月町東柳野3-1,1,,,35.4700559193537,136.223191961351,
675,E2520300021121,高月運動広場体育館,滋賀県長浜市高月町東柳野3-1,1,,,35.4700702158158,136.223088290988,
676,E2520300022111,西中学校,滋賀県長浜市高田町10-10,1,,,35.3802939959456,136.276404200625,
677,E2520300022122,西中学校,滋賀県長浜市高田町10-10,1,,,35.380291927204,136.27653357183,
678,E2520300023122,長浜小学校,滋賀県長浜市高田町9-9,1,,,35.379670851621,136.27415713464,
679,E2520300023111,長浜小学校,滋賀県長浜市高田町9-9,1,,,35.3797484863301,136.274320749396,
680,E2520300024111,田根まちづくりセンター,滋賀県長浜市高畑町316-1,1,,,35.4546788397367,136.291332237047,
681,E2520300024122,田根まちづくりセンター,滋賀県長浜市高畑町316-1,1,,,35.454704137884,136.29130539134,
682,E2521400001121,滋賀県長浜養護学校,滋賀県長浜市今町920,,,要配慮者,35.4127076660084,136.299415093954,
683,E2520300025122,七尾まちづくりセンター,滋賀県長浜市佐野町181,1,,,35.414918825807,136.33128295196,
684,E2520300025111,七尾まちづくりセンター,滋賀県長浜市佐野町181,1,,,35.4148743024479,136.331359391611,
685,E2520300026111,旧七尾小学校,滋賀県長浜市佐野町22,1,,,35.4148742574886,136.336569844506,
686,E2520300026122,旧七尾小学校,滋賀県長浜市佐野町22,1,,,35.41489013149,136.33670645129,
687,E2520300027111,北郷里小学校,滋賀県長浜市春近町353,1,,,35.4006114325235,136.321587475775,
688,E2520300027122,北郷里小学校,滋賀県長浜市春近町353,1,,,35.400557890946,136.32142825416,
689,E2520300028111,六荘まちづくりセンター「六角館」,滋賀県長浜市勝町490,1,,,35.3713973805564,136.287078033811,
690,E2520300028121,六荘まちづくりセンター「六角館」,滋賀県長浜市勝町490,1,,,35.371390983818,136.28712303481,
691,E2520300029111,小谷小学校,滋賀県長浜市小谷丁野町524,1,,,35.4579582455986,136.259157816966,
692,E2520300029122,小谷小学校,滋賀県長浜市小谷丁野町524,1,,,35.457970548449,136.25924038573,
693,E2520300030111,西黒田まちづくりセンター,滋賀県長浜市常喜町500-1,1,,,35.3704708518646,136.3138186555,
694,E2520300030122,西黒田まちづくりセンター,滋賀県長浜市常喜町500-1,1,,,35.3704108985765,136.313683179629,
695,E2520300031111,南郷里まちづくりセンター,滋賀県長浜市新栄町1065-2,1,,,35.3886888552171,136.299651891965,
696,E2520300031121,南郷里まちづくりセンター,滋賀県長浜市新栄町1065-2,1,,,35.388768998944,136.299618719903,
697,E2520300032111,神照まちづくりセンター,滋賀県長浜市神照町286-1,1,,,35.3980479792316,136.276239907698,
698,E2520300032121,神照まちづくりセンター,滋賀県長浜市神照町286-1,1,,,35.3979967836764,136.27605233917,
699,E2520300033111,神照小学校,滋賀県長浜市神照町311,1,,,35.3991496386923,136.274775445591,
700,E2520300033122,神照小学校,滋賀県長浜市神照町311,1,,,35.399080935976,136.27463063401,
701,E2520300034111,北中学校,滋賀県長浜市神照町910,1,,,35.3935306013049,136.269537607628,
702,E2520300034122,北中学校,滋賀県長浜市神照町910,1,,,35.393574125631,136.26941618126,
703,E2520300035111,長浜地域総合センター,滋賀県長浜市西上坂町1164,1,,,35.4079634626919,136.312666911605,
704,E2520300035122,長浜地域総合センター,滋賀県長浜市西上坂町1164,1,,,35.40803417112,136.3126498412,
705,E2520300036111,西浅井中学校,滋賀県長浜市西浅井町塩津中312,1,,,35.5241423098067,136.158761188169,
706,E2520300036122,西浅井中学校,滋賀県長浜市西浅井町塩津中312,1,,,35.524180413064,136.1588745876,
707,E2520300037111,塩津小学校,滋賀県長浜市西浅井町塩津中41,1,,,35.530851910297,136.157422364744,
708,E2520300037121,塩津小学校,滋賀県長浜市西浅井町塩津中41,1,,,35.530780394615,136.15727682632,
709,E2520300038111,永原小学校,滋賀県長浜市西浅井町大浦167,1,,,35.4989555683999,136.125594522164,
710,E2520300038121,永原小学校,滋賀県長浜市西浅井町大浦167,1,,,35.498973488246,136.12550488856,
711,E2520300039122,西浅井まちづくりセンター,滋賀県長浜市西浅井町大浦2590,1,,,35.498518193246,136.12370008212,
712,E2520300039111,西浅井まちづくりセンター,滋賀県長浜市西浅井町大浦2590,1,,,35.4984355590412,136.123826197708,
713,E2520300040121,びわ南小学校,滋賀県長浜市川道町3456,1,,,35.40504985583,136.23934294478,
714,E2520300040111,びわ南小学校,滋賀県長浜市川道町3456,1,,,35.4051111869337,136.239559403692,
715,E2520300041111,長浜北星高等学校,滋賀県長浜市地福寺町3-72,1,,,35.3772241786598,136.276612764057,
716,E2520300041121,長浜北星高等学校,滋賀県長浜市地福寺町3-72,1,,,35.377278325424,136.27672132947,
717,E2520300042111,長浜市民交流センター,滋賀県長浜市地福寺町4-36,1,,,35.377333,136.279267,
718,E2520300043111,長浜バイオ大学,滋賀県長浜市田村町1266,1,,,35.3569016571089,136.28026086188,
719,E2520300043122,長浜バイオ大学,滋賀県長浜市田村町1266,1,,,35.356919788423,136.28032694939,
720,E2520300044111,滋賀文教短期大学,滋賀県長浜市田村町335,1,,,35.3583823667145,136.287522349111,
721,E2520300044121,滋賀文教短期大学,滋賀県長浜市田村町335,1,,,35.358342947757,136.28739418971,
722,E2520300045111,虎姫まちづくりセンター,滋賀県長浜市田町108,1,,,35.4225374963695,136.260040063626,
723,E2520300045121,虎姫まちづくりセンター,滋賀県長浜市田町108,1,,,35.422524975524,136.25995113942,
724,E2520300046111,北郷里まちづくりセンター,滋賀県長浜市東上坂町976-7,1,,,35.4013263374788,136.321677965634,
725,E2520300046121,北郷里まちづくりセンター,滋賀県長浜市東上坂町976-7,1,,,35.4013458213117,136.321645365583,
726,E2520300047121,浅井小学校,滋賀県長浜市当目町54,1,,,35.435018312142,136.32821718238,
727,E2520300047111,浅井小学校,滋賀県長浜市当目町54,1,,,35.434989870707,136.328141788176,
728,E2520300048111,湯田小学校,滋賀県長浜市内保町1051,1,,,35.4295745025116,136.295159617185,
729,E2520300048121,湯田小学校,滋賀県長浜市内保町1051,1,,,35.429562175193,136.29533039639,
730,E2520300049111,浅井文化ホール,滋賀県長浜市内保町2500,1,,,35.4284160125912,136.299214683066,
731,E2520300049121,浅井文化ホール,滋賀県長浜市内保町2500,1,,,35.428398572093,136.29903322801,
732,E2520300050111,湯田まちづくりセンター,滋賀県長浜市内保町2645,1,,,35.4322923172296,136.295664747801,
733,E2520300050121,湯田まちづくりセンター,滋賀県長浜市内保町2645,1,,,35.43228380543,136.29560970872,
734,E2520300051121,浅井中学校,滋賀県長浜市内保町627,1,,,35.431143871696,136.29828012558,
735,E2520300051111,浅井中学校,滋賀県長浜市内保町627,1,,,35.4311655090938,136.298436195791,
736,E2520300052121,南郷里小学校,滋賀県長浜市南田附町352,1,,,35.388776615689,136.30199422891,
737,E2520300052111,南郷里小学校,滋賀県長浜市南田附町352,1,,,35.3887744725191,136.301913969622,
738,E2520300053121,びわまちづくりセンター,滋賀県長浜市難波町448,1,,,35.411595631353,136.23294911072,
739,E2520300053111,びわまちづくりセンター,滋賀県長浜市難波町448,1,,,35.4115500371817,136.233013821532,
740,E2520300054121,長浜北小学校,滋賀県長浜市八幡中山町1310,1,,,35.390896879045,136.26565864103,
741,E2520300054111,長浜北小学校,滋賀県長浜市八幡中山町1310,1,,,35.3909314505047,136.265778229014,
742,E2520300055111,あじさいホール,滋賀県長浜市富田町431,1,,,35.424473601773,136.22296029343,
743,E2520300055121,あじさいホール,滋賀県長浜市富田町431,1,,,35.424538742976,136.22306973964,
744,E2520300056111,長浜北高等学校,滋賀県長浜市平方町270,1,,,35.3700252938168,136.277087447921,
745,E2520300056121,長浜北高等学校,滋賀県長浜市平方町270,1,,,35.369992140216,136.27717363263,
746,E2520300057111,下草野まちづくりセンター,滋賀県長浜市北ノ郷町105,1,,,35.4339671485895,136.33000222898,
747,E2520300057121,下草野まちづくりセンター,滋賀県長浜市北ノ郷町105,1,,,35.433886028572,136.32984961333,
748,E2520300058111,東中学校,滋賀県長浜市堀部町763,1,,,35.3919355161024,136.316817441711,
749,E2520300058122,東中学校,滋賀県長浜市堀部町763,1,,,35.391897317749,136.31670093686,
750,E2520300059122,長浜農業高等学校,滋賀県長浜市名越町600,1,,,35.366202690431,136.31988533708,
751,E2520300059111,長浜農業高等学校,滋賀県長浜市名越町600,1,,,35.3661887833073,136.319987035019,
752,E2520300060122,旧杉野小中学校,滋賀県長浜市木之本町杉野489,1,,,35.570342081002,136.26858303507,
753,E2520300060111,旧杉野小中学校,滋賀県長浜市木之本町杉野489,1,,,35.5702752608258,136.268664240607,
754,E2520300061122,長浜伊香ツインアリーナ,滋賀県長浜市木之本町西山183-3,1,,,35.4976805982011,136.212918090748,
755,E2520300061111,長浜伊香ツインアリーナ,滋賀県長浜市木之本町西山183-3,1,,,35.4977781531383,136.21303509988,
756,E2520300062122,高時小学校,滋賀県長浜市木之本町石道1079-1,1,,,35.50189351505,136.25175347899,
757,E2520300062111,高時小学校,滋賀県長浜市木之本町石道1079-1,1,,,35.5019601175718,136.251872196467,
758,E2520300063122,伊香具小学校,滋賀県長浜市木之本町大音1114,1,,,35.500518548997,136.19795215686,
759,E2520300063111,伊香具小学校,滋賀県長浜市木之本町大音1114,1,,,35.5005280374371,136.197994707698,
760,E2520300064111,大見いこいの広場,滋賀県長浜市木之本町大見678,1,,,35.5321829164357,136.238383041601,
761,E2520300064122,大見いこいの広場,滋賀県長浜市木之本町大見678,1,,,35.5321528258026,136.238293151044,
762,E2520300065111,木之本文化センター,滋賀県長浜市木之本町田部542,1,,,35.5011703646065,136.230140290089,
763,E2520300065121,木之本文化センター,滋賀県長浜市木之本町田部542,1,,,35.501196567756,136.23009201034,
764,E2520300066111,木之本スティックホール,滋賀県長浜市木之本町木之本1757-6,1,,,35.5026359879733,136.222291652355,
765,E2520300066121,木之本スティックホール,滋賀県長浜市木之本町木之本1757-6,1,,,35.5026205482742,136.222198682284,
766,E2520300067111,伊香高等学校,滋賀県長浜市木之本町木之本251,1,,,35.50889505415,136.229741616688,
767,E2520300067121,伊香高等学校,滋賀県長浜市木之本町木之本251,1,,,35.508864412158,136.22960250502,
768,E2520300068111,木之本中学校,滋賀県長浜市木之本町木之本682,1,,,35.5045581331746,136.228720328294,
769,E2520300068122,木之本中学校,滋賀県長浜市木之本町木之本682,1,,,35.504529965936,136.22854999651,
770,E2520300069111,木之本小学校,滋賀県長浜市木之本町木之本685-1,1,,,35.5057632998659,136.22792546342,
771,E2520300069122,木之本小学校,滋賀県長浜市木之本町木之本685-1,1,,,35.5058452165,136.22785973971,
772,E2520300070122,旧上草野小学校,滋賀県長浜市野瀬町730,1,,,35.464507521375,136.32269945256,
773,E2520300070111,旧上草野小学校,滋賀県長浜市野瀬町730,1,,,35.4643491208267,136.322407703152,
774,E2520300071122,上草野まちづくりセンター,滋賀県長浜市野瀬町809,1,,,35.462946011929,136.32001126829,
775,E2520300071111,上草野まちづくりセンター,滋賀県長浜市野瀬町809,1,,,35.462892379948,136.319981334463,
776,E2520300072111,田根小学校,滋賀県長浜市野田町68,1,,,35.4560335195275,136.299772053914,
777,E2520300072122,田根小学校,滋賀県長浜市野田町68,1,,,35.455984084503,136.29966727729,
778,E2520300073111,菅並集会所,滋賀県長浜市余呉町菅並741-1,1,,,35.5944003128777,136.229273331147,
779,E2520300073121,菅並集会所,滋賀県長浜市余呉町菅並741-1,1,,,35.594442791849,136.22922900843,
780,E2520300074121,中河内集会所,滋賀県長浜市余呉町中河内86-1,1,,,35.665681546968,136.15802517303,
781,E2520300074111,中河内集会所,滋賀県長浜市余呉町中河内86-1,1,,,35.6656489561883,136.158018409861,
782,E2520300075121,旧鏡岡中学校,滋賀県長浜市余呉町中之郷1030,1,,,35.545527429156,136.20291278853,
783,E2520300075111,旧鏡岡中学校,滋賀県長浜市余呉町中之郷1030,1,,,35.5455896771614,136.203034221722,
784,E2520300076121,余呉まちづくりセンター,滋賀県長浜市余呉町中之郷1117-1,1,,,35.5429770269022,136.204840061334,
785,E2520300076111,余呉まちづくりセンター,滋賀県長浜市余呉町中之郷1117-1,1,,,35.5429651087788,136.204904287634,
786,E2520300077121,余呉小中学校,滋賀県長浜市余呉町中之郷777,1,,,35.5497360807343,136.203191456209,
787,E2520300077111,余呉小中学校,滋賀県長浜市余呉町中之郷777,1,,,35.5497336353342,136.203053783903,
788,E2521300001111,能登川高等学校,滋賀県東近江市伊庭町13,,,,35.175506,136.163955,
789,E2521300002111,能登川西小学校,滋賀県東近江市伊庭町2885,1,,,35.1752386819768,136.153542896648,
790,E2521300003111,ちどり幼児園,滋賀県東近江市伊庭町2933-3,,,,35.174781,136.153327,
791,E2521300004111,湖東中学校,滋賀県東近江市横溝町202,1,,,35.130054,136.247246,
792,E2521300005111,南部コミュニティセンター,滋賀県東近江市沖野2-1-34,,,,35.102848,136.20353,
793,E2521300006111,八日市南小学校,滋賀県東近江市沖野3-6-1,1,,,35.0957539568821,136.206713869698,
794,E2521300007111,ひまわり幼児園,滋賀県東近江市沖野3-7-33,,,,35.096404,136.207953,
795,E2521300008111,能登川にじいろ幼児園,滋賀県東近江市乙女浜町176,,,,35.194050782299,136.14326342467,
796,E2521300009111,平田体育館,滋賀県東近江市下羽田町54,,,,35.094393,136.148469,
797,E2521300010111,平田コミュニティセンター,滋賀県東近江市下羽田町84-5,,,,35.094975,136.147707,
798,E2521300011111,愛東コミュニティセンター,滋賀県東近江市下中野町431,,,,35.110108,136.262574,
799,E2521300012111,愛東中学校,滋賀県東近江市下中野町444,1,,,35.111877,136.261107,
800,E2521300013111,湖東第一小学校,滋賀県東近江市下里町21,1,,,35.1388280099758,136.258966964179,
801,E2521300014111,蒲生北小学校,滋賀県東近江市蒲生堂町1287,1,,,35.0503558395929,136.161384009743,
802,E2521300015111,長峰幼稚園,滋賀県東近江市蒲生堂町335,,,,35.036284,136.164907,
803,E2521300016111,五個荘あじさい幼児園,滋賀県東近江市宮荘町631,,,,35.159192,136.190483,
804,E2521300017111,ウェルネス八日市,滋賀県東近江市建部上中町561,,,,35.1257421797786,136.197495888295,
805,E2521300018111,建部コミュニティセンター,滋賀県東近江市建部日吉町31,,,,35.124728,136.196274,
806,E2521300019111,八日市北小学校,滋賀県東近江市建部日吉町468,1,,,35.118071,136.201944,
807,E2521300020111,建部幼稚園,滋賀県東近江市建部日吉町5,,,,35.124805,136.197022,
808,E2521300021111,さくらんぼ幼児園,滋賀県東近江市五個荘金堂町1705,,,,35.156221,136.175921,
809,E2521300022111,五個荘あさひ幼児園,滋賀県東近江市五個荘山本町306,,,,35.14294,136.186305,
810,E2521300023111,五個荘中学校,滋賀県東近江市五個荘小幡町227,1,,,35.1530786203757,136.194189110242,
811,E2521300024111,五個荘体育館,滋賀県東近江市五個荘小幡町297,,,,35.151869,136.193472,
812,E2521300025111,五個荘コミュニティセンター,滋賀県東近江市五個荘小幡町318,1,,,35.15326,136.19317,
813,E2521300026111,ぷらざ三方よし,滋賀県東近江市五個荘塚本町279,,,,35.151837,136.176937,
814,E2521300027111,五個荘小学校,滋賀県東近江市五個荘竜田町567,1,,,35.1525990284742,136.183653368103,
815,E2521300028111,てんびんの里文化学習センター,滋賀県東近江市五個荘竜田町583,,,,35.152046,136.184777,
816,E2521300029111,御園小学校,滋賀県東近江市五智町239,1,,,35.0967440913418,136.232677836605,
817,E2521300030111,御園コミュニティセンター,滋賀県東近江市五智町351-2,,,,35.096982,136.231943,
818,E2521300031111,旧甲津畑小学校体育館,滋賀県東近江市甲津畑町1200-2,,,,35.044304,136.321074,
819,E2521300032111,市原小学校,滋賀県東近江市高木町1124,1,,,35.070624,136.276089,
820,E2521300033111,布引小学校,滋賀県東近江市今堀町581-10,1,,,35.088396,136.190921,
821,E2521300034111,能登川あおぞら幼児園,滋賀県東近江市佐野町379,,,,35.181430677412,136.17744075672,
822,E2521300035111,蒲生東小学校,滋賀県東近江市桜川東町455,1,,,35.0637562751313,136.190253427192,
823,E2521300036111,あかね幼児園,滋賀県東近江市三津屋町12,,,,35.10185990724,136.16505409498,
824,E2521300037111,永源寺コミュニティセンター,滋賀県東近江市山上町1316,1,,,35.077366,136.300372,
825,E2521300038111,山上小学校,滋賀県東近江市山上町200,1,,,35.0746345600546,136.306037198984,
826,E2521300039111,永源寺中学校,滋賀県東近江市山上町4300,1,,,35.080053,136.283147,
827,E2521300040111,能登川アリーナ,滋賀県東近江市山路町2225,,,,35.185009156518,136.15700178317,
828,E2521300041111,能登川中学校,滋賀県東近江市山路町2800,1,,,35.1837496961389,136.161484249287,
829,E2521300042111,ふるさと文化体験学習館,滋賀県東近江市市原野町23,,,,35.0696418066833,136.27445989413,
830,E2521300043111,あかね文化ホール（蒲生コミュニティセンター）,滋賀県東近江市市子川原町461-1,1,,,35.059226,136.182399,
831,E2521300044111,蒲生体育館,滋賀県東近江市市子川原町679,,,,35.060972,136.181123,
832,E2521300045111,朝桜中学校,滋賀県東近江市市子川原町686,1,,,35.061827,136.17949,
833,E2521300046111,市辺コミュニティセンター,滋賀県東近江市市辺町2391,,,,35.098967,136.175125,
834,E2521300047111,船岡中学校,滋賀県東近江市市辺町2789,1,,,35.1029764479773,136.167417296396,
835,E2521300048111,八日市寺小規模保育事業所,滋賀県東近江市寺町799,,,,35.092981,136.252353,
836,E2521300049111,学校法人ヴォーリズ学園そらの鳥こども園,滋賀県東近江市種町2120,,,,35.182328370377,136.18426936942,
837,E2521300050111,八日市南高等学校,滋賀県東近江市春日町1-15,,,,35.105925,136.204992,
838,E2521300051111,能登川東小学校,滋賀県東近江市小川町30,1,,,35.1891818433052,136.167787545358,
839,E2521300052111,湖東第三小学校,滋賀県東近江市小田苅町340,1,,,35.1306661523686,136.225307003563,
840,E2521300053111,箕作小学校,滋賀県東近江市小脇町377,1,,,35.1131129093387,136.186278430587,
841,E2521300054111,永源寺もみじ幼児園,滋賀県東近江市上二俣町24-1,,,,35.069166256294,136.29690520655,
842,E2521300055111,永源寺運動公園体育館,滋賀県東近江市上二俣町44,,,,35.069531,136.29642,
843,E2521300056111,聖徳中学校,滋賀県東近江市聖徳町1-1,1,,,35.104719,136.197998,
844,E2521300057111,おくのの運動公園体育館,滋賀県東近江市青山町70,,,,35.102754,136.271919,
845,E2521300058111,愛東南小学校,滋賀県東近江市曽根町1285,1,,,35.09924635865,136.257590613606,
846,E2521300059111,玉緒幼稚園,滋賀県東近江市大森町1012-3,,,,35.084591,136.225374,
847,E2521300060111,玉緒コミュニティセンター,滋賀県東近江市大森町1030,,,,35.085135,136.224622,
848,E2521300061111,玉緒小学校,滋賀県東近江市大森町971,1,,,35.0842717547977,136.226591863635,
849,E2521300062111,湖東体育館,滋賀県東近江市池庄町488,,,,35.128711,136.244687,
850,E2521300063111,湖東コミュニティセンター,滋賀県東近江市池庄町495,1,,,35.128535,136.245498,
851,E2521300064111,ひばり公園　みすまの館,滋賀県東近江市池庄町610,,,,35.127103,136.248517,
852,E2521300065111,中野コミュニティセンター,滋賀県東近江市中野町781-5,,,,35.106109,136.188498,
853,E2521300066111,能登川南小学校,滋賀県東近江市猪子町12,1,,,35.17817,136.168409,
854,E2521300067111,中野むくのき幼児園,滋賀県東近江市東中野町4-17,,,,35.106698858045,136.19522039558,
855,E2521300068111,保健子育て複合施設ハピネス,滋賀県東近江市東中野町4-5,1,,,35.1066469801469,136.195979568216,
856,E2521300069111,湖東第二小学校,滋賀県東近江市南菩提寺町430,1,,,35.1421079973607,136.237736480226,
857,E2521300070111,八日市西小学校,滋賀県東近江市柏木町14,1,,,35.095503,136.157822,
858,E2521300071111,八日市図書館,滋賀県東近江市八日市金屋2-6-25,,,,35.109641,136.197939,
859,E2521300072111,八日市高等学校,滋賀県東近江市八日市上之町1-25,,,,35.114827,136.202501,
860,E2521300073111,八日市幼稚園,滋賀県東近江市八日市町5-4,,,,35.11257,136.200878,
861,E2521300074111,八日市コミュニティセンター,滋賀県東近江市八日市町9-20,,,,35.112669,136.197954,
862,E2521300075111,東近江大凧会館,滋賀県東近江市八日市東本町3-5,,,,35.108868,136.203211,
863,E2521300076111,愛東北小学校,滋賀県東近江市百済寺本町1399,1,,,35.1195849182713,136.276443865863,
864,E2521300077111,木地師やまの子の家,滋賀県東近江市蛭谷町342-2,,,,35.132748,136.362497,
865,E2521300078111,びわこ学院大学　びわこ学院大学短期大学部,滋賀県東近江市布施町29,,,,35.087671,136.185729,
866,E2521300079111,能登川北小学校,滋賀県東近江市福堂町2877-1,1,,,35.2040697385697,136.129969822334,
867,E2521300080111,湖東ひばり幼児園,滋賀県東近江市平松町829,,,,35.140071,136.248386,
868,E2521300081111,愛東支所,滋賀県東近江市妹町29,1,,,35.10923,136.261272,
869,E2521300082111,愛東あいあい幼稚園,滋賀県東近江市妹町29-4,,,,35.10928128903,136.26035350066,
870,E2521300083111,玉園中学校,滋賀県東近江市妙法寺町1101,1,,,35.097482,136.221359,
871,E2521300084111,わかば幼児園,滋賀県東近江市野村町1934,,,,35.105299,136.220704,
872,E2521300085111,蒲生西小学校,滋賀県東近江市鈴町1,1,,,35.0471689946299,136.178728112822,
873,E2521300086111,鈴鹿の里コミュニティセンター,滋賀県東近江市蓼畑町510,1,,,35.1054232813195,136.371754157424,
874,E2521300087111,やわらぎホール,滋賀県東近江市躰光寺町254-3,1,,,35.184052,136.163017,
875,E2521300088111,能登川コミュニティセンター,滋賀県東近江市躰光寺町262,1,,,35.18464214689,136.16263276121,
876,E2538300002111,日野中学校,滋賀県日野町松尾3-68,1,,,35.017297791786,136.24183153887,
877,E2538300003111,保育所あおぞら園,滋賀県日野町村井3-14,,,,35.015281316631,136.25425664857,
878,E2538300004111,保育所あおぞら園鎌掛分園,滋賀県日野町大字鎌掛2362,1,,,34.989130369913,136.26050734075,
879,E2538300005111,鎌掛公民館,滋賀県日野町大字鎌掛2526,,,,34.986166544103,136.26038664334,
880,E2538300006111,桜谷小学校,滋賀県日野町大字佐久良37,1,,,35.044198184263,136.26200823571,
881,E2538300007111,必佐公民館,滋賀県日野町大字三十坪1290,,,,35.0186191244,136.21478583199,
882,E2538300008111,保育所こばと園,滋賀県日野町大字三十坪1315-1,,,,35.019174211556,136.21495350639,
883,E2538300009111,必佐小学校,滋賀県日野町大字小御門444,1,,,35.016866261375,136.21980442996,
884,E2538300010111,図書館,滋賀県日野町大字松尾1655,,,,35.019385321607,136.24646131632,
885,E2538300011111,わたむきホール虹,滋賀県日野町大字松尾1661,,,,35.02021977182,136.24497938822,
886,E2538300012111,日野高等学校,滋賀県日野町大字上野田150,,,,35.01254618451,136.237973414,
887,E2538300013111,南比都佐幼稚園,滋賀県日野町大字深山口431,1,,,34.98642026408,136.23097468634,
888,E2538300013112,南比都佐小学校,滋賀県日野町大字深山口431,1,,,34.9872465205,136.23038460037,
889,E2538300014111,南比都佐公民館,滋賀県日野町大字深山口939,,,,34.988028965498,136.23050028944,
890,E2538300015111,西大路小学校,滋賀県日野町大字西大路1631,1,,,35.007662022548,136.27752598729,
891,E2538300016111,西大路幼稚園,滋賀県日野町大字西大路47-1,,,,35.008469592026,136.27608290376,
892,E2538300017111,西大路公民館,滋賀県日野町大字西大路48-1,,,,35.008624445928,136.27551406285,
893,E2538300018111,日野幼稚園,滋賀県日野町大字大窪331,1,,,35.016545124584,136.24748728392,
894,E2538300018112,日野小学校,滋賀県日野町大字大窪331,1,,,35.01535890195,136.24862990497,
895,E2538300019111,大谷公園,滋賀県日野町大字大谷341-1,,,,35.030212534321,136.23834261625,
896,E2538300020111,児童交流施設（旧桜谷幼稚園）,滋賀県日野町大字中之郷428-3,,,,35.040373241411,136.26657626154,
897,E2538300021111,東桜谷公民館,滋賀県日野町大字中之郷428-8,,,,35.040138489265,136.26631484856,
898,E2538300022111,必佐幼稚園,滋賀県日野町大字内池606,,,,35.016446441283,136.22092792091,
899,E2538300023113,西桜谷公民館,滋賀県日野町大字北脇988,1,,,35.055387920746,136.23081697719,
900,E2538300023111,桜谷こども園（第１園舎）,滋賀県日野町大字北脇988,1,,,35.055313268654,136.23119785087,
901,E2538300023112,桜谷こども園（第２園舎）,滋賀県日野町大字北脇988,1,,,35.055809484218,136.23189522521,
902,E2538300024111,日野公民館,滋賀県日野町中道2-12,,,,35.015225302865,136.24987911272,
903,E2520200001111,彦根市立佐和山小学校,滋賀県彦根市安清町11-32,1,,,35.26417185,136.2595658,
904,E2520200002111,彦根市立稲枝東小学校,滋賀県彦根市稲部町308,1,,,35.20770111,136.1955295,
905,E2520200005111,彦根市立稲枝北小学校,滋賀県彦根市下岡部町597,1,,,35.22178997,136.1784924,
906,E2520200007111,彦根市立亀山小学校,滋賀県彦根市賀田山町8,1,,,35.22076097,136.214337,
907,E2520200010111,彦根市立城陽小学校,滋賀県彦根市甘呂町430,1,,,35.24701105,136.2258338,
908,E2520200011111,彦根市立城東小学校,滋賀県彦根市京町2-2-19,1,,,35.26942422,136.2576916,
909,E2520200012111,彦根市立河瀬小学校,滋賀県彦根市極楽寺町118,1,,,35.22813891,136.2396985,
910,E2520200020111,彦根市立高宮小学校,滋賀県彦根市高宮町2447,1,,,35.23248213,136.2583253,
911,E2520200064111,彦根市スポーツ・文化交流センター,滋賀県彦根市小泉町640,1,,,35.246986,136.244754,
912,E2520200026111,彦根市立城北小学校,滋賀県彦根市松原町3751-3,1,,,35.28423543,136.257197,
913,E2520200033111,彦根市立城南小学校,滋賀県彦根市西今町380,1,,,35.24828192,136.2429774,
914,E2520200038111,彦根市立金城小学校,滋賀県彦根市大薮町391,1,,,35.26919567,136.2346682,
915,E2520200042111,彦根市立鳥居本小学校,滋賀県彦根市鳥居本町1550-1,1,,,35.28170497,136.2858382,
916,E2520200045111,彦根市立旭森小学校,滋賀県彦根市東沼波町300,1,,,35.24947958,136.2647941,
917,E2520200052111,彦根市立平田小学校,滋賀県彦根市平田町267,1,,,35.2596671,136.2436542,
918,E2520200055111,彦根市立稲枝西小学校,滋賀県彦根市本庄町3583,1,,,35.20951955,136.1599635,
919,E2520200060111,彦根市立城西小学校,滋賀県彦根市本町3-3-22,1,,,35.27187707,136.2486427,
920,E2520200063111,彦根市立若葉小学校,滋賀県彦根市蓮台寺町180,1,,,35.23350157,136.2245948,
921,E2521400002111,米原市立坂田小学校,滋賀県米原市宇賀野508,1,,,35.337454529884,136.289132240351,
922,E2521400003111,米原市立まいばら認定こども園,滋賀県米原市下多良146-1,1,,,35.3186694013355,136.286600801705,
923,E2521400004111,米原市米原学びあいステーション,滋賀県米原市下多良3-3,1,,,35.3145903513524,136.283802202001,
924,E2521400005111,米原市立河南中学校,滋賀県米原市河南295,1,,,35.3207331335211,136.332352346405,
925,E2521400006111,滋賀県立高等技術専門校米原校舎,滋賀県米原市岩脇411-1,1,,,35.3225451575858,136.293320312409,
926,E2521400007111,米原市近江学びあいステーション,滋賀県米原市顔戸1513,1,,,35.3412041484732,136.301245535115,
927,E2521400008111,米原市立おうみ認定こども園,滋賀県米原市顔戸199-1,1,,,35.3389203942081,136.309576493677,
928,E2521400009121,米原市近江地域福祉センター　やすらぎハウス,滋賀県米原市顔戸21-2,,,要配慮者,35.3368575972185,136.310660148527,
929,E2521400010111,米原市立双葉中学校・米原市双葉総合体育館,滋賀県米原市顔戸233,1,,,35.3376515876092,136.309207258014,
930,E2521400012111,旧米原市立東草野小中学校,滋賀県米原市吉槻656,1,,,35.4546550100667,136.359697313125,
931,E2521400013111,米原市甲津原交流センター,滋賀県米原市甲津原1753,1,,,35.5101758029598,136.36147000501,
932,E2521400014111,米原市立伊吹山中学校,滋賀県米原市高番387,1,,,35.3812741259289,136.378721731391,
933,E2521400015111,米原市息郷体育館・米原市立かなん認定こども園,滋賀県米原市三吉343,1,,,35.3194756617557,136.326548132683,
934,E2521400016121,米原市米原地域福祉センター　ゆめホール,滋賀県米原市三吉570,,,要配慮者,35.3200582713902,136.322160072393,
935,E2521400017111,米原市立大原小学校,滋賀県米原市市場424,1,,,35.3837494607795,136.353470292133,
936,E2521400018111,山東児童クラブ,滋賀県米原市志賀谷1907,1,,,35.3595014225995,136.35275844035,
937,E2521400019111,米原市立河南小学校,滋賀県米原市枝折77,1,,,35.3240976542207,136.346179790701,
938,E2521400020111,米原市立いぶき認定こども園,滋賀県米原市春照1950,1,,,35.3812922109135,136.384509265176,
939,E2521400021111,米原市伊吹薬草の里文化センター,滋賀県米原市春照37,1,,,35.381939006991,136.38318766244,
940,E2521400022121,米原市地域福祉センター　愛らんど,滋賀県米原市春照56,,,要配慮者,35.3830290277975,136.38368076789,
941,E2521400023121,米原市地域包括ケアセンター　いぶき,滋賀県米原市春照58-1,,,要配慮者,35.3833012055885,136.382922217376,
942,E2521400025111,米原市立伊吹小学校,滋賀県米原市上野991,1,,,35.3953060393268,136.379612786212,
943,E2521400026121,米原市地域包括医療福祉センター　ふくしあ,滋賀県米原市新庄77-1,,,要配慮者,35.3352689118615,136.31340109529,
944,E2521400027111,米原市立春照小学校,滋賀県米原市杉沢817,1,,,35.3749443841131,136.386172102077,
945,E2521400028111,米原市立柏原中学校,滋賀県米原市清滝40,1,,,35.3436814684236,136.395333513629,
946,E2521400030111,米原市立山東小学校,滋賀県米原市大鹿546,1,,,35.3569969613474,136.34956272274,
947,E2521400031111,米原市立大東中学校,滋賀県米原市池下1054,1,,,35.3774776594502,136.358509411895,
948,E2521400032111,米原市立山東幼稚園,滋賀県米原市池下91,1,,,35.3734833886613,136.362383288095,
949,E2521400033121,きらめきデイサービスセンター,滋賀県米原市朝妻筑摩2483,,,要配慮者,35.3209242118811,136.271075214158,
950,E2521400034111,滋賀県立伊吹高等学校,滋賀県米原市朝日302,1,,,35.3828546660101,136.350695938326,
951,E2521400035121,米原市保健センター,滋賀県米原市長岡1050-1,1,,要配慮者,35.3647595960813,136.367515300817,
952,E2521400035111,米原市民交流プラザ（ルッチプラザ）,滋賀県米原市長岡1050-1,1,,,35.364426065562,136.367691304686,
953,E2521400037111,米原市民体育館・米原市山東学びあいステーション,滋賀県米原市長岡3127,1,,,35.3655680984069,136.366746023323,
954,E2521400038111,旧米原市立山東東小学校体育館,滋賀県米原市長岡645,1,,,35.36304568406,136.371435152012,
955,E2521400039111,米原市立米原小学校,滋賀県米原市入江307,1,,,35.3142135849017,136.280765765725,
956,E2521400040111,米原市立米原中学校,滋賀県米原市入江313,1,,,35.3128215806887,136.279971831857,
957,E2521400041111,米原市立息長小学校,滋賀県米原市能登瀬1339,1,,,35.3319369085328,136.315327194857,
958,E2521400042111,米原市山東Ｂ＆Ｇ海洋センター,滋賀県米原市柏原2293-1,1,,,35.3403986458235,136.399936079041,
959,E2521400043111,米原市立柏原小学校,滋賀県米原市柏原2320,1,,,35.3397869671784,136.401422128104,
960,E2544100001121,隣保館,滋賀県豊郷町安食南299-1,,,要配慮者,35.2014083421616,136.228906846835,
961,E2544100002111,町民体育館,滋賀県豊郷町下枝147,1,,,35.19016977,136.2192453,
962,E2544100003111,日栄小学校,滋賀県豊郷町吉田1454,1,,,35.19187217,136.2263029,
963,E2544100004121,豊栄のさと,滋賀県豊郷町四十九院1252,1,,要配慮者,35.2047818651356,136.239188202309,
964,E2544100004111,豊栄のさと,滋賀県豊郷町四十九院1252,1,,,35.20490468,136.2392749,
965,E2544100005111,豊日中学校,滋賀県豊郷町上枝50,1,,,35.19685663,136.228377,
966,E2544100006111,豊郷小学校,滋賀県豊郷町石畑518,1,,,35.2029458,136.2336531,
967,E2521000001111,野洲北中学校,滋賀県野洲市永原1690,1,,,35.092042193814,136.03933335209,
968,E2521000002111,コミュニティセンターぎおう,滋賀県野洲市永原463,1,,,35.086485423538,136.04126981034,
969,E2521000003111,祇王幼稚園,滋賀県野洲市永原474,1,,,35.086731242142,136.0406636311,
970,E2521000004111,吉川自治会館,滋賀県野洲市吉川3641,1,,,35.122158955472,135.98956478354,
971,E2521000005111,中主幼稚園,滋賀県野洲市吉地1120-1,1,,,35.110470601834,136.0153523306,
972,E2521000006111,ゆきはたこども園,滋賀県野洲市行畑1-2-25,1,,,35.065129993638,136.0200401233,
973,E2521000007111,野洲高等学校,滋賀県野洲市行畑2-9-1,1,,,35.061410481662,136.02017083939,
974,E2521000008111,三上小学校,滋賀県野洲市三上111,1,,,35.045056263003,136.03002930629,
975,E2521000009111,三上こども園,滋賀県野洲市三上134,1,,,35.045772131907,136.02930510985,
976,E2521000011111,コミュニティセンターみかみ,滋賀県野洲市三上828,1,,,35.051124468158,136.02726679357,
977,E2521000012111,北野小学校,滋賀県野洲市市三宅240,1,,,35.076860224745,136.02181046038,
978,E2521000013111,北野幼稚園,滋賀県野洲市市三宅248,1,,,35.077349855691,136.02339691035,
979,E2521000014111,コミュニティセンターきたの,滋賀県野洲市市三宅313,1,,,35.077000991831,136.02033216927,
980,E2521000015111,野洲小学校,滋賀県野洲市小篠原1147,1,,,35.065598483282,136.02308077187,
981,E2521000016111,野洲市人権センター,滋賀県野洲市小篠原1780,1,,,35.070516471289,136.02898839664,
982,E2521000017111,野洲第三保育園,滋賀県野洲市小篠原1977-1,1,,,35.068767726774,136.02731747181,
983,E2521000018111,さくらばさまこども園,滋賀県野洲市小篠原200,1,,,35.072230422566,136.03774820082,
984,E2521000019111,コミュニティセンターやす,滋賀県野洲市小篠原2142,1,,,35.066829250595,136.02085852836,
985,E2521000020111,野洲幼稚園,滋賀県野洲市小篠原2142-25,1,,,35.066563914366,136.02056575542,
986,E2521000021111,野洲中学校,滋賀県野洲市小篠原510,1,,,35.067091387207,136.03739370219,
987,E2521000022111,野洲養護学校,滋賀県野洲市小南588,1,,,35.101862685561,136.06041909781,
988,E2521000023111,菖蒲自治会館,滋賀県野洲市菖蒲262-2,1,,,35.135281733377,136.00090543955,
989,E2521000024111,祇王小学校,滋賀県野洲市上屋1169,1,,,35.084765149816,136.04178618508,
990,E2521000025111,コミュニティセンターなかさと,滋賀県野洲市西河原2366-1,1,,,35.102006230859,136.01166645694,
991,E2521000026111,中主小学校,滋賀県野洲市西河原712,1,,,35.10159763834,136.01781316589,
992,E2521000027111,篠原小学校,滋賀県野洲市大篠原1414,1,,,35.090073710277,136.0582577192,
993,E2521000028111,篠原こども園,滋賀県野洲市大篠原1414-2,1,,,35.089236740701,136.0584962618,
994,E2521000029111,コミュニティセンターしのはら,滋賀県野洲市大篠原4024-2,1,,,35.090443816301,136.05904542609,
995,E2521000030111,さざなみホール,滋賀県野洲市比留田3313-3,1,,,35.109137042876,136.01759596416,
996,E2521000031111,総合体育館,滋賀県野洲市冨波甲1339,1,,,35.088400294441,136.02903692297,
997,E2521000032111,市民交流センター,滋賀県野洲市北比江86,1,,,35.096264888121,136.00898531298,
998,E2521000034111,コミュニティセンターひょうず,滋賀県野洲市六条1509-1,1,,,35.111191160976,136.00530476195,
999,E2521000035111,中主中学校,滋賀県野洲市六条377,1,,,35.113046989854,136.01008041698,
1000,E2521000036111,中主Ｂ＆Ｇ海洋センター,滋賀県野洲市六条460,1,,,35.113506351034,136.00950481993,
1001,E2538400001111,竜王小学校,滋賀県竜王町大字綾戸275,1,,,35.06683406,136.1270678,
1002,E2538400002111,総合運動公園,滋賀県竜王町大字岡屋3282,1,,,35.05173722,136.1164626,
1003,E2538400003111,竜王中学校,滋賀県竜王町大字橋本15,1,,,35.07588565,136.1245129,
1004,E2538400004111,道の駅アグリパーク竜王,滋賀県竜王町大字山之上6526,1,,,35.0436885,136.1453894,
1005,E2538400005111,竜王西小学校,滋賀県竜王町大字山面1-1,1,,,35.0755245076891,136.099385654479,
1006,E2538400006111,竜王町公民館,滋賀県竜王町大字小口276-1,1,,,35.0622018375787,136.124424076162,
