NO,共通ID,施設・場所名,住所,指定緊急避難場所との住所同一,その他市町村長が必要と認める事項,受入対象者,緯度,経度,備考
1,E2721100001111,白川公民館,大阪府茨木市鮎川1-8-17,1,,,34.81649,135.593453,
2,E2721100002111,東小学校,大阪府茨木市鮎川2-5-23,1,,,34.820494,135.590472,
3,E2721100003111,安威小学校,大阪府茨木市安威2-21-23,1,,,34.849467,135.564115,
4,E2721100004111,市民総合センター（クリエイトセンター）,大阪府茨木市駅前4-6-16,1,,,34.818781,135.568374,
5,E2721100005111,養精中学校,大阪府茨木市駅前4-7-60,1,,,34.817849,135.568015,
6,E2721100006111,穂積小学校,大阪府茨木市下穂積2-6-62,1,,,34.810313,135.554944,
7,E2721100007111,太田小学校,大阪府茨木市花園1-21-26,1,,,34.846459,135.573825,
8,E2721100008111,太田中学校,大阪府茨木市花園1-6-10,1,,,34.84366,135.571756,
9,E2721100009111,東市民体育館,大阪府茨木市学園町4-18,1,,,34.818299,135.591181,
10,E2721100010111,東雲中学校,大阪府茨木市学園南町21-7,1,,,34.813305,135.590887,
11,E2721100011111,玉島小学校,大阪府茨木市玉島2-11-23,1,,,34.800383,135.588462,
12,E2721100012111,北摂つばさ高等学校,大阪府茨木市玉島台2-15,1,,,34.800345,135.584314,
13,E2721100013111,高齢者活動支援センターシニアプラザいばらき,大阪府茨木市桑田町24-21,1,,,34.810534,135.586215,
14,E2721100014111,郡小学校,大阪府茨木市郡5-26-23,1,,,34.83445,135.552132,
15,E2721100015111,西中学校,大阪府茨木市見付山2-5-4,1,,,34.82055,135.553553,
16,E2721100016111,男女共生センター　ローズＷＡＭ,大阪府茨木市元町4-7,1,,,34.817111161465,135.57068528626,
17,E2721100016121,男女共生センター　ローズＷＡＭ,大阪府茨木市元町4-7,1,,要配慮者,34.817111161465,135.57068528626,
18,E2721100017121,学校法人藍野大学,大阪府茨木市高田町1-22,,,要配慮者,34.8427098176929,135.581781981084,
19,E2721100018111,彩都西中学校,大阪府茨木市彩都あさぎ4-6-7,1,,,34.849076,135.52854,
20,E2721100019111,彩都西小学校,大阪府茨木市彩都あさぎ5-8-1,1,,,34.851867,135.528124,
21,E2721100020111,三島小学校,大阪府茨木市三島町3-13,1,,,34.831183,135.577831,
22,E2721100021111,北陵中学校,大阪府茨木市山手台1-23-10,1,,,34.854795,135.560241,
23,E2721100022111,山手台小学校,大阪府茨木市山手台4-9-4,1,,,34.86382,135.553571,
24,E2721100023111,茨木西高等学校,大阪府茨木市紫明園10-68,1,,,34.812016,135.55035,
25,E2721100024111,耳原小学校,大阪府茨木市耳原2-20-55,1,,,34.838781,135.562081,
26,E2721100025111,南中学校,大阪府茨木市若園町6-41,1,,,34.801358,135.579435,
27,E2721100026111,大池コミュニティセンター,大阪府茨木市舟木町11-35,1,,,34.813841,135.578477,
28,E2721100027111,豊川小学校,大阪府茨木市宿久庄5-14-5,1,,,34.840011,135.527259,
29,E2721100028121,障害者就労支援センターかしの木園,大阪府茨木市春日1-15-22,,,要配慮者,34.8197,135.561855,
30,E2721100029111,春日丘高等学校,大阪府茨木市春日2-1-2,1,,,34.817715,135.560564,
31,E2721100030111,茨木工科高等学校,大阪府茨木市春日5-6-41,1,,,34.825202,135.564258,
32,E2721100031111,市民体育館,大阪府茨木市小川町2-1,1,,,34.810602,135.569793,
33,E2721100032111,庄栄小学校,大阪府茨木市庄2-26-5,1,,,34.826569,135.581397,
34,E2721100033111,春日コミュニティセンター,大阪府茨木市上穂積2-13-30,1,,,34.825308,135.559846,
35,E2721100034111,春日小学校,大阪府茨木市上穂東町5-18,1,,,34.823424,135.561224,
36,E2721100035111,郡山小学校,大阪府茨木市新郡山2-30-18,1,,,34.830785,135.542982,
37,E2721100036111,茨木高等学校,大阪府茨木市新庄町12-1,1,,,34.813349,135.570993,
38,E2721100037111,中条小学校,大阪府茨木市新中条町7-12,1,,,34.810098,135.565624,
39,E2721100038111,葦原小学校,大阪府茨木市新和町13-50,1,,,34.795576,135.576382,
40,E2721100039111,玉櫛小学校,大阪府茨木市水尾3-1-51,1,,,34.804375,135.573016,
41,E2721100040111,水尾小学校,大阪府茨木市水尾4-7-16,1,,,34.805707,135.57882,
42,E2721100041111,三島中学校,大阪府茨木市西河原1-17-10,1,,,34.829607,135.576452,
43,E2721100042111,西河原多世代交流センター,大阪府茨木市西河原2-17-4,1,,,34.832637,135.576158,
44,E2721100043111,三島コミュニティセンター,大阪府茨木市西河原2-7-12,1,,,34.830695,135.575082,
45,E2721100044111,西河原小学校,大阪府茨木市西河原北町7-33,1,,,34.834599,135.571597,
46,E2721100045111,福井市民体育館,大阪府茨木市西福井3-30-45,1,,,34.845656,135.549317,
47,E2721100046121,あけぼの学園,大阪府茨木市西穂積町8-11,,,要配慮者,34.821162,135.551753,
48,E2721100047121,障害者生活支援センターともしび園,大阪府茨木市西穂積町8-2,,,要配慮者,34.821451,135.552135,
49,E2721100048111,総持寺いのち・愛・ゆめセンター,大阪府茨木市総持寺2-5-36,1,,,34.830101,135.585263,
50,E2721100049111,蔵垣内会館,大阪府茨木市蔵垣内3-11-23,1,,,34.792532,135.55606,
51,E2721100050111,太田公民館,大阪府茨木市太田3-6-18,1,,,34.842786,135.578472,
52,E2721100051111,見山公民館,大阪府茨木市大字下音羽163,1,,,34.901672,135.540203,
53,E2721100052111,清溪小学校,大阪府茨木市大字泉原857,1,,,34.884141,135.521618,
54,E2721100053111,忍頂寺小学校,大阪府茨木市大字忍頂寺31-2,1,,,34.895331,135.541485,
55,E2721100054111,大池小学校,大阪府茨木市大池1-5-8,1,,,34.812474,135.580031,
56,E2721100055111,天王中学校,大阪府茨木市沢良宜西3-8-5,1,,,34.795502,135.56227,
57,E2721100056111,玉櫛コミュニティセンター,大阪府茨木市沢良宜東町5-39,1,,,34.79889,135.573208,
58,E2721100057111,沢良宜いのち・愛・ゆめセンター,大阪府茨木市沢良宜浜3-12-19,1,,,34.794364,135.572696,
59,E2721100058111,中津小学校,大阪府茨木市中津町10-15,1,,,34.816428,135.583702,
60,E2721100059111,春日丘小学校,大阪府茨木市中穂積3-3-43,1,,,34.815628,135.553995,
61,E2721100060111,天王小学校,大阪府茨木市天王2-13-57,1,,,34.800008,135.562191,
62,E2721100061111,南市民体育館,大阪府茨木市島3-8-19,1,,,34.790429,135.573857,
63,E2721100062111,茨木公民館,大阪府茨木市東宮町1-19,1,,,34.822565,135.574587,
64,E2721100063111,東奈良小学校,大阪府茨木市東奈良2-5-36,1,,,34.805134,135.569013,
65,E2721100064111,福井多世代交流センター,大阪府茨木市東福井2-23-22,1,,,34.849001,135.55553,
66,E2721100065111,福井小学校,大阪府茨木市東福井2-4-20,1,,,34.845523,135.55295,
67,E2721100066111,豊川中学校,大阪府茨木市藤の里1-16-8,1,,,34.840214,135.545056,
68,E2721100067111,豊川コミュニティセンター,大阪府茨木市藤の里2-16-8,1,,,34.836738,135.537137,
69,E2721100068111,北中学校,大阪府茨木市南安威3-10-3,1,,,34.842869,135.559075,
70,E2721100069111,西陵中学校,大阪府茨木市南春日丘1-19-6,1,,,34.812417,135.543795,
71,E2721100070111,沢池小学校,大阪府茨木市南春日丘3-11-6,1,,,34.816139,135.538834,
72,E2721100071111,白川小学校,大阪府茨木市白川1-4-1,1,,,34.81643,135.598053,
73,E2721100072111,生涯学習センターきらめき（中央公民館）,大阪府茨木市畑田町1-43,1,,,34.827908,135.565544,
74,E2721100073111,畑田小学校,大阪府茨木市畑田町3-31,1,,,34.827928,135.564242,
75,E2721100074111,平田中学校,大阪府茨木市平田1-8-20,1,,,34.805495,135.587391,
76,E2721100075111,玉島公民館,大阪府茨木市平田2-25-9,1,,,34.804338,135.590029,
77,E2721100076121,障害福祉センターハ－トフル,大阪府茨木市片桐町4-26,,,要配慮者,34.819872,135.570646,
78,E2721100077111,茨木小学校,大阪府茨木市片桐町8-40,1,,,34.820288537578,135.5715195582,
79,E2721100078111,豊川いのち・愛・ゆめセンター,大阪府茨木市豊川4-4-28,1,,,34.832024,135.533042,
80,E2721100079111,西小学校,大阪府茨木市北春日丘3-12-23,1,,,34.820803,135.536328,
81,E2721100080111,東中学校,大阪府茨木市末広町7-4,1,,,34.820182,135.580106,
82,E2722200002111,埴生南小学校,大阪府羽曳野市はびきの6-6-1,1,,,34.552058,135.585104,
83,E2722200004111,はびきの埴生学園,大阪府羽曳野市伊賀5-8-1,1,,,34.559595,135.583433,
84,E2722200010111,羽曳が丘小学校,大阪府羽曳野市羽曳が丘6-8-1,1,,,34.540455,135.592778,
85,E2722200023111,駒ヶ谷小学校,大阪府羽曳野市駒ケ谷344-1,1,,,34.541984,135.626789,
86,E2722200025111,丹比小学校,大阪府羽曳野市郡戸206,1,,,34.551194,135.57485,
87,E2722200029121,羽曳野市立生活文化情報センター　ＬＩＣはびきの,大阪府羽曳野市軽里1-1-1,1,,要配慮者,34.553768,135.597738,
88,E2722200031111,古市小学校,大阪府羽曳野市古市1-2-5,1,,,34.554095,135.610417,
89,E2722200033111,古市南小学校,大阪府羽曳野市古市5-14-38,1,,,34.547678,135.611007,
90,E2722200034111,青少年児童センター,大阪府羽曳野市向野3-1-33,1,,,34.560733,135.579866,
91,E2722200036111,西浦東小学校,大阪府羽曳野市広瀬75-3,1,,,34.531452,135.612853,
92,E2722200037111,高鷲南小学校,大阪府羽曳野市高鷲2-12-1,1,,,34.566469,135.585399,
93,E2722200038111,高鷲南中学校,大阪府羽曳野市高鷲2-2-1,1,,,34.568365,135.584219,
94,E2722200042111,西浦小学校,大阪府羽曳野市西浦1050,1,,,34.537129,135.603479,
95,E2722200043111,府立西浦支援学校,大阪府羽曳野市西浦2-1797,1,,,34.544517,135.605619,
96,E2722200044111,峰塚中学校,大阪府羽曳野市西浦6-48,1,,,34.549868,135.596953,
97,E2722200045111,府立懐風館高等学校,大阪府羽曳野市大黒776,1,,,34.539447,135.622426,
98,E2722200046111,高鷲小学校,大阪府羽曳野市島泉2-1-19,1,,,34.574128,135.577949,
99,E2722200047111,高鷲北小学校,大阪府羽曳野市島泉4-3-33,1,,,34.578613,135.578317,
100,E2722200048121,羽曳野市立陵南の森総合センター,大阪府羽曳野市島泉8-8-1,1,,要配慮者,34.575721,135.585208,
101,E2722200049111,高鷲中学校,大阪府羽曳野市島泉9-15-4,1,,,34.573262,135.582596,
102,E2722200052111,河原城中学校,大阪府羽曳野市桃山台4-123,1,,,34.549652,135.580165,
103,E2722200055121,羽曳野市立総合スポーツセンター　はびきのコロセアム,大阪府羽曳野市南恵我之荘4-237-4,1,,要配慮者,34.563178,135.573354,
104,E2722200057111,恵我之荘小学校,大阪府羽曳野市南恵我之荘7-8-35,1,,,34.572276,135.570606,
105,E2722200058111,白鳥小学校,大阪府羽曳野市白鳥3-8-17,1,,,34.555866,135.603626,
106,E2722200061111,羽曳野市民会館,大阪府羽曳野市誉田1-4-4,1,,,34.555349,135.610417,
107,E2722200063111,誉田中学校,大阪府羽曳野市誉田6-5-37,1,,,34.561555,135.61241,
108,E2721600001111,西中学校,大阪府河内長野市下里町257-3,1,,,34.436414188882,135.54061762968,
109,E2721600002111,天野小学校,大阪府河内長野市下里町365,1,,,34.437684853322,135.53874997479,
110,E2721600003111,加賀田小学校,大阪府河内長野市加賀田568-1,1,,,34.42454729381,135.56382933136,
111,E2721600004111,加賀田公民館,大阪府河内長野市加賀田617-4,1,,,34.42313240706,135.564153837,
112,E2721600005111,天見公民館,大阪府河内長野市岩瀬1244,1,,,34.412429906966,135.59197993966,
113,E2721600007111,高向公民館,大阪府河内長野市高向515-3,1,,,34.43844054527,135.55105129384,
114,E2721600008111,高向小学校,大阪府河内長野市高向86,1,,,34.434047132656,135.54579523722,
115,E2721600009111,三日市市民ホール,大阪府河内長野市三日市町32-1,1,,,34.436817122362,135.57016466237,
116,E2721600010111,千代田中学校,大阪府河内長野市市町1367-1,1,,,34.467840864083,135.57081293415,
117,E2721600011111,川上公民館,大阪府河内長野市寺元501,1,,,34.43546837411,135.59846932519,
118,E2721600012111,汐の宮こども園,大阪府河内長野市汐の宮町8-39,1,,,34.46901583163,135.57978190026,
119,E2721600014111,あやたホール,大阪府河内長野市小山田町1824-4,1,,,34.446174140633,135.54734393196,
120,E2721600014121,あやたホール,大阪府河内長野市小山田町1824-4,1,,要配慮者,34.446174140633,135.54734393196,
121,E2721600015121,障がい者福祉センターあかみね,大阪府河内長野市小山田町379-16,,,要配慮者,34.451522,135.552956,
122,E2721600016111,小山田小学校,大阪府河内長野市小山田町590-1,1,,,34.457012083734,135.55666927518,
123,E2721600018111,キックス,大阪府河内長野市昭栄町7-1,1,,,34.454472921399,135.56045467053,
124,E2721600021111,ゆうゆうスペース,大阪府河内長野市上田町200-1,1,,,34.440669749848,135.56849348261,
125,E2721600022111,三日市小学校,大阪府河内長野市上田町380,1,,,34.438665144793,135.56552548509,
126,E2721600024111,川上小学校,大阪府河内長野市清見台4-18-1,1,,,34.436511370413,135.58619660923,
127,E2721600025111,くすのかホール,大阪府河内長野市清見台4-18-2,1,,,34.436855741204,135.58650739662,
128,E2721600025121,くすのかホール,大阪府河内長野市清見台4-18-2,1,,要配慮者,34.436855741204,135.58650739662,
129,E2721600027111,ラブリーホール,大阪府河内長野市西代町12-46,1,,,34.453051395787,135.56659408604,
130,E2721600028111,長野小学校,大阪府河内長野市西代町14-1,1,,,34.453998836747,135.56472093201,
131,E2721600029111,加賀田中学校,大阪府河内長野市石仏570,1,,,34.420565,135.573934,
132,E2721600030111,石仏小学校,大阪府河内長野市石仏662,1,,,34.422128798149,135.57371606896,
133,E2721600031111,市民総合体育館,大阪府河内長野市大師町25-1,1,,,34.445222484029,135.57172917493,
134,E2721600032111,福祉センター　錦渓苑,大阪府河内長野市大師町26-1,1,,,34.446122676995,135.57194276596,
135,E2721600032121,福祉センター　錦渓苑,大阪府河内長野市大師町26-1,1,,要配慮者,34.446122676995,135.57194276596,
136,E2721600033111,滝畑ふるさと文化財の森センター,大阪府河内長野市滝畑483-3,1,,,34.387727884689,135.52594551019,
137,E2721600034111,ノバティホール,大阪府河内長野市長野町5-1-303,1,,,34.450512411736,135.57195405912,
138,E2721600035111,天見小学校,大阪府河内長野市天見2370-1,1,,,34.398812583287,135.59435112638,
139,E2721600036111,天野公民館,大阪府河内長野市天野町1520-5,1,,,34.437981898007,135.53541095671,
140,E2721600037111,南花台小学校跡地,大阪府河内長野市南花台2-11-1,1,,,34.430326183627,135.56023818658,
141,E2721600038111,錦秀会看護専門学校,大阪府河内長野市南花台4-24-1,1,,,34.423759186346,135.55388756147,
142,E2721600039111,南花台小学校・南花台中学校,大阪府河内長野市南花台6-6-1,1,,,34.434068792604,135.55533595434,
143,E2721600040111,南花台公民館,大阪府河内長野市南花台8-4-1,1,,,34.434481226294,135.56221849841,
144,E2721600041111,楠小学校,大阪府河内長野市楠町東1011,1,,,34.469993496226,135.56219620786,
145,E2721600042111,東中学校,大阪府河内長野市日東町26-1,1,,,34.438467873496,135.57833614273,
146,E2721600043111,みのでホール,大阪府河内長野市日野980,1,,,34.4204826511169,135.540306473488,
147,E2721600045111,美加の台小学校,大阪府河内長野市美加の台3-25-1,1,,,34.425976538626,135.58758828776,
148,E2721600047111,美加の台中学校,大阪府河内長野市美加の台7-2-1,1,,,34.42427294277,135.58704648154,
149,E2721600048111,長野中学校,大阪府河内長野市本多町3-1,1,,,34.455082561597,135.5673655901,
150,E2721600049111,千代田公民館,大阪府河内長野市木戸西町1-2-9,1,,,34.466936348231,135.56699540495,
151,E2721600050111,千代田小学校,大阪府河内長野市木戸町649,1,,,34.469135519767,135.5715070286,
152,E2721600051111,保健センター,大阪府河内長野市木戸東町2-1,1,,,34.451729639484,135.57369827357,
153,E2738200001111,かなん桜小学校,大阪府河南町さくら坂1-1-1,1,,,34.475735,135.648975,
154,E2738200004111,さくら坂地区集会所,大阪府河南町さくら坂4-14-1,,,,34.477781,135.646601,
155,E2738200009111,さくら坂南地区集会所,大阪府河南町さくら南6-6,,,,34.47428,135.643628,
156,E2738200011111,一須賀地区・老人集会所,大阪府河南町一須賀662-1,,,,34.507268,135.627073,
157,E2738200012111,石川こども園,大阪府河南町一須賀76-1,1,,,34.508143,135.624001,
158,E2738200013111,南加納地区・老人集会所,大阪府河南町加納668,,,,34.489282,135.640282,
159,E2738200014121,特別養護老人ホーム「あんり」,大阪府河南町寛弘寺101,,,要配慮者,34.482535,135.624409,
160,E2738200015111,芹生谷地区・老人集会所,大阪府河南町芹生谷230,,,,34.469323,135.632037,
161,E2738200016111,山城地区・老人集会所,大阪府河南町山城747-15,,,,34.501805,135.625908,
162,E2738200017111,寺田地区・老人集会所,大阪府河南町寺田460-5,,,,34.495037,135.634437,
163,E2738200057111,総合体育館,大阪府河南町寺田580,,,,34.49611,135.63518,
164,E2738200018111,持尾地区集落センター,大阪府河南町持尾1042-1,,,,34.485959,135.65815,
165,E2738200019111,中村こども園,大阪府河南町神山19,1,,,34.47922,135.626501,
166,E2738200020111,神山地区・老人集会所,大阪府河南町神山453-3,,,,34.477997,135.621949,
167,E2738200021111,農村活性化センター,大阪府河南町神山523-1,,,,34.478403,135.617116,
168,E2738200022111,旧河南ふれあいセンター,大阪府河南町大ケ塚110,,,,34.505622,135.625789,
169,E2738200023111,大ヶ塚地区・老人集会所,大阪府河南町大ケ塚316,,,,34.504474,135.627147,
170,E2738200026111,大宝地区公民館,大阪府河南町大宝1-2-4,,,,34.504755,135.632409,
171,E2738200030111,近つ飛鳥小学校,大阪府河南町大宝3-4-1,1,,,34.503058,135.638942,
172,E2738200031111,大宝地区北集会所,大阪府河南町大宝3-41-51,,,,34.506218,135.638974,
173,E2738200037111,中地区・老人集会所,大阪府河南町中758-1,,,,34.478098,135.632093,
174,E2738200038111,大阪芸術大学総合体育館第１アリーナ,大阪府河南町東山469,1,,,34.510194,135.632861,
175,E2738200039121,障害者福祉施設「草笛の家」,大阪府河南町白木1033-4,,,要配慮者,34.484211,135.627692,
176,E2738200040111,今堂地区・老人集会所,大阪府河南町白木1170,,,,34.48794,135.630041,
177,E2738200041111,中央公民館　分室,大阪府河南町白木1257-1,,,,34.489419,135.630554,
178,E2738200042111,河南町立中学校,大阪府河南町白木1285,1,,,34.491108,135.629069,
179,E2738200043121,保健福祉センター,大阪府河南町白木1371,,,要配慮者,34.492898,135.631644,
180,E2738200043111,保健福祉センター,大阪府河南町白木1371,,,,34.492898,135.631644,
181,E2738200044111,中央公民館,大阪府河南町白木1387,,,,34.492082,135.631067,
182,E2738200045111,農村環境改善センター,大阪府河南町白木1388,,,,34.492065,135.631297,
183,E2738200046111,長坂地区・老人集会所,大阪府河南町白木24,,,,34.487858,135.632912,
184,E2738200047111,白木地区・老人集会所,大阪府河南町白木440-1,,,,34.487058,135.634801,
185,E2738200048121,大阪府立軽費老人ホーム「河南荘」,大阪府河南町白木905,,,要配慮者,34.485807,135.630082,
186,E2738200058111,鈴美台１丁目地区集会所,大阪府河南町鈴美台1-2-6,,,,34.48428,135.64672,
187,E2738200052111,鈴美台３丁目地区集会所,大阪府河南町鈴美台3-1-7,,,,34.483922,135.641375,
188,E2720800002111,第一中学校体育館,大阪府貝塚市加神1-5-1,1,,,34.441607,135.357125,
189,E2720800050111,ひと・ふれあいセンター,大阪府貝塚市海塚2-28-49,1,,,34.443636,135.362478,
190,E2720800007111,第四中学校体育館,大阪府貝塚市橋本1385,1,,,34.41943,135.363115,
191,E2720800008111,府立貝塚南高等学校体育館,大阪府貝塚市橋本620,1,,,34.421873,135.367335,
192,E2720800009111,かいづか　いぶき温泉体育館,大阪府貝塚市蕎原2114,1,,,34.370477,135.413552,
193,E2720800010111,木島小学校体育館,大阪府貝塚市三ツ松1048,1,,,34.412049,135.381636,
194,E2720800011111,永寿小学校体育館,大阪府貝塚市三ツ松2020,1,,,34.404367,135.378659,
195,E2720800012111,東小学校体育館,大阪府貝塚市小瀬1-25-5,1,,,34.445565,135.367357,
196,E2720800015111,南小学校体育館,大阪府貝塚市地蔵堂286,1,,,34.428117,135.356869,
197,E2720800016111,北小学校体育館,大阪府貝塚市中町4-1,1,,,34.449109,135.356815,
198,E2720800017111,津田小学校体育館,大阪府貝塚市津田南町1-1,1,,,34.451663,135.362312,
199,E2720800018111,やすらぎ老人福祉センター,大阪府貝塚市東79-1,1,,,34.44449,135.363227,
200,E2720800020111,東山小学校体育館,大阪府貝塚市東山5-11-1,1,,,34.411573,135.390669,
201,E2720800021111,山手地区公民館,大阪府貝塚市東山7-10-1,1,,,34.407524,135.387676,
202,E2720800022111,第三中学校体育館,大阪府貝塚市東山7-4-1,1,,,34.408621,135.389684,
203,E2720800024111,二色学園体育館,大阪府貝塚市二色1-3-1,1,,,34.448662,135.343322,
204,E2720800026111,二色学園（旧第五中学校）体育館,大阪府貝塚市二色2-3-1,1,,,34.446177,135.343137,
205,E2720800030111,浜手地区公民館,大阪府貝塚市二色2-7-2,1,,,34.4468,135.3436,
206,E2720800033111,府立貝塚高等学校体育館,大阪府貝塚市畠中1-1-1,1,,,34.440618,135.359187,
207,E2720800034111,総合体育館,大阪府貝塚市畠中1-13-1,1,,,34.437812,135.36,
208,E2720800046121,老人福祉センター,大阪府貝塚市畠中1-17-1,,,要配慮者,34.43739,135.358135,
209,E2720800035111,第二中学校体育館,大阪府貝塚市福田100,1,,,34.442678,135.365953,
210,E2720800037111,青少年人権教育交流館,大阪府貝塚市福田91,1,,,34.444,135.364366,
211,E2720800041111,中央小学校体育館,大阪府貝塚市麻生中854,1,,,34.4319,135.372358,
212,E2720800042111,葛城小学校体育館,大阪府貝塚市木積2032,1,,,34.397945,135.392307,
213,E2720800044111,西小学校体育館,大阪府貝塚市脇浜4-6-1,1,,,34.439708,135.347432,
214,E2720200001111,大芝地区公民館,大阪府岸和田市磯上町1-14-41,,,,34.4849012416667,135.392373952778,
215,E2720200003111,大芝小学校,大阪府岸和田市磯上町2-4-1,1,,,34.4858082888889,135.388424005556,
216,E2720200004121,岸和田北特別養護老人ホーム,大阪府岸和田市磯上町3-3-13,,,避難行動要支援者のうち、医師の判断による,34.487357443304,135.384395682167,
217,E2720200005121,特別養護老人ホームいなば荘,大阪府岸和田市稲葉町1066,,,避難行動要支援者のうち、医師の判断による,34.4322060967784,135.447597396134,
218,E2720200006111,山滝地区公民館,大阪府岸和田市稲葉町134-15,,,,34.4316025583333,135.439122261111,
219,E2720200007111,山直南小学校,大阪府岸和田市稲葉町20,1,,,34.4341697722222,135.437105133333,
220,E2720200008111,久米田青少年会館,大阪府岸和田市岡山町450-1,,,,34.4557214277778,135.421325808333,
221,E2720200009111,桜台中学校,大阪府岸和田市下松町1225,1,,,34.4516363916667,135.406634694444,
222,E2720200122111,桜台市民センター,大阪府岸和田市下松町4-17-1,,,,34.453829,135.394803,
223,E2720200125111,常盤小学校,大阪府岸和田市下松町4-6-1,1,,,34.454855,135.397674,
224,E2720200012111,八木北小学校,大阪府岸和田市下池田町3-6-4,1,,,34.4708143111111,135.406763911111,
225,E2720200014111,野村中学校,大阪府岸和田市下野町2-13-18,1,,,34.4724218611111,135.377243694444,
226,E2720200016111,大宮地区公民館,大阪府岸和田市加守町4-6-18,,,,34.4706181666667,135.389629305556,
227,E2720200017111,東葛城小学校,大阪府岸和田市河合町1833-4,1,,,34.4067810527778,135.416867422222,
228,E2720200018111,久米田高等学校,大阪府岸和田市額原町1100,,,,34.4618438611111,135.398216702778,
229,E2720800045111,府立岸和田高等学校体育館,大阪府岸和田市岸城町10-1,,,,34.457675002573,135.37229867169,
230,E2720200019111,岸和田高等学校,大阪府岸和田市岸城町10-1,1,,,34.45809705,135.371655175,
231,E2720200126111,二の丸広場観光交流センター,大阪府岸和田市岸城町7-22,,,,34.459495,135.369713,
232,E2720200023111,城北地区公民館,大阪府岸和田市吉井町1-21-1,,,,34.4789890055556,135.398976758333,
233,E2720200024111,大宮小学校,大阪府岸和田市宮前町7-1,1,,,34.4690583166667,135.387785866667,
234,E2720200025111,浪切ホール,大阪府岸和田市港緑町1-1,1,,,34.466391575,135.369671088889,
235,E2720200026111,文化会館（マドカホール）,大阪府岸和田市荒木町1-17-1,,,,34.4711113166667,135.397082544444,
236,E2720200027111,城北小学校,大阪府岸和田市荒木町2-1-1,1,,,34.4766198083333,135.396764194444,
237,E2720200029111,新条地区公民館,大阪府岸和田市荒木町2-22-8,,,,34.4757694333333,135.401135761111,
238,E2720200030111,新条小学校,大阪府岸和田市荒木町2-4-33,1,,,34.4762337944444,135.399645333333,
239,E2720200033111,市立公民館・中央地区公民館,大阪府岸和田市堺町1-1,1,,,34.4617602333333,135.372978597222,
240,E2720200034111,中央小学校,大阪府岸和田市堺町1-10,1,,,34.4622232222222,135.372536408333,
241,E2720200036111,中央体育館,大阪府岸和田市作才町1-7-15,,,,34.4553779305556,135.383317536111,
242,E2720200037121,岸和田採光学園,大阪府岸和田市三ケ山町211,,,避難行動要支援者のうち、医師の判断による,34.4296058155932,135.415293435,
243,E2720200038121,岸和田光生療護園,大阪府岸和田市三ケ山町214-4,,,避難行動要支援者のうち、医師の判断による,34.4289251466805,135.415156523774,
244,E2720200039121,岸和田光が丘学園,大阪府岸和田市三ケ山町379,,,避難行動要支援者のうち、医師の判断による,34.4287227712035,135.421996629029,
245,E2720200039122,岸和田光が丘療護園,大阪府岸和田市三ケ山町379,,,避難行動要支援者のうち、医師の判断による,34.4286917980615,135.421803509973,
246,E2720200041111,山直中学校,大阪府岸和田市三田町1030,1,,,34.457305775,135.427954086111,
247,E2720200042111,城東小学校,大阪府岸和田市三田町146,1,,,34.461088675,135.430303291667,
248,E2720200043111,山直市民センター,大阪府岸和田市三田町715-1,,,,34.4520145166667,135.430588891667,
249,E2720200044121,山直ホーム,大阪府岸和田市山直中町840,,,避難行動要支援者のうち、医師の判断による,34.4415549292247,135.431873801923,
250,E2720200045111,浜小学校,大阪府岸和田市紙屋町12-20,1,,,34.4624139361111,135.366860011111,
251,E2720200046111,北中学校,大阪府岸和田市春木旭町33-1,1,,,34.4780554416667,135.395388747222,
252,E2720200047111,春木小学校,大阪府岸和田市春木宮川町11-13,1,,,34.4798253666667,135.387648841667,
253,E2720200048111,春木地区公民館・春木青少年会館,大阪府岸和田市春木宮川町5-16,,,,34.4794231722222,135.386546719444,
254,E2720200049111,春木市民センター,大阪府岸和田市春木若松町21-1,1,,,34.4786525333333,135.392179575,
255,E2720200053111,八木南小学校,大阪府岸和田市小松里町768-1,1,,,34.4600031305556,135.405625505556,
256,E2720200054121,特別養護老人ホームひまわりの郷,大阪府岸和田市小松里町938-2,,,避難行動要支援者のうち、医師の判断による,34.4631632923016,135.406223496405,
257,E2720200055111,春木中学校,大阪府岸和田市松風町10-65,1,,,34.4838901138889,135.384507688889,
258,E2720200057111,朝陽小学校,大阪府岸和田市上野町西1-28,1,,,34.4666361916667,135.379080255556,
259,E2720200059121,岸和田軽費老人ホーム幸福荘,大阪府岸和田市神須屋町409-1,,,避難行動要支援者のうち、医師の判断による,34.4413172210397,135.394715587916,
260,E2720200060111,岸和田市総合体育館,大阪府岸和田市西之内町45-1,,,,34.4684110611111,135.395739075,
261,E2720200062121,特別養護老人ホーム千亀利荘,大阪府岸和田市積川町358,,,避難行動要支援者のうち、医師の判断による,34.4246692375055,135.439662568507,
262,E2720200064111,八木小学校,大阪府岸和田市大町3-22-1,1,,,34.4685052277778,135.410598866667,
263,E2720200067111,八木市民センター,大阪府岸和田市池尻町339-2,,,,34.462990675,135.412725113889,
264,E2720200068121,軽費老人ホーム久米田寿老園,大阪府岸和田市池尻町695-1,,,避難行動要支援者のうち、医師の判断による,34.4571652418535,135.410381128556,
265,E2720200069111,久米田中学校,大阪府岸和田市池尻町705,1,,,34.4576735,135.40967545,
266,E2720200071111,天神山小学校,大阪府岸和田市天神山町1-1-1,1,,,34.4296229416667,135.393752377778,
267,E2720200073111,天神山地区公民館,大阪府岸和田市天神山町2-9-1,,,,34.4290352916667,135.396891016667,
268,E2720200074111,山直北小学校,大阪府岸和田市田治米町460,1,,,34.46018345,135.426027566667,
269,E2720200075111,修斉小学校,大阪府岸和田市土生滝町521,1,,,34.4273834694444,135.407718636111,
270,E2720200076111,有真香会館・葛城地区公民館,大阪府岸和田市土生滝町689-1,,,,34.4229259972222,135.410855905556,
271,E2720200077111,和泉高等学校,大阪府岸和田市土生町1-2-1,,,,34.4532364805556,135.381277469444,
272,E2720200128111,土生中学校,大阪府岸和田市土生町12-10-1,1,,,34.444247,135.396665,
273,E2720200080111,葛城中学校,大阪府岸和田市土生町213-1,1,,,34.4365200638889,135.402611994444,
274,E2720200082111,東岸和田市民センター,大阪府岸和田市土生町4-3-1,,,,34.4485891055556,135.386108791667,
275,E2720200129121,岸和田支援学校,大阪府岸和田市土生町5-9-1,,,岸和田市内在住の在校児童、生徒及びその家族又は介助者（これらの者のうち市が特定したものに限る。）,34.44584,135.38272,
276,E2720200127111,旭小学校,大阪府岸和田市土生町7-5-15,1,,,34.442168,135.390495,
277,E2720200085111,葛城上地区公民館,大阪府岸和田市塔原町615-1,,,,34.3779821222222,135.429270441667,
278,E2720200086121,岸和田特別養護老人ホーム,大阪府岸和田市藤井町2-13-13,,,避難行動要支援者のうち、医師の判断による,34.4641244180622,135.384750078821,
279,E2720200087111,光陽中学校,大阪府岸和田市藤井町3-6-6,1,,,34.4625610166667,135.386535766667,
280,E2720200089111,山滝小学校,大阪府岸和田市内畑町1041,1,,,34.4132033722222,135.438435422222,
281,E2720200090111,山滝中学校,大阪府岸和田市内畑町166-3,1,,,34.4177645722222,135.439673608333,
282,E2720200092111,城内小学校,大阪府岸和田市南上町2-3-1,1,,,34.4537054027778,135.372837372222,
283,E2720200095111,太田小学校,大阪府岸和田市畑町3-12-1,1,,,34.4417258055555,135.387364633333,
284,E2720200101111,光明地区公民館,大阪府岸和田市尾生町1231-3,,,,34.441636,135.410788086111,
285,E2720200102121,ピープルケアハウスきしわだ,大阪府岸和田市尾生町2130-4,,,避難行動要支援者のうち、医師の判断による,34.4299937104875,135.414569120009,
286,E2720200103121,特別養護老人ホーム神於山園,大阪府岸和田市尾生町3192-2,,,避難行動要支援者のうち、医師の判断による,34.4215595802317,135.417880797312,
287,E2720200104111,光明小学校,大阪府岸和田市尾生町564,1,,,34.4433530444444,135.412194033333,
288,E2720200105121,特別養護老人ホーム萬寿園,大阪府岸和田市尾生町808,,,避難行動要支援者のうち、医師の判断による,34.4511284217969,135.407361104321,
289,E2720200106111,光陽地区公民館,大阪府岸和田市並松町15-10,,,,34.467219675,135.376461308333,
290,E2720200107111,東光小学校,大阪府岸和田市別所町2-1-30,1,,,34.4588319111111,135.381616241667,
291,E2720200110111,産業高等学校,大阪府岸和田市別所町3-33-1,1,,,34.460323025,135.389645247222,
292,E2720200113111,箕土路青少年会館,大阪府岸和田市箕土路町2-6-15,,,,34.4730168333333,135.407739083333,
293,E2720200115122,福祉総合センター３階,大阪府岸和田市野田町1-5-5,,,岸和田市内在住の大阪府佐野支援学校在校児童、生徒及びその家族又は介助者（これらの者のうち市が特定したものに限る。）,34.459172,135.378777,
294,E2720200115121,総合通園センター,大阪府岸和田市野田町1-5-5,,,在園児及びその家族又は介助者（これらの者のうち市が特定したものに限る。）,34.459172,135.378776,
295,E2720200115111,福祉総合センター,大阪府岸和田市野田町1-5-5,,,,34.459176525,135.378780647222,
296,E2720200116111,岸城中学校,大阪府岸和田市野田町2-19-19,1,,,34.4562152416667,135.379566461111,
297,E2720200119121,特別養護老人ホーム岸和田天神山荘,大阪府岸和田市流木町337-7,,,避難行動要支援者のうち、医師の判断による,34.431371300348,135.395184506303,
298,E2720200120121,介護老人保健施設大阪緑ヶ丘,大阪府岸和田市流木町668-1,,,避難行動要支援者のうち、医師の判断による,34.4263800063292,135.39189891472,
299,E2736100001111,熊取北中学校体育館,大阪府熊取町希望が丘2-6-1,,,,34.404750908829,135.364516488378,
300,E2736100002111,北小学校体育館,大阪府熊取町希望が丘4-14-1,1,,,34.4062392595166,135.365506573917,
301,E2736100003111,東小学校体育館,大阪府熊取町久保4-1306-1,1,,,34.3920103553051,135.369846401045,
302,E2736100004111,総合体育館（ひまわりドーム）,大阪府熊取町久保5-3-1,,,,34.390391,135.371948,
303,E2736100005111,熊取中学校体育館,大阪府熊取町五門東1-1-11,,,,34.397091,135.356265,
304,E2736100008111,西小学校体育館,大阪府熊取町大久保南1-1589,1,,,34.3950285155278,135.344569450773,
305,E2736100010111,熊取南中学校体育館,大阪府熊取町大宮4-1049,,,,34.3893549267217,135.364172942008,
306,E2736100011111,南小学校体育館,大阪府熊取町朝代東4-16-1,1,,,34.3841868972862,135.355887975203,
307,E2736100013121,総合保健福祉センター（熊取ふれあいセンター）,大阪府熊取町野田1-1-8,,,要配慮者,34.4016518104894,135.355454597466,
308,E2736100014111,中央小学校体育館,大阪府熊取町野田2-2-1,1,,,34.3999244196765,135.356541539206,
309,E2723000001111,第二中学校,大阪府交野市幾野4-1-1,1,,,34.795488514513,135.68163245369,
310,E2723000002111,旧交野みらい小学校,大阪府交野市郡津1-43-1,1,,,34.791203937064,135.67593667855,
311,E2723000003111,郡津公民館,大阪府交野市郡津3-20-13,,,,34.7951752366582,135.674886037213,
312,E2723000004111,郡津小学校,大阪府交野市郡津4-13-1,1,,,34.792335416472,135.6739992461,
313,E2723000005111,総合体育施設,大阪府交野市向井田2-5-1,1,,,34.7847262465329,135.687609578202,
314,E2723000006111,私市会館,大阪府交野市私市6-22-15,,,,34.7680520088693,135.684338319392,
315,E2723000033111,星の里いわふね,大阪府交野市私市9-4-8,,,,34.763923,135.686576,
316,E2723000007111,私市小学校,大阪府交野市私市9-5-10,1,,,34.764857224035,135.68812084664,
317,E2723000008111,私部会館,大阪府交野市私部1-36-1,,,,34.7860414861093,135.683736786637,
318,E2723000009112,交野みらい学園,大阪府交野市私部1-54-1,,,,34.787308,135.686279,
319,E2723000010111,青年の家,大阪府交野市私部2-29-1,,,,34.7848417720156,135.678171700158,
320,E2723000012111,旧第一中学校,大阪府交野市私部南3-1-1,1,,,34.782736948688,135.68364221849,
321,E2723000013111,寺会館,大阪府交野市寺1-19-8,,,,34.7816639537053,135.692224497515,
322,E2723000014111,交野会館,大阪府交野市松塚14-25,,,,34.793992725485,135.669417767113,
323,E2723000015111,森区民ホール,大阪府交野市森南2-16-1,,,,34.7750870516311,135.687346500435,
324,E2723000016111,岩船小学校,大阪府交野市森北1-25-1,1,,,34.778525439892,135.68618855176,
325,E2723000019111,星田小学校,大阪府交野市星田3-33-4,1,,,34.76641086613,135.66677065859,
326,E2723000020111,星田会館,大阪府交野市星田3-4-3,,,,34.7654927945827,135.671226285977,
327,E2723000021111,旭小学校,大阪府交野市星田4-18-1,1,,,34.764749223331,135.66463962251,
328,E2723000022111,第三中学校,大阪府交野市星田8-67-1,1,,,34.761058731649,135.66920660915,
329,E2723000023111,星田西体育施設,大阪府交野市星田西3-28-1,,,,34.7529065717605,135.660918720915,
330,E2723000025111,藤が尾小学校,大阪府交野市星田北2-45-1,1,,,34.773016116326,135.67358260117,
331,E2723000026111,倉治公民館,大阪府交野市倉治1-1-5,,,,34.7951166423844,135.694202401837,
332,E2723000027111,倉治小学校,大阪府交野市倉治1-15-1,1,,,34.793878824093,135.69379732799,
333,E2723000028121,保健福祉総合センター,大阪府交野市天野が原町5-5-1,,,要配慮者,34.7757787142393,135.682237731226,
334,E2723000029111,第四中学校,大阪府交野市天野が原町5-65-1,1,,,34.776007675081,135.67891232412,
335,E2723000030111,妙見坂小学校,大阪府交野市妙見坂7-20-1,1,,,34.761581032782,135.67680847835,
336,E2722500005111,たかいし市民文化会館（アプラホール）,大阪府高石市綾園1-9-1,1,,,34.521203293435,135.43401557608,
337,E2722500008111,ふれあいゾーン複合センター,大阪府高石市綾園4-5-28,1,,,34.517592831617,135.43322368179,
338,E2722500009111,高南中学校,大阪府高石市綾園5-4-52,1,,,34.516681817283,135.43058441885,
339,E2722500013121,パンセ羽衣（羽衣公民館、慶翠苑）,大阪府高石市羽衣1-11-22,1,,要配慮者,34.535868138273,135.44044623287,
340,E2722500013111,パンセ羽衣（羽衣公民館、慶翠苑）,大阪府高石市羽衣1-11-22,1,,,34.53586814,135.4404462,
341,E2722500017111,羽衣小学校,大阪府高石市羽衣3-2-52,1,,,34.532295549231,135.43965213873,
342,E2722500020111,総合保健センター,大阪府高石市羽衣4-4-26,1,,,34.531495356542,135.43591758607,
343,E2722500026111,中央公民館,大阪府高石市加茂1-5-7,1,,,34.52497240518,135.44019514242,
344,E2722500027111,加茂小学校,大阪府高石市加茂3-4-34,1,,,34.52125466776,135.44298025597,
345,E2722500035111,高石小学校,大阪府高石市高師浜3-19-17,1,,,34.524091271819,135.4330145541,
346,E2722500038111,取石中学校,大阪府高石市取石3-11-1,1,,,34.517721340464,135.45194089593,
347,E2722500039111,取石小学校,大阪府高石市取石3-14-23,1,,,34.517686898115,135.4493620073,
348,E2722500040121,東コミュニティセンター（とろしプラザ）,大阪府高石市取石3-9-8,1,,要配慮者,34.5185,135.4534,
349,E2722500040111,東コミュニティセンター（とろしプラザ）,大阪府高石市取石3-9-8,1,,,34.5185,135.4534,
350,E2722500043121,市立総合体育館,大阪府高石市西取石6-5-6,1,,要配慮者,34.520474079441,135.4447376945,
351,E2722500043111,市立総合体育館,大阪府高石市西取石6-5-6,1,,,34.520474079441,135.4447376945,
352,E2722500044111,清高小学校,大阪府高石市西取石8-5-1,1,,,34.516233353872,135.44074528142,
353,E2722500049121,コミュニティセンター（デージードーム）,大阪府高石市千代田4-5-25,1,,要配慮者,34.5217,135.4264,
354,E2722500049111,コミュニティセンター（デージードーム）,大阪府高石市千代田4-5-25,1,,,34.5217,135.4264,
355,E2722500051111,高陽小学校,大阪府高石市千代田5-8-40,1,,,34.519008111273,135.42775607431,
356,E2722500055111,東羽衣小学校,大阪府高石市東羽衣2-21-32,1,,,34.53136836425,135.44343555347,
357,E2722500056111,東羽衣公民館,大阪府高石市東羽衣3-15-30,1,,,34.531399265663,135.44149845926,
358,E2722500062111,高石中学校,大阪府高石市東羽衣6-6-45,1,,,34.525437486053,135.44670861056,
359,E2720700001111,西阿武野コミュニティセンター,大阪府高槻市阿武野1-10-2,1,,,34.855533,135.575379,
360,E2720700002111,阿武山小学校,大阪府高槻市阿武野2-1-2,1,,,34.860329,135.576804,
361,E2720700004111,安岡寺小学校,大阪府高槻市安岡寺町1-60-1,1,,,34.872236,135.603948,
362,E2720700005111,北清水小学校,大阪府高槻市安岡寺町6-2-1,1,,,34.881716,135.604485,
363,E2720700007121,特別養護老人ホーム高槻ともしび苑,大阪府高槻市安岡寺町6-6-1,,,高齢者等,34.881556,135.606858,
364,E2720700008111,磐手小学校,大阪府高槻市安満西の町27-1,1,,,34.861094,135.628842,
365,E2720700009111,磐手公民館,大阪府高槻市安満北の町18-1,1,,,34.863022,135.629042,
366,E2720700010121,特別養護老人ホーム　和朗園,大阪府高槻市井尻2-37-8,,,高齢者等,34.855077,135.649148,
367,E2720700012111,寿栄小学校,大阪府高槻市栄町3-11-2,1,,,34.825813,135.601684,
368,E2720700013111,寿栄コミュニティセンター,大阪府高槻市栄町3-11-3,1,,,34.82651,135.600455,
369,E2720700015111,大冠北第一コミュニティセンター,大阪府高槻市永楽町1-15,1,,,34.845612,135.632587,
370,E2720700014111,第六中学校,大阪府高槻市永楽町10-3,1,,,34.846845,135.637922,
371,E2720700016121,高槻黄金の里特別養護老人ホーム,大阪府高槻市黄金の里1-14-8,,,高齢者等,34.874799,135.592052,
372,E2720700017111,芥川公民館,大阪府高槻市芥川町4-20-12,1,,,34.852011,135.608383,
373,E2720700019121,地域生活支援センター光,大阪府高槻市宮之川原2-9-1,,,障がい者等,34.871295,135.600787,
374,E2720700020111,清水小学校,大阪府高槻市宮之川原4-20-1,1,,,34.865922,135.600586,
375,E2720700022111,清水コミュニティセンター,大阪府高槻市宮之川原5-4-3,1,,,34.865736,135.598383,
376,E2720700023111,大冠北第二コミュニティセンター,大阪府高槻市宮野町10-16,1,,,34.850623,135.637243,
377,E2720700024111,北大冠小学校,大阪府高槻市宮野町10-5,1,,,34.851338,135.636633,
378,E2720700025121,わかくさ障害者作業所,大阪府高槻市郡家新町48-2,,,障がい者等,34.852072,135.594168,
379,E2720700026111,今城塚公民館,大阪府高槻市郡家新町48-3,1,,,34.852245,135.594851,
380,E2720700028121,特別養護老人ホーム高槻荘,大阪府高槻市郡家新町48-7,,,高齢者等,34.851805,135.595956,
381,E2720700029111,郡家小学校,大阪府高槻市郡家新町68-1,1,,,34.85131,135.596783,
382,E2720700031121,地域密着型特別養護老人ホームひなた,大阪府高槻市郡家新町74-1,,,高齢者等,34.850916701107,135.60103170145,
383,E2720700032121,特別養護老人ホーム　ぐんげ今城の丘,大阪府高槻市郡家本町13-23,,,高齢者等,34.854287,135.597793,
384,E2720700033121,生活支援総合施設フォレスタ,大阪府高槻市郡家本町14-5,,,障がい者等,34.853627,135.598519,
385,E2720700034121,高槻地域生活総合支援センターぷれいすＢｅ,大阪府高槻市郡家本町5-2,,,障がい者等,34.854216,135.596005,
386,E2720700036121,高槻市立療育園,大阪府高槻市郡家本町5-3,,,障がい者等,34.854055,135.595265,
387,E2720700037121,高槻市立うの花療育園,大阪府高槻市郡家本町5-5,,,障がい者等,34.853808,135.59592,
388,E2720700035111,第二中学校,大阪府高槻市郡家本町52-1,1,,,34.857134,135.596641,
389,E2720700038111,五領公民館,大阪府高槻市五領町11-6,1,,,34.862006,135.653526,
390,E2720700039111,五領小学校,大阪府高槻市五領町12-1,1,,,34.861761,135.652682,
391,E2720700040111,第八中学校,大阪府高槻市紅茸町5-1,1,,,34.864614,135.627503,
392,E2720700043121,特別養護老人ホーム　ひばり苑,大阪府高槻市三箇牧2-20-3,,,高齢者等,34.797836,135.601821,
393,E2720700044111,三箇牧公民館,大阪府高槻市三島江1-11-8,1,,,34.803588,135.61152,
394,E2720700045111,三箇牧小学校,大阪府高槻市三島江1-13-6,1,,,34.804871,135.613171,
395,E2720700046121,特別養護老人ホーム　れんげ荘,大阪府高槻市三島江4-38-7,,,高齢者等,34.796828,135.609204,
396,E2720700047121,やまびこ園,大阪府高槻市山手町2-2-1,,,障がい者等,34.861743,135.639453,
397,E2720700049111,日吉台公民館,大阪府高槻市寺谷町50-1,1,,,34.878008,135.608554,
398,E2720700050111,第三中学校,大阪府高槻市芝生町2-49-5,1,,,34.832095,135.607827,
399,E2720700051111,女瀬川南コミュニティセンター,大阪府高槻市芝生町3-16-1,1,,,34.82787,135.60998,
400,E2720700052111,丸橋小学校,大阪府高槻市芝生町3-16-2,1,,,34.827199,135.610265,
401,E2720700053111,芝生小学校,大阪府高槻市芝生町3-30-1,1,,,34.825752,135.608737,
402,E2720700054111,芝谷中学校,大阪府高槻市芝谷町3-1,1,,,34.869753,135.609644,
403,E2720700055111,若松小学校,大阪府高槻市若松町22-2,1,,,34.834609,135.628244,
404,E2720700056121,特別養護老人ホーム　出丸苑,大阪府高槻市出丸町4-62,,,高齢者等,34.84263,135.619197,
405,E2720700057111,春日ふれあい文化センター,大阪府高槻市春日町22-1,1,,,34.836798,135.627656,
406,E2720700058111,富田小学校,大阪府高槻市昭和台町1-1-1,1,,,34.830255,135.590756,
407,E2720700059111,第九中学校,大阪府高槻市松が丘1-17-1,1,,,34.873252,135.599496,
408,E2720700060121,特別養護老人ホーム　ミス・ブール記念ホーム,大阪府高槻市松が丘1-21-9,,,高齢者等,34.871388,135.599488,
409,E2720700061111,土室小学校,大阪府高槻市上土室6-10-1,1,,,34.848397,135.577271,
410,E2720700063111,上牧小学校,大阪府高槻市上牧町4-22-1,1,,,34.860428,135.66105,
411,E2720700064111,桃園コミュニティセンター,大阪府高槻市城西町10-12,1,,,34.84144,135.614222,
412,E2720700066111,城内公民館,大阪府高槻市城内町1-1,1,,,34.844664,135.622444,
413,E2720700067121,高槻市立障がい者福祉センター,大阪府高槻市城内町1-11,1,,障がい者等,34.844643,135.623455,
414,E2720700068111,第一中学校,大阪府高槻市城内町1-35,1,,,34.844063,135.622999,
415,E2720700070111,城南中学校,大阪府高槻市城南町2-30-1,1,,,34.838676,135.62604,
416,E2720700071111,西大冠小学校,大阪府高槻市城南町3-1-1,1,,,34.838094,135.623533,
417,E2720700073111,西大冠コミュニティセンター,大阪府高槻市城南町3-1-3,1,,,34.83701,135.62388,
418,E2720700074111,芥川小学校,大阪府高槻市真上町1-2-3,1,,,34.854943,135.613606,
419,E2720700076111,真上公民館,大阪府高槻市真上町2-16-6,1,,,34.8578,135.608734,
420,E2720700078111,北清水公民館,大阪府高槻市清水台1-7-1,1,,,34.878479,135.598213,
421,E2720700079111,川西コミュニティセンター,大阪府高槻市清福寺町6-5,1,,,34.851738,135.604353,
422,E2720700080111,真上小学校,大阪府高槻市西真上2-17-1,1,,,34.857851,135.600822,
423,E2720700081111,柳川小学校,大阪府高槻市西町2-1,1,,,34.825088,135.595777,
424,E2720700082111,柳川コミュニティセンター,大阪府高槻市西町2-5,1,,,34.823797,135.595544,
425,E2720700083111,第七中学校,大阪府高槻市西面北1-45-1,1,,,34.806986,135.603655,
426,E2720700084111,赤大路小学校,大阪府高槻市赤大路町15-1,1,,,34.834919,135.585084,
427,E2720700085111,赤大路コミュニティセンター,大阪府高槻市赤大路町15-6,1,,,34.835581,135.586116,
428,E2720700086111,川西小学校,大阪府高槻市川西町1-34-7,1,,,34.851253,135.604353,
429,E2720700087111,川西中学校,大阪府高槻市川西町2-33-1,1,,,34.845888,135.605255,
430,E2720700088111,清水池コミュニティセンター,大阪府高槻市川西町3-7-7,1,,,34.84545,135.60921,
431,E2720700089111,柳川中学校,大阪府高槻市川添1-1-5,1,,,34.823027,135.599395,
432,E2720700090121,特別養護老人ホーム　エイペックスひろの,大阪府高槻市前島1-36-1,,,高齢者等,34.843587,135.645271,
433,E2720700091111,冠中学校,大阪府高槻市大冠町2-24-1,1,,,34.832121,135.637828,
434,E2720700092111,冠コミュニティセンター,大阪府高槻市大冠町2-40-10,1,,,34.833295,135.637001,
435,E2720700093111,冠小学校,大阪府高槻市大冠町2-40-2,1,,,34.834056,135.636717,
436,E2720700095121,三島の郷,大阪府高槻市大字原924-4,,,障がい者等,34.906493,135.602346,
437,E2720700098111,樫田小学校,大阪府高槻市大字田能小字岡崎6,1,,,34.955529,135.588595,
438,E2720700099121,友遊の里,大阪府高槻市大字田能小字宮ノ前1088,,,障がい者等,34.960702,135.591745,
439,E2720700100121,特別養護老人ホーム　樫田の里,大阪府高槻市大字田能小字畑子谷15-1,,,高齢者等,34.9532,135.589928,
440,E2720700101121,わかくさ南障害者作業所,大阪府高槻市大字唐崎1277,,,障がい者等,34.807011,135.612837,
441,E2720700102121,萩の杜,大阪府高槻市大字萩谷14-1,,,障がい者等,34.885618,135.570447,
442,E2720700103111,南大冠公民館,大阪府高槻市大塚町1-20-1,1,,,34.822359,135.632872,
443,E2720700104111,南大冠小学校,大阪府高槻市大塚町1-4-8,1,,,34.825933,135.634221,
444,E2720700106111,第四中学校,大阪府高槻市大畑町4-4,1,,,34.839033,135.59198,
445,E2720700107111,松原小学校,大阪府高槻市沢良木町18-1,1,,,34.845733,135.631561,
446,E2720700109111,竹の内小学校,大阪府高槻市竹の内町60-1,1,,,34.824667,135.627714,
447,E2720700110111,竹の内コミュニティセンター,大阪府高槻市竹の内町60-6,1,,,34.825107,135.627778,
448,E2720700111111,第十中学校,大阪府高槻市竹の内町61-1,1,,,34.82174,135.627793,
449,E2720700112121,地域密着型特別養護老人ホームひなた柱本,大阪府高槻市柱本6-32-1,,,高齢者等,34.790266,135.598374,
450,E2720700113111,柱本小学校,大阪府高槻市柱本新町10-8,1,,,34.792442,135.6022,
451,E2720700114111,津之江小学校,大阪府高槻市津之江北町7-1,1,,,34.843245,135.605167,
452,E2720700116121,養護老人ホーム　槻ノ木荘,大阪府高槻市塚原1-8-1,,,高齢者等,34.856166,135.573509,
453,E2720700117121,高槻温心寮,大阪府高槻市塚原1-9-1,,,障がい者等,34.855181,135.573248,
454,E2720700119111,堤コミュニティセンター,大阪府高槻市堤町3-2,1,,,34.827246,135.618389,
455,E2720700120111,大冠小学校,大阪府高槻市天川町42-2,1,,,34.841696,135.634107,
456,E2720700121111,桜台小学校,大阪府高槻市登町9-1,1,,,34.830092,135.625087,
457,E2720700123111,五百住小学校,大阪府高槻市登美の里町24-1,1,,,34.834294,135.600773,
458,E2720700125121,特別養護老人ホーム　リヴェスタひろの,大阪府高槻市唐崎南3-30-5,,,高齢者等,34.809566,135.612824,
459,E2720700127121,特別養護老人ホーム上牧の郷,大阪府高槻市東上牧2-37-8,,,高齢者等,34.864452,135.663849,
460,E2720700129111,桃園小学校,大阪府高槻市桃園町3-27,1,,,34.845036,135.616108,
461,E2720700130111,五領中学校,大阪府高槻市道鵜町3-20-1,1,,,34.857789,135.655712,
462,E2720700131111,阿武山中学校,大阪府高槻市奈佐原1-2-1,1,,,34.858172,135.581962,
463,E2720700132111,阿武山公民館,大阪府高槻市奈佐原2-11-12,1,,,34.860241,135.580186,
464,E2720700133121,グリーン特別養護老人ホーム,大阪府高槻市奈佐原4-7-15,,,高齢者等,34.86539,135.575604,
465,E2720700134111,庄所コミュニティセンター,大阪府高槻市南庄所町3-3,1,,,34.836933,135.614496,
466,E2720700135121,第２共働舎花の会,大阪府高槻市南平台3-29-10,,,障がい者等,34.855646,135.586863,
467,E2720700136121,共働舎花の会,大阪府高槻市南平台3-29-9,,,障がい者等,34.855484,135.587243,
468,E2720700137111,南平台小学校,大阪府高槻市南平台5-20-1,1,,,34.862293,135.590466,
469,E2720700138111,阿武野コミュニティセンター,大阪府高槻市南平台5-21-2,1,,,34.862075,135.588539,
470,E2720700139111,日吉台小学校,大阪府高槻市日吉台一番町24-18,1,,,34.869905,135.613001,
471,E2720700140111,北日吉台小学校,大阪府高槻市日吉台三番町4-20,1,,,34.878949,135.608977,
472,E2720700141111,如是小学校,大阪府高槻市如是町2-3,1,,,34.836512,135.605414,
473,E2720700142111,如是公民館,大阪府高槻市如是町2-5,1,,,34.836158,135.604921,
474,E2720700143111,如是中学校,大阪府高槻市如是町7-1,1,,,34.834974,135.604071,
475,E2720700145121,特別養護老人ホーム高槻けやきの郷,大阪府高槻市番田1-60-1,,,高齢者等,34.817978,135.624677,
476,E2720700146121,ジョブサイトひむろ,大阪府高槻市氷室町1-14-27,,,障がい者等,34.847901,135.5957,
477,E2720700149111,阿武野小学校,大阪府高槻市氷室町4-4-5,1,,,34.851996,135.588125,
478,E2720700150111,阿武野中学校,大阪府高槻市氷室町5-7-1,1,,,34.85859,135.584926,
479,E2720700152121,サニースポット,大阪府高槻市富田町4-7-16,,,障がい者等,34.831225,135.591924,
480,E2720700153111,富田公民館,大阪府高槻市富田町5-17-1,1,,,34.830659,135.595096,
481,E2720700154111,奥坂コミュニティセンター,大阪府高槻市別所本町35-3,1,,,34.863223,135.625028,
482,E2720700155111,奥坂小学校,大阪府高槻市別所本町35-5,1,,,34.863908,135.625,
483,E2720700157111,玉川牧田コミュニティセンター,大阪府高槻市牧田町26-3,1,,,34.819925,135.599014,
484,E2720700158111,玉川小学校,大阪府高槻市牧田町8-1,1,,,34.819788,135.60412,
485,E2720700160111,高槻小学校,大阪府高槻市本町3-69,1,,,34.844953,135.626192,
486,E2723200001111,さつき台住民センター,大阪府阪南市さつき台1-24,,,,34.339261,135.249693,
487,E2723200003121,社会福祉法人　野のはな,大阪府阪南市下出289,,,要配慮者,34.363074,135.247392,
488,E2723200004121,特別養護老人ホーム玉井泉陽園,大阪府阪南市下出371-1,,,要配慮者,34.35967,135.249596,
489,E2723200005121,社会福祉法人　有誠会,大阪府阪南市下出485-5,,,要配慮者,34.355985,135.25062,
490,E2723200006111,上荘小学校,大阪府阪南市下出548-1,1,,,34.355489,135.247508,
491,E2723200007111,下出住民センター,大阪府阪南市下出701-4,,,,34.360206,135.244594,
492,E2723200008111,貝掛住民センター,大阪府阪南市貝掛1215-1,,,,34.343405,135.220115,
493,E2723200009111,貝掛中学校,大阪府阪南市貝掛1372,1,,,34.340017,135.2212,
494,E2723200010121,ピープルハウスはんなん,大阪府阪南市貝掛179-4,,,要配慮者,34.348403,135.224748,
495,E2723200011111,シーサイド貝掛住民センター,大阪府阪南市貝掛63-4,,,,34.347827217202,135.225986257561,
496,E2723200012111,桑畑住民センター,大阪府阪南市桑畑352-13,,,,34.330834,135.241846,
497,E2723200014111,光陽台住民センター,大阪府阪南市光陽台2-14-9,,,,34.344777,135.238074,
498,E2723200017111,黒田住民センター,大阪府阪南市黒田5-3,,,,34.355274,135.240172,
499,E2723200018111,山中渓住民センター,大阪府阪南市山中渓245,,,,34.327642,135.271784,
500,E2723200019121,社会福祉法人ぽけっと福祉会ワークセンターぽけっと,大阪府阪南市山中渓458,,,要配慮者,34.333224,135.268774,
501,E2723200020111,旧東鳥取小学校　（６／１１修正）,大阪府阪南市自然田1454,1,,,34.348947,135.249127,
502,E2723200021111,自然田第３住民センター,大阪府阪南市自然田1536-6,,,,34.349495,135.254614,
503,E2723200022111,自然田第４住民センター,大阪府阪南市自然田1664-3,,,,34.346296,135.253762,
504,E2723200023111,桜ヶ丘住民センター,大阪府阪南市自然田169-12,,,,34.350383,135.261395,
505,E2723200024111,自然田住民センター,大阪府阪南市自然田1752-1,,,,34.348145,135.251587,
506,E2723200025121,いきいき交流センター,大阪府阪南市自然田1880-5,,,要配慮者,34.336212,135.255182,
507,E2723200026111,朝日小学校,大阪府阪南市自然田272-1,1,,,34.347403,135.262474,
508,E2723200027111,和泉鳥取台住民センター,大阪府阪南市自然田466-111,,,,34.339284,135.266549,
509,E2723200028111,新町住民センター,大阪府阪南市新町298,,,,34.359098,135.234612,
510,E2723200029111,石田住民センター,大阪府阪南市石田494-5,,,,34.347218,135.246617,
511,E2723200031121,特別養護老人ホーム玉田山荘,大阪府阪南市石田738,,,要配慮者,34.343952,135.230503,
512,E2723200030111,東鳥取小学校　（６／１１修正）,大阪府阪南市石田６００一1,1,,,34.350704,135.246555,
513,E2723200032111,鳥取住民センター,大阪府阪南市鳥取668-9,,,,34.351475,135.231039,
514,E2723200033111,西鳥取小学校,大阪府阪南市鳥取72,1,,,34.355407,135.233836,
515,E2723200034121,自立支援事業所　結,大阪府阪南市鳥取978-3,,,要配慮者,34.349388,135.228093,
516,E2723200035111,鳥取三井住民センター,大阪府阪南市鳥取三井3-4,,,,34.348893,135.233455,
517,E2723200036111,鳥取中住民センター,大阪府阪南市鳥取中293-2,,,,34.351812,135.251017,
518,E2723200037121,有限会社ホームヘルプサービスみらい　みらいデイサービスセンターＨａｎｎａｎ（さつき園）,大阪府阪南市鳥取中9-1,,,要配慮者,34.353375,135.238977,
519,E2723200038111,桃の木台東住民センター,大阪府阪南市桃の木台3-8-1,,,,34.330131,135.224307,
520,E2723200039111,飯の峯中学校,大阪府阪南市桃の木台3-9-1,1,,,34.330403,135.225613,
521,E2723200041111,桃の木台小学校,大阪府阪南市桃の木台5-423-33,1,,,34.326943,135.220665,
522,E2723200042111,桃の木台西住民センター,大阪府阪南市桃の木台5-9-9,,,,34.327546,135.218077,
523,E2723200043111,桃の木台南住民センター,大阪府阪南市桃の木台7-1-9,,,,34.326157,135.222743,
524,E2723200044111,箱の浦東住民センター,大阪府阪南市箱の浦1-76,,,,34.335043,135.197024,
525,E2723200045111,南山中住民センター,大阪府阪南市箱の浦382-67,,,,34.331848,135.194301,
526,E2723200046111,箱の浦住民センター,大阪府阪南市箱の浦60-13,,,,34.332374,135.195467,
527,E2723200047111,箱作住民センター,大阪府阪南市箱作1049,,,,34.341831,135.210776,
528,E2723200048111,旧下荘小学校,大阪府阪南市箱作1055,,,,34.341391,135.21095,
529,E2723200049111,いずみが丘住民センター,大阪府阪南市箱作1569-101,,,,34.336904,135.208993,
530,E2723200050111,箱作西住民センター,大阪府阪南市箱作1619-1,,,,34.339436,135.208184,
531,E2723200068121,介護老人保健施設メデケアタマイ,大阪府阪南市箱作2047-3,,,,34.334782,135.201553,
532,E2723200051111,下荘小学校,大阪府阪南市箱作2320,1,,,34.335955,135.205249,
533,E2723200052111,鴻和住民センター,大阪府阪南市箱作2861-73,,,,34.33301,135.205722,
534,E2723200054121,ＮＰＯ法人ハートワークひだまり,大阪府阪南市箱作355-3,,,要配慮者,34.338561,135.213862,
535,E2723200055111,万葉台住民センター,大阪府阪南市箱作446-73,,,,34.33511,135.216382,
536,E2723200056111,箱作東住民センター,大阪府阪南市箱作945,,,,34.343178,135.21214,
537,E2723200069111,尾崎住民センター,大阪府阪南市尾崎町1-10-7,,,,34.361603,135.239288,
538,E2723200057111,福島住民センター,大阪府阪南市尾崎町5-30-22,,,,34.36845,135.247506,
539,E2723200058111,旧尾崎中学校,大阪府阪南市尾崎町5-33-14,,,,34.369192,135.248004,
540,E2723200059111,尾崎小学校,大阪府阪南市尾崎町5-33-8,1,,,34.368829,135.247977,
541,E2723200060111,マリンタウン福島住民センター,大阪府阪南市尾崎町8-38-2,,,,34.374528,135.24827,
542,E2723200061111,舞西住民センター,大阪府阪南市舞2-16-20,,,,34.344277,135.229141,
543,E2723200062121,舞グリーンフレンズ,大阪府阪南市舞3-41-2,,,要配慮者,34.343934,135.230509,
544,E2723200063111,舞小学校,大阪府阪南市舞4-6-31,1,,,34.33899,135.229838,
545,E2723200064111,府立泉鳥取高校,大阪府阪南市緑ケ丘1-1-10,1,,,34.339419,135.259303,
546,E2723200065111,緑ヶ丘住民センター,大阪府阪南市緑ケ丘1-13-26,,,,34.337053,135.258631,
547,E2723200066111,鳥取東中学校,大阪府阪南市和泉鳥取1455,1,,,34.346375,135.264894,
548,E2723200067111,和泉鳥取住民センター,大阪府阪南市和泉鳥取880-2,,,,34.346509,135.261493,
549,E2714000001121,じょぶライフだいせん,大阪府堺市堺区旭ヶ丘中町4-2-1,,,介護の必要性が比較的軽度の身体障害者、知的障害者,34.557886560475,135.47717785139,
550,E2714000384121,健康福祉プラザ　健康福祉センター,大阪府堺市堺区旭ヶ丘中町4-3-1,,,,34.557504,135.476511,
551,E2714000005111,榎小学校,大阪府堺市堺区榎元町2-3-11,1,,,34.57042975,135.4857367,
552,E2714000009121,特別養護老人ホーム　ハートピア堺,大阪府堺市堺区海山町3-150-1,,,要介護度の高い高齢者、介護度が比較的軽度の高齢者,34.589694912149,135.47305137677,
553,E2714000010121,特別養護老人ホーム　グレース堺,大阪府堺市堺区京町通1-21,,,介護度が比較的軽度の高齢者,34.568080028953,135.47200802778,
554,E2714000386121,特別養護老人ホーム愛らいふ　,大阪府堺市堺区協和町3-128-1,,,,34.564194,135.47049,
555,E2714000012111,錦綾小学校,大阪府堺市堺区錦綾町1-6-19,1,,,34.58599243,135.4860261,
556,E2714000015111,錦小学校,大阪府堺市堺区九間町東3-1-17,1,,,34.58442305,135.4827866,
557,E2714000016111,殿馬場中学校,大阪府堺市堺区櫛屋町東3-2-1,1,,,34.57900499,135.4792022,
558,E2714000019111,熊野小学校,大阪府堺市堺区熊野町東5-1-49,1,,,34.57639464,135.4789961,
559,E2714000020111,三国丘中学校,大阪府堺市堺区向陵西町3-6-15,1,,,34.5704542,135.4937074,
560,E2714000021111,市立堺高校,大阪府堺市堺区向陵東町1-10-1,1,,,34.5641434,135.4972262,
561,E2714000023111,関西大学堺キャンパス,大阪府堺市堺区香ヶ丘町1-11-1,1,,,34.5898696,135.492778,
562,E2714000024121,特別養護老人ホーム　かーさ・びあんか,大阪府堺市堺区今池町4-4-8,,,要介護度の高い高齢者、介護度が比較的軽度の高齢者,34.584545433668,135.49261530357,
563,E2714000025111,浅香山中学校,大阪府堺市堺区今池町5-3-8,1,,,34.58423318,135.4943562,
564,E2714000026111,浅香山小学校,大阪府堺市堺区今池町5-4-43,1,,,34.58566419,135.4945096,
565,E2714000032111,三宝小学校,大阪府堺市堺区三宝町5-286,1,,,34.59372414,135.4722647,
566,E2714000037111,市小学校,大阪府堺市堺区市之町西3-1-14,1,,,34.58015148,135.47092,
567,E2714000039111,英彰小学校,大阪府堺市堺区寺地町西4-1-1,1,,,34.57605,135.4659364,
568,E2714000043111,大阪府立泉陽高等学校,大阪府堺市堺区車之町東3-2-1,1,,,34.57974388,135.4802071,
569,E2714000062111,少林寺小学校,大阪府堺市堺区少林寺町東4-1-1,1,,,34.57069609,135.4719182,
570,E2714000067111,月州中学校,大阪府堺市堺区神南辺町1-1,1,,,34.58462725,135.4744489,
571,E2714000069111,錦西小学校,大阪府堺市堺区神明町西2-1-1,1,,,34.58544459,135.4783955,
572,E2714000070111,新湊小学校,大阪府堺市堺区西湊町6-6-1,1,,,34.56625289,135.4608312,
573,E2714000071111,神石小学校,大阪府堺市堺区石津町2-6-1,1,,,34.55486068,135.4669491,
574,E2714000074111,陵西中学校,大阪府堺市堺区大仙西町2-79,1,,,34.56562504,135.4695442,
575,E2714000075111,大仙西小学校,大阪府堺市堺区大仙西町4-129,1,,,34.56407453,135.4727608,
576,E2714000076111,旭中学校,大阪府堺市堺区大仙中町11-1,1,,,34.56160511,135.4781897,
577,E2714000077111,大仙小学校,大阪府堺市堺区大仙中町16-1,1,,,34.56066408,135.4793448,
578,E2714000380121,だいせん聴覚高等支援学校,大阪府堺市堺区大仙町1-1,,,,34.564915,135.482864,
579,E2714000378121,特別養護老人ホーム　大仙もずの音,大阪府堺市堺区大仙町1-2,,,要介護度の高い高齢者、介護度が比較的軽度の高齢者、介護の必要性が比較的軽度の身体障害者,34.565513,135.481896,
580,E2714000083111,大浜中学校,大阪府堺市堺区大浜南町2-4-1,1,,,34.57400478,135.4613831,
581,E2714000086111,大浜公園体育館・武道館,大阪府堺市堺区大浜北町5-7-1,1,,,34.580318455022,135.45893855301,
582,E2714000091111,勤労者総合福祉センター,大阪府堺市堺区田出井町2-1,1,,,34.578513,135.4964543,
583,E2714000379121,堺支援学校,大阪府堺市堺区東上野芝町1-71,,,,34.555233,135.483276,
584,E2714000092111,旧湊小学校,大阪府堺市堺区東湊町2-119-4,1,,,34.56766919,135.4663841,
585,E2714000094121,おおはま障害者作業所,大阪府堺市堺区東湊町5-276,,,知的障害者,34.56451226356,135.46552701198,
586,E2714000096121,特別養護老人ホーム　ベルライブ,大阪府堺市堺区南安井町3-1-1,,,要介護度の高い高齢者、介護度が比較的軽度の高齢者、その他,34.570443642269,135.47676886061,
587,E2714000097111,安井小学校,大阪府堺市堺区南安井町4-1-5,1,,,34.57015665,135.47821,
588,E2714000098111,大阪府立三国丘高等学校,大阪府堺市堺区南三国ヶ丘町2-2-36,1,,,34.57355661,135.4876075,
589,E2714000101121,かーさ・びあんか　三国ヶ丘,大阪府堺市堺区北三国ケ丘町2-4-1,,,要介護度の高い高齢者、介護度が比較的軽度の高齢者,34.57510404504,135.48964484557,
590,E2714000102111,三国丘小学校,大阪府堺市堺区北三国ヶ丘町5-1-1,1,,,34.57522516,135.492802,
591,E2714000105111,家原大池体育館,大阪府堺市西区家原寺町1-18-1,1,,,34.5367727,135.4725075,
592,E2714000106111,家原寺小学校,大阪府堺市西区家原寺町1-7-1,1,,,34.5374783,135.4760344,
593,E2714000107111,大阪府立鳳高等学校,大阪府堺市西区原田150,1,,,34.51781388,135.4588368,
594,E2714000108111,福泉中学校,大阪府堺市西区山田2-55,1,,,34.50884057,135.4644778,
595,E2714000109111,福泉上小学校,大阪府堺市西区上127-1,1,,,34.52612565,135.4682669,
596,E2714000110111,大阪府立堺上高等学校,大阪府堺市西区上61,1,,,34.52392172,135.4691107,
597,E2714000111111,上野芝中学校,大阪府堺市西区上野芝向ヶ丘町5-25-1,1,,,34.54126934,135.4803891,
598,E2714000112111,向丘小学校,大阪府堺市西区上野芝向ヶ丘町6-7-1,1,,,34.53962177,135.4785784,
599,E2714000113111,津久野中学校,大阪府堺市西区神野町2-16-1,1,,,34.54171778,135.4752616,
600,E2714000114111,上野芝小学校,大阪府堺市西区神野町2-25-1,1,,,34.5443093,135.4757214,
601,E2714000116121,堺福泉療護園,大阪府堺市西区草部341,,,要介護度の高い高齢者、介護の必要性が極めて高い身体障害者、介護度が比較的軽度の高齢者、介護の必要性が比較的軽度の身体障害者、知的障害者、精神障害者、その他,34.519238607508,135.46844033971,
602,E2714000117121,特別養護老人ホーム　朗友サロン,大阪府堺市西区草部743,,,要介護度の高い高齢者または介護度が比較的軽度の高齢者,34.519699657708,135.47165366769,
603,E2714000118121,堺あすなろ園,大阪府堺市西区草部744-6,,,知的障害者,34.519559202482,135.47134374249,
604,E2714000119121,ショートステイ　うてな,大阪府堺市西区草部775-2,,,知的障害者,34.517008807433,135.47183544237,
605,E2714000120121,わららか草部,大阪府堺市西区草部783-1,,,知的障害者,34.517156117877,135.47118789004,
606,E2714000121121,あすなろ万崎の郷,大阪府堺市西区草部931-2,,,知的障害者,34.517927629518,135.47473878748,
607,E2714000122111,福泉東小学校,大阪府堺市西区草部946-1,1,,,34.51923693,135.4731867,
608,E2714000123111,大阪府立福泉高等学校,大阪府堺市西区太平寺323,1,,,34.50469915,135.4801242,
609,E2714000124121,特別養護老人ホーム　ハートピア泉北,大阪府堺市西区太平寺331-1,,,要介護度の高い高齢者、介護度が比較的軽度の高齢者,34.504082919385,135.47893746438,
610,E2714000125121,ケアハウス　はーとらんど,大阪府堺市西区津久野町1-7-20,,,介護度が比較的軽度の高齢者,34.540122567441,135.46834021428,
611,E2714000126111,津久野小学校,大阪府堺市西区津久野町3-14-11,1,,,34.54509367,135.4708726,
612,E2714000127121,特別養護老人ホーム　ベルアルプ,大阪府堺市西区菱木1-2343-16,,,要介護度の高い高齢者、介護度が比較的軽度の高齢者、その他,34.512930168091,135.47771249075,
613,E2714000128111,福泉小学校,大阪府堺市西区菱木2-2186-1,1,,,34.51452945,135.4711739,
614,E2714000133111,浜寺昭和小学校,大阪府堺市西区浜寺昭和町2-282,1,,,34.54255962,135.4488211,
615,E2714000137111,浜寺小学校,大阪府堺市西区浜寺諏訪森町東2-163,1,,,34.54952771,135.4512779,
616,E2714000138121,特別養護老人ホーム　アリオン,大阪府堺市西区浜寺石津町西1-2-7,1,,要介護度の高い高齢者,34.562376472937,135.45470534576,
617,E2714000142111,浜寺石津小学校,大阪府堺市西区浜寺石津町中2-3-28,1,,,34.55959364,135.4558834,
618,E2714000150111,浜寺中学校,大阪府堺市西区浜寺船尾町西5-60,1,,,34.54338103,135.458033,
619,E2714000151111,浜寺東小学校,大阪府堺市西区浜寺船尾町東1-101,1,,,34.55113121,135.4581923,
620,E2714000153111,浜寺南中学校,大阪府堺市西区浜寺南町1-55,1,,,34.53599782,135.4487725,
621,E2714000154111,鳳中学校,大阪府堺市西区鳳西町1-159-1,1,,,34.52849118,135.4544474,
622,E2714000155111,鳳小学校,大阪府堺市西区鳳中町2-22,1,,,34.53429748,135.4588862,
623,E2714000156121,特別養護老人ホーム　朗友館,大阪府堺市西区鳳東町6-659-1,,,要介護度の高い高齢者または介護度が比較的軽度の高齢者,34.537021307356,135.46469133049,
624,E2714000157111,鳳南小学校,大阪府堺市西区鳳南町1-7,1,,,34.52831836,135.4575319,
625,E2714000158111,平岡小学校,大阪府堺市西区堀上緑町1-6-1,1,,,34.53466685,135.4773919,
626,E2714000159111,宮園小学校,大阪府堺市中区宮園町4-1,1,,,34.52604727,135.4952427,
627,E2714000160121,特別養護老人ホーム　ゆーとりあ,大阪府堺市中区見野山162,,,要配慮者,34.502537792112,135.53507849928,
628,E2714000161121,ケアハウス　ゆーとりあ,大阪府堺市中区見野山164,,,介護度が比較的軽度の高齢者,34.502957769221,135.53533062693,
629,E2714000162121,紬「あけぼの」,大阪府堺市中区上之837,,,介護の必要性が比較的軽度の身体障害者,34.507461193923,135.52153473927,
630,E2714000163121,楽「あけぼの」,大阪府堺市中区上之838-1,,,介護の必要性が比較的軽度の身体障害者,34.507624834406,135.52159419739,
631,E2714000164121,集い「あけぼの」,大阪府堺市中区上之853-1,,,介護の必要性が比較的軽度の身体障害者,34.508662975598,135.52139729782,
632,E2714000165111,東百舌鳥中学校,大阪府堺市中区新家町260,1,,,34.54033982,135.5103103,
633,E2714000166111,東深井小学校,大阪府堺市中区深井水池町3214,1,,,34.53109277,135.5009243,
634,E2714000167111,教育文化センター,大阪府堺市中区深井清水町1426,1,,,34.53380047,135.491512,
635,E2714000168111,深井中学校,大阪府堺市中区深井沢町2470-1,1,,,34.52784182,135.5007686,
636,E2714000169111,深井小学校,大阪府堺市中区深井中町1409,1,,,34.5352369,135.4916876,
637,E2714000170121,特別養護老人ホーム　やすらぎの園,大阪府堺市中区深井畑山町2528-1,,,要介護度の高い高齢者、介護の必要性が極めて高い身体障害者、介護度が比較的軽度の高齢者、介護の必要性が比較的軽度の身体障害者、その他,34.524329121206,135.51136011667,
638,E2714000171111,深井中央中学校,大阪府堺市中区深井北町220-1,1,,,34.54034816,135.4953513,
639,E2714000172111,深井西小学校,大阪府堺市中区深井北町926,1,,,34.53914816,135.4835912,
640,E2714000173111,深阪小学校,大阪府堺市中区深阪5-15-1,1,,,34.5094385,135.5074821,
641,E2714000174121,ケアスペースつむぎ,大阪府堺市中区大野芝204-6,,,知的障害者,34.533134792533,135.51906075556,
642,E2714000175111,西陶器小学校,大阪府堺市中区田園570,1,,,34.51020319,135.5116147,
643,E2714000176111,土師小学校,大阪府堺市中区土師町3-35-1,1,,,34.5385131,135.4991055,
644,E2714000177111,東百舌鳥小学校,大阪府堺市中区土塔町139,1,,,34.5385804,135.5084043,
645,E2714000178121,特別養護老人ホーム　ふれ愛の家,大阪府堺市中区土塔町2028,,,介護度が比較的軽度の高齢者、介護の必要性が比較的軽度の身体障害者,34.534269029843,135.50540692525,
646,E2714000179111,大阪府立東百舌鳥高等学校,大阪府堺市中区土塔町2377-5,1,,,34.53521153,135.5125396,
647,E2714000180121,くるみの樹,大阪府堺市中区東山252-6,,,知的障害者,34.523029191168,135.50852217355,
648,E2714000181122,デイサービスセンター　ひがしやま,大阪府堺市中区東山719-1,,,要介護度の高い高齢者3人、介護度が比較的軽度の高齢者7人,34.522002969917,135.50431517382,
649,E2714000181121,グループホーム　ひがしやま,大阪府堺市中区東山719-1,,,要介護度の高い高齢者２人、介護度が比較的軽度の高齢者７人,34.521874795902,135.50455657263,
650,E2714000182121,小規模多機能型居宅介護事業所　ひがしやま,大阪府堺市中区東山720-1,,,介護度が比較的軽度の高齢者,34.521817338521,135.50487843772,
651,E2714000183121,特別養護老人ホーム　ベルファミリア,大阪府堺市中区東山841-1,,,要介護度の高い高齢者、介護度が比較的軽度の高齢者、その他,34.517001967495,135.50674829469,
652,E2714000184121,あいする久世　グループホーム,大阪府堺市中区東八田387-1,,,要介護度の高い高齢者、介護度が比較的軽度の高齢者,34.523318203956,135.49378886542,
653,E2714000185111,泉ヶ丘東中学校,大阪府堺市中区陶器北184,1,,,34.51740874,135.5155454,
654,E2714000186111,東陶器小学校,大阪府堺市中区陶器北2556,1,,,34.518262,135.5218,
655,E2714000188111,八田荘小学校,大阪府堺市中区八田寺町231,1,,,34.52729608,135.4804428,
656,E2714000189111,原池公園体育館,大阪府堺市中区八田寺町320,1,,,34.51958983,135.4933644,
657,E2714000190111,八田荘中学校,大阪府堺市中区八田北町580-11,1,,,34.52616189,135.4807348,
658,E2714000191121,デイセンターフレンズ,大阪府堺市中区伏尾79,,,知的障害者,34.512435830916,135.49512484698,
659,E2714000192111,福田小学校,大阪府堺市中区福田727,1,,,34.52444903,135.5185499,
660,E2714000193111,平井中学校,大阪府堺市中区平井346,1,,,34.5172803,135.4977193,
661,E2714000194121,堺みなみ,大阪府堺市中区平井671-2,,,知的障害者,34.517064857947,135.49354446334,
662,E2714000195111,久世小学校,大阪府堺市中区平井999,1,,,34.52071731,135.4955926,
663,E2714000196111,八田荘西小学校,大阪府堺市中区毛穴町268-2,1,,,34.52715661,135.4757576,
664,E2714000197111,八下西小学校,大阪府堺市東区引野町1-110,1,,,34.55075925,135.5226933,
665,E2714000198121,堺東部障害者作業所,大阪府堺市東区高松106,,,介護度が比較的軽度の高齢者,34.532021305648,135.53527421885,
666,E2714000199111,登美丘中学校,大阪府堺市東区高松408,1,,,34.52630331,135.5313787,
667,E2714000200111,登美丘東小学校,大阪府堺市東区丈六224,1,,,34.52705812,135.5400267,
668,E2714000201121,特別養護老人ホーム　おおみの,大阪府堺市東区西野42,,,介護度が比較的軽度の高齢者,34.518873620834,135.53783767227,
669,E2714000202111,大阪府立登美丘高等学校,大阪府堺市東区西野51,1,,,34.51893247,135.5400273,
670,E2714000203121,つるぎ荘・やしもグループホーム,大阪府堺市東区石原町3-150,,,要介護度の高い高齢者、介護度が比較的軽度の高齢者,34.552162719931,135.53282451691,
671,E2714000204111,登美丘南小学校,大阪府堺市東区草尾596,1,,,34.51819459,135.5363941,
672,E2714000205111,登美丘西小学校,大阪府堺市東区大美野135,1,,,34.52673715,135.5284511,
673,E2714000206111,野田中学校,大阪府堺市東区南野田101-1,1,,,34.52120511,135.5505076,
674,E2714000207121,特別養護老人ホーム　ハーモニー,大阪府堺市東区南野田33,,,介護度が比較的軽度の高齢者、介護の必要性が比較的軽度の身体障害者,34.522609564252,135.55021125236,
675,E2714000208121,ケアハウス　ハーモニーコート,大阪府堺市東区南野田34,,,介護度が比較的軽度の高齢者、介護の必要性が比較的軽度の身体障害者,34.522997663824,135.55037176267,
676,E2714000209122,ショートステイ　くみのき苑ゆらら,大阪府堺市東区南野田454-2,,,要介護度の高い高齢者、介護の必要性が極めて高い身体障害者、介護度が比較的軽度の高齢者,34.518895642368,135.54665810553,
677,E2714000209123,特別養護老人ホーム　くみのき苑ゆらら,大阪府堺市東区南野田454-2,,,要介護度の高い高齢者、介護の必要性が極めて高い身体障害者、介護度が比較的軽度の高齢者,34.519014981069,135.54663128344,
678,E2714000209121,デイサービス　くみのき苑ゆらら,大阪府堺市東区南野田454-2,,,要介護度の高い高齢者、介護の必要性が極めて高い身体障害者、介護度が比較的軽度の高齢者,34.518776303494,135.5466795632,
679,E2714000210111,日置荘小学校,大阪府堺市東区日置荘西町2-46-1,1,,,34.54161374,135.5340071,
680,E2714000211111,日置荘西小学校,大阪府堺市東区日置荘西町6-9-1,1,,,34.53831837,135.5248108,
681,E2714000212121,ショートステイ　あかね,大阪府堺市東区日置荘西町8-1-1,,,介護の必要性が比較的軽度の身体障害者、知的障害者、精神障害者,34.532741603628,135.52675546627,
682,E2714000212122,青い鳥,大阪府堺市東区日置荘西町8-1-1,,,介護の必要性が比較的軽度の身体障害者、知的障害者、精神障害者,34.532538447616,135.52687375132,
683,E2714000213121,特別養護老人ホーム　つるぎ荘,大阪府堺市東区日置荘田中町143-1,,,要介護度の高い高齢者、介護度が比較的軽度の高齢者,34.533098233602,135.53153322504,
684,E2714000214111,日置荘中学校,大阪府堺市東区日置荘北町3-11-28,1,,,34.5411245,135.5353477,
685,E2714000215111,白鷺小学校,大阪府堺市東区白鷺町2-8-1,1,,,34.54533127,135.5152512,
686,E2714000385121,支援センターしらさぎ,大阪府堺市東区白鷺町2-9-32,,,,34.54489,135.514566,
687,E2714000216121,ケアハウス　シャルム出屋敷,大阪府堺市東区八下町1-127-1,,,介護度が比較的軽度の高齢者、介護の必要性が比較的軽度の身体障害者,34.557958966297,135.54097848669,
688,E2714000217111,南八下中学校,大阪府堺市東区菩提町2-58,1,,,34.55063964,135.5329779,
689,E2714000218121,特別養護老人ホーム　ソルメゾン,大阪府堺市東区菩提町2-62-1,,,要介護度の高い高齢者、介護度が比較的軽度の高齢者,34.55030316533,135.53416441144,
690,E2714000219111,南八下小学校,大阪府堺市東区菩提町5-228,1,,,34.54721421,135.5377815,
691,E2714000325111,東文化会館,大阪府堺市東区北野田1084-136,1,,,34.523407389444,135.5415688459,
692,E2714000220111,野田小学校,大阪府堺市東区北野田897-2,1,,,34.52406191,135.5511693,
693,E2714000221111,初芝体育館,大阪府堺市東区野尻町221-4,1,,,34.54037853,135.5231905,
694,E2714000222121,えると,大阪府堺市東区野尻町8-4,,,介護の必要性が極めて高い身体障害者、介護の必要性が比較的軽度の身体障害者、知的障害者、精神障害者,34.543721643081,135.51538457598,
695,E2714000223121,ピュアあすなろ,大阪府堺市南区稲葉3-1581,,,知的障害者,34.499680349111,135.47343905035,
696,E2714000225121,パル・茅渟の里,大阪府堺市南区釜室995-1,,,知的障害者,34.483661917538,135.51527452615,
697,E2714000226111,美木多中学校,大阪府堺市南区鴨谷台1-47-1,1,,,34.4725779,135.483341,
698,E2714000227111,美木多小学校,大阪府堺市南区鴨谷台1-48-1,1,,,34.47438496,135.4840716,
699,E2714000228111,鴨谷体育館,大阪府堺市南区鴨谷台2-4-1,1,,,34.47401686,135.4787517,
700,E2714000229121,特別養護老人ホーム　槇塚荘,大阪府堺市南区逆瀬川1038-2,,,介護度が比較的軽度の高齢者,34.478812815598,135.52754776476,
701,E2714000230111,宮山台中学校,大阪府堺市南区宮山台1-1-1,1,,,34.49987367,135.5037887,
702,E2714000231111,宮山台小学校,大阪府堺市南区宮山台2-2-1,1,,,34.50424256,135.4992057,
703,E2714000232121,アトリエｈａｎａ,大阪府堺市南区宮山台3-1-8,,,知的障害者,34.505526334985,135.49828293429,
704,E2714000381121,泉北高等支援学校,大阪府堺市南区原山台2-6,,,,34.482735,135.489258,
705,E2714000233111,原山台中学校,大阪府堺市南区原山台4-2-1,1,,,34.48227886,135.4942876,
706,E2714000234111,原山ひかり小学校,大阪府堺市南区原山台4-3-1,1,,,34.47939496639,135.49371123798,
707,E2714000235111,御池台小学校,大阪府堺市南区御池台2-3-1,1,,,34.46543114,135.5031916,
708,E2714000236121,上神谷支援学校,大阪府堺市南区御池台4-24-1,,,,34.45984493,135.5060684,
709,E2714000237121,特別養護老人ホーム　年輪,大阪府堺市南区御池台5-2-2,,,介護度が比較的軽度の高齢者,34.45776073693,135.50491586387,
710,E2714000238121,ショートステイ堺あけぼの,大阪府堺市南区御池台5-2-6,,,介護の必要性が比較的軽度の身体障害者,34.455732544984,135.50529800594,
711,E2714000238122,堺あけぼの園,大阪府堺市南区御池台5-2-6,,,介護の必要性が比較的軽度の身体障害者,34.456214685094,135.5050318821,
712,E2714000239111,大阪健康福祉短期大学　堺・泉ヶ丘キャンパス,大阪府堺市南区高倉台1-2-1,1,,,34.496189135827,135.51918185012,
713,E2714000240111,泉北高倉小学校,大阪府堺市南区高倉台3-5-1,1,,,34.49365528,135.5256512,
714,E2714000241111,三原台中学校,大阪府堺市南区三原台1-12-1,1,,,34.49995275,135.5231745,
715,E2714000242111,三原台小学校,大阪府堺市南区三原台3-2-1,1,,,34.50150038,135.51979,
716,E2714000243121,ケアハウス美和,大阪府堺市南区三木閉57,,,介護度が比較的軽度の高齢者,34.496573790793,135.4881372958,
717,E2714000244111,若松台小学校,大阪府堺市南区若松台1-3-1,1,,,34.49160629,135.5067496,
718,E2714000246111,大阪府立泉北高等学校,大阪府堺市南区若松台3-2-2,1,,,34.49037922,135.5013877,
719,E2714000245111,若松台中学校,大阪府堺市南区若松台3-34-1,1,,,34.48682236,135.5129449,
720,E2714000247111,城山台小学校,大阪府堺市南区城山台1-20-1,1,,,34.46833433,135.4879812,
721,E2714000248111,大阪府立成美高等学校,大阪府堺市南区城山台4-1-1,1,,,34.46327738,135.4873808,
722,E2714000382121,障がい者交流促進センター（ファインプラザ大阪）,大阪府堺市南区城山台5-1-2,,,,34.466408,135.482234,
723,E2714000249111,新檜尾台小学校,大阪府堺市南区新檜尾台3-7-1,1,,,34.47984427,135.4762824,
724,E2714000250111,大阪府立堺東高等学校,大阪府堺市南区晴美台1-1-2,1,,,34.49927213,135.5340332,
725,E2714000251111,はるみ小学校,大阪府堺市南区晴美台3-3-1,1,,,34.49030695,135.5309572,
726,E2714000252111,晴美台中学校,大阪府堺市南区晴美台3-8-1,1,,,34.48648459,135.5281471,
727,E2714000253111,赤坂台中学校,大阪府堺市南区赤坂台2-1-1,1,,,34.48461331,135.4771501,
728,E2714000254111,赤坂台小学校,大阪府堺市南区赤坂台2-2-1,1,,,34.48648636,135.4760047,
729,E2714000255111,竹城台東小学校,大阪府堺市南区竹城台1-10-1,1,,,34.50315958,135.5110506,
730,E2714000256111,竹城台小学校,大阪府堺市南区竹城台3-2-1,1,,,34.4959224,135.5036369,
731,E2714000257111,茶山台小学校,大阪府堺市南区茶山台2-5-1,1,,,34.49117054,135.5171701,
732,E2714000258121,特別養護老人ホーム　泉北園百寿荘,大阪府堺市南区茶山台3-23-2,,,介護度が比較的軽度の高齢者,34.488549172856,135.51785536485,
733,E2714000259121,ショートステイ　そら,大阪府堺市南区栂202-9,,,介護の必要性が比較的軽度の身体障害者、知的障害者、精神障害者,34.486509077663,135.5009135306,
734,E2714000260111,庭代台中学校,大阪府堺市南区庭代台2-19-1,1,,,34.46857031,135.5003829,
735,E2714000261121,絆あけぼの,大阪府堺市南区庭代台2-9-1,,,介護の必要性が比較的軽度の身体障害者,34.472058940479,135.4968339285,
736,E2714000262111,庭代台小学校,大阪府堺市南区庭代台3-12-1,1,,,34.47424992,135.499985,
737,E2714000263111,栂文化会館,大阪府堺市南区桃山台2-1-2,1,,,34.48576175,135.4893518,
738,E2714000264111,桃山台小学校,大阪府堺市南区桃山台2-6-1,1,,,34.48930897,135.4875968,
739,E2714000265111,福泉南中学校,大阪府堺市南区桃山台3-7-1,1,,,34.49680063,135.4816538,
740,E2714000267111,大阪府立堺西高等学校,大阪府堺市南区桃山台4-16,1,,,34.495037,135.4845504,
741,E2714000266111,福泉中央小学校,大阪府堺市南区桃山台4-17-1,1,,,34.49693454,135.4833419,
742,E2714000268121,老人保健施設　美樹の園,大阪府堺市南区美木多上1359-2,,,要介護度の高い高齢者、介護度が比較的軽度の高齢者、介護の必要性が比較的軽度の身体障害者,34.458742098862,135.49227467519,
743,E2714000269111,上神谷小学校,大阪府堺市南区片蔵1425,1,,,34.48002133,135.5120602,
744,E2714000270121,ふれあいの里かたくら,大阪府堺市南区片蔵165,,,要介護度の高い高齢者、介護の必要性が極めて高い身体障害者、介護度が比較的軽度の高齢者、介護の必要性が比較的軽度の身体障害者、知的障害者、精神障害者、その他,34.484939251276,135.50456642422,
745,E2714000271121,せんぼく障害者作業所,大阪府堺市南区檜尾1382-6,,,知的障害者、その他（その家族）,34.4806385989,135.48314047168,
746,E2714000272121,ケアハウス　セットンの家,大阪府堺市南区檜尾3360-10,,,要介護度の高い高齢者、介護度が比較的軽度の高齢者,34.490278955446,135.46725177477,
747,E2714000273121,特別養護老人ホーム　故郷の家,大阪府堺市南区檜尾3360-12,,,要介護度の高い高齢者、介護の必要性が極めて高い身体障害者、介護度が比較的軽度の高齢者,34.489879988903,135.46728196113,
748,E2714000274111,槇塚台小学校,大阪府堺市南区槇塚台3-39-1,1,,,34.48234713,135.5277502,
749,E2714000275111,さつき野中学校,大阪府堺市美原区さつき野西2-6-1,1,,,34.53218055,135.5802175,
750,E2714000276111,さつき野小学校,大阪府堺市美原区さつき野東1-6-1,1,,,34.5324226,135.5817033,
751,E2714000277111,黒山小学校,大阪府堺市美原区阿弥93,1,,,34.53552173,135.556112,
752,E2714000278111,美原中学校,大阪府堺市美原区小平尾390,1,,,34.53884563,135.5629639,
753,E2714000279121,ワークセンターヴァンサンクつつじ,大阪府堺市美原区小平尾953,,,,34.538328509386,135.57447279003,
754,E2714000280121,特別養護老人ホーム　美原荘「すごうの郷」,大阪府堺市美原区菅生1-1,,,要介護度の高い高齢者、介護度が比較的軽度の高齢者,34.532318461652,135.5617801229,
755,E2714000281111,みはら大地幼稚園,大阪府堺市美原区菅生587,1,,,34.52319045,135.5704353,
756,E2714000282121,介護老人保健施設　ホットスプリング美原,大阪府堺市美原区菅生903-3,,,介護度が比較的軽度の高齢者,34.525195682098,135.56790139287,
757,E2714000283111,美原体育館,大阪府堺市美原区多治井878-1,1,,,34.54274698,135.5670071,
758,E2714000284111,美原西小学校,大阪府堺市美原区太井548,1,,,34.53860566,135.553068,
759,E2714000285111,美原西中学校,大阪府堺市美原区大饗102-2,1,,,34.54256382,135.5474759,
760,E2714000286111,八上小学校,大阪府堺市美原区大饗117-1,1,,,34.54314681,135.5457195,
761,E2714000287111,美原北小学校,大阪府堺市美原区大保19,1,,,34.54930529,135.5611745,
762,E2714000288121,グループホーム　ファミリーハウス美原,大阪府堺市美原区平尾1848-1,,,介護度が比較的軽度の高齢者,34.533811845926,135.57387808535,
763,E2714000289121,特別養護老人ホーム　平尾荘,大阪府堺市美原区平尾1938-1,,,介護度が比較的軽度の高齢者,34.531897184876,135.57488198449,
764,E2714000290121,ケアハウス　和風荘,大阪府堺市美原区平尾2196,,,介護度が比較的軽度の高齢者,34.528209631576,135.57022762491,
765,E2714000291111,平尾小学校,大阪府堺市美原区平尾360,1,,,34.53297334,135.5665391,
766,E2714000292121,特別養護老人ホーム　美原荘,大阪府堺市美原区平尾595-1,,,要介護度の高い高齢者、介護度が比較的軽度の高齢者,34.528648017036,135.57003116368,
767,E2714000293111,金岡南小学校,大阪府堺市北区金岡町1182-1,1,,,34.55558587,135.5112815,
768,E2714000294111,金岡小学校,大阪府堺市北区金岡町1254,1,,,34.55874302,135.5151693,
769,E2714000295111,金岡南中学校,大阪府堺市北区金岡町2469,1,,,34.55557805,135.5214586,
770,E2714000296111,大阪府立金岡高等学校,大阪府堺市北区金岡町2651,1,,,34.55417082,135.5271354,
771,E2714000297121,特別養護老人ホーム　ハピネス金岡,大阪府堺市北区金岡町2725,,,介護度が比較的軽度の高齢者,34.555982500285,135.5253009139,
772,E2714000298111,新金岡小学校,大阪府堺市北区新金岡町1-4-1,1,,,34.56967897,135.5111695,
773,E2714000299111,金岡北中学校,大阪府堺市北区新金岡町1-5-1,1,,,34.57083244,135.5113586,
774,E2714000300111,光竜寺小学校,大阪府堺市北区新金岡町3-7-1,1,,,34.57244489,135.5214473,
775,E2714000301111,新金岡東小学校,大阪府堺市北区新金岡町4-1-9,1,,,34.56846577,135.5158975,
776,E2714000302111,大泉学園（大泉小学校・中学校）,大阪府堺市北区新金岡町4-9-1,1,,,34.567147939537,135.52277750675,
777,E2714000303111,五箇荘中学校,大阪府堺市北区新堀町1-85-2,1,,,34.57716973,135.5096555,
778,E2714000304111,五箇荘小学校,大阪府堺市北区新堀町2-58,1,,,34.57753949,135.5137112,
779,E2714000305111,東浅香山小学校,大阪府堺市北区大豆塚町1-60,1,,,34.58019647,135.5044948,
780,E2714000306111,北八下小学校,大阪府堺市北区中村町250,1,,,34.56544933,135.5365494,
781,E2714000307111,八下中学校,大阪府堺市北区中村町977-20,1,,,34.56039302,135.5324984,
782,E2714000308111,中百舌鳥小学校,大阪府堺市北区中百舌鳥町6-1033-2,1,,,34.55064958,135.5070743,
783,E2714000309111,中百舌鳥中学校,大阪府堺市北区中百舌鳥町6-1034-11,1,,,34.5493716,135.5093118,
784,E2714000310111,金岡公園体育館,大阪府堺市北区長曽根町1179-18,1,,,34.57072142,135.5064321,
785,E2714000311111,長尾中学校,大阪府堺市北区長曽根町1179-5,1,,,34.57377577,135.5025629,
786,E2714000312122,特別養護老人ホーム　陵東館,大阪府堺市北区長曽根町1210-1,,,要介護度の高い高齢者、介護度が比較的軽度の高齢者,34.566014214875,135.50797314589,
787,E2714000312121,第二陵東館ショートステイセンター,大阪府堺市北区長曽根町1210-1,,,要介護度の高い高齢者、介護度が比較的軽度の高齢者,34.566102563901,135.50813944285,
788,E2714000313121,陵東館長曽根,大阪府堺市北区長曽根町713-2,,,知的障害者,34.564718281455,135.51054941097,
789,E2714000314111,東三国丘小学校,大阪府堺市北区東三国ヶ丘町2-2-1,1,,,34.57070132,135.4976348,
790,E2714000315111,新浅香山小学校,大阪府堺市北区東浅香山町3-31-4,1,,,34.58546053,135.5091616,
791,E2714000316121,ケアハウス　ブレス南花田,大阪府堺市北区南花田町530,,,介護度が比較的軽度の高齢者,34.572462135694,135.52813344364,
792,E2714000317121,地域密着型特別養護老人ホーム　ブレス南花田,大阪府堺市北区南花田町531,,,要介護度の高い高齢者、介護度が比較的軽度の高齢者,34.572161826518,135.52815097448,
793,E2714000318121,ほくぶ障害者作業所,大阪府堺市北区南花田町536-1,,,介護の必要性が比較的軽度の身体障害者、知的障害者、聴覚障害者,34.571860712909,135.52737184921,
794,E2714000319121,百舌鳥支援学校,大阪府堺市北区百舌鳥西之町1-124,,,,34.54858939,135.4873226,
795,E2714000320111,陵南中学校,大阪府堺市北区百舌鳥西之町1-75,1,,,34.54995511,135.491474,
796,E2714000321111,西百舌鳥小学校,大阪府堺市北区百舌鳥西之町1-82,1,,,34.55059618,135.4903089,
797,E2714000322111,百舌鳥小学校,大阪府堺市北区百舌鳥梅町2-498,1,,,34.55089578,135.495586,
798,E2714000383121,堺聴覚支援学校,大阪府堺市北区百舌鳥陵南町1,,,,34.548259,135.488747,
799,E2714000323121,ハピネス陵南　グループホーム,大阪府堺市北区百舌鳥陵南町2-662,,,介護度が比較的軽度の高齢者,34.545900168059,135.49108145009,
800,E2714000324111,五箇荘東小学校,大阪府堺市北区北花田町2-203,1,,,34.58059911,135.5194918,
801,E2714000327121,特別養護老人ホーム　あけぼの苑,大阪府堺市北区野遠町344-1,,,要介護度の高い高齢者、介護度が比較的軽度の高齢者,34.565393257616,135.53975306445,
802,E2722900002111,四條畷中学校,大阪府四條畷市岡山東5-2-10,1,,,34.743651825284,135.65271082384,
803,E2722900004111,忍ヶ丘小学校,大阪府四條畷市岡山東5-2-40,1,,,34.744095886476,135.65363593,
804,E2722900006111,四條畷高等学校,大阪府四條畷市雁屋北町1-1,1,,,34.73529304376,135.63612729061,
805,E2722900010111,岡部小学校,大阪府四條畷市砂1-7-26,1,,,34.744593166643,135.63518829025,
806,E2722900013111,四條畷西中学校,大阪府四條畷市西中野1-4-35,1,,,34.740923415149,135.63320829881,
807,E2722900017111,大阪電気通信大学,大阪府四條畷市大字清瀧1130-70,,,,34.743679907716,135.66005734612,
808,E2722900018111,市民総合センター,大阪府四條畷市中野3-5-25,,,,34.7410128378,135.644006993,
809,E2722900019111,四條畷小学校,大阪府四條畷市中野872,1,,,34.73963289307,135.64547671476,
810,E2722900020111,四條畷南小学校,大阪府四條畷市中野新町11-38,1,,,34.738231123664,135.63944523857,
811,E2722900022111,田原小学校,大阪府四條畷市田原台4-2-1,1,,,34.727450518386,135.69350553863,
812,E2722900025111,旧四條畷南中学校,大阪府四條畷市南野5-5-1,1,,,34.736766644812,135.64515847582,
813,E2722900027111,旧四條畷東小学校,大阪府四條畷市南野6-1-25,1,,,34.737092863085,135.64926762004,
814,E2722900029111,くすのき小学校,大阪府四條畷市二丁通町18-1,1,,,34.735461703109,135.62791388663,
815,E2720900002111,芦間高等学校,大阪府守口市外島町1-43,1,,,34.741526065026,135.56402047867,
816,E2720900003111,梶中学校,大阪府守口市梶町4-28-5,1,,,34.750653268359,135.59025156154,
817,E2720900004111,梶小学校,大阪府守口市梶町4-79-12,1,,,34.751179084877,135.58876769627,
818,E2720900042111,錦コミュニティセンター,大阪府守口市菊水通4-20-10,1,,,34.72486,135.578858,
819,E2720900006111,大阪電気通信大学高等学校,大阪府守口市橋波西之町1-5-18,1,,,34.737515271668,135.57115839289,
820,E2720900007111,児童センター,大阪府守口市金田町1-4-1,1,,,34.75266939,135.5891919,
821,E2720900045121,グレースヴィラ守口,大阪府守口市金田町1-71-14,,,高齢者,34.754536,135.588683,
822,E2720900008111,金田小学校,大阪府守口市金田町3-11-11,1,,,34.756590983196,135.59513750736,
823,E2720900009111,大阪国際中学校高等学校体育館,大阪府守口市高瀬町4-1-19,1,,,34.726004,135.565617,
824,E2720900010111,庭窪小学校,大阪府守口市佐太中町1-6-10,1,,,34.756094810819,135.58095778883,
825,E2720900011111,庭窪中学校,大阪府守口市佐太中町4-1-7,1,,,34.756368170331,135.58587448719,
826,E2720900012111,佐太小学校,大阪府守口市佐太中町6-11-51,1,,,34.761571156257,135.58756146362,
827,E2720900046121,守口障がい者支援センター　ひだまり,大阪府守口市佐太中町7-5-5,,,障がい者,34.763549,135.591027,
828,E2720900013111,錦小学校,大阪府守口市寺方錦通2-8-45,1,,,34.722718982678,135.57649215314,
829,E2720900014111,寺方南小学校,大阪府守口市寺方元町4-1-45,1,,,34.72378,135.570058,
830,E2720900047121,守口市社会福祉協議会　わかたけ園,大阪府守口市寺方元町4-7-13,,,障がい者,34.724238,135.572735,
831,E2720900016111,さつき学園,大阪府守口市春日町13-26,1,,,34.73133084,135.5624978,
832,E2720900017111,樟風中学校,大阪府守口市西郷通3-14-60,1,,,34.728286892182,135.57340058569,
833,E2720900019111,よつば小学校,大阪府守口市大久保町2-17-26,1,,,34.750618,135.599391,
834,E2720900020111,大久保中学校,大阪府守口市大久保町4-23-46,1,,,34.754520662763,135.59932957493,
835,E2720900044111,東部エリアコミュニティセンター　よつば未来体育室,大阪府守口市大久保町5-3-48,1,,,34.751698,135.601316,
836,E2720900018111,東部エリアコミュニティセンター,大阪府守口市大久保町１南27-6,1,,,34.751098,135.596052,
837,E2720900043111,南部エリアコミュニティセンター体育室,大阪府守口市大宮通1-14-9,,,,34.73254,135.575439,
838,E2720900024111,第一中学校,大阪府守口市竹町12-29,1,,,34.7378693,135.5609626,
839,E2720900025111,さくら小学校,大阪府守口市東光町2-1-4,1,,,34.73140033649,135.56806217969,
840,E2720900026111,藤田小学校,大阪府守口市藤田町1-58-18,1,,,34.74941667726,135.59412506678,
841,E2720900027111,大阪国際大学,大阪府守口市藤田町6-21-57,,,,34.747833,135.603486,
842,E2720900028111,錦中学校,大阪府守口市南寺方東通4-1-31,1,,,34.721211052264,135.57676037404,
843,E2720900030111,八雲中学校,大阪府守口市八雲西町3-5-21,1,,,34.747756872076,135.5647478551,
844,E2720900031111,八雲小学校,大阪府守口市八雲西町4-31-31,1,,,34.750066642062,135.56740344717,
845,E2720900032111,守口東高等学校,大阪府守口市八雲中町2-1-32,1,,,34.74479037,135.5685785,
846,E2720900033111,八雲東小学校,大阪府守口市八雲東町2-77-7,1,,,34.747374446622,135.57747710345,
847,E2720900035111,守口小学校,大阪府守口市八島町13-40,1,,,34.741085686771,135.56531911522,
848,E2720900036111,西部コミュニティセンター,大阪府守口市文園町8-8,1,,,34.72977561,135.5569315,
849,E2721700001111,松原北小学校,大阪府松原市阿保1-16-3,,,,34.57936,135.551605,
850,E2721700003121,市立松寿苑,大阪府松原市阿保2-28-1,,,要配慮者,34.582746,135.553829,
851,E2721700005111,松原市民道夢館,大阪府松原市阿保4-210-7,,,,34.580765,135.556857,
852,E2721700006111,恵我南小学校,大阪府松原市一津屋1-10-9,,,,34.578058,135.569304,
853,E2721700007111,松原第七中学校,大阪府松原市一津屋2-1-9,,,,34.580321,135.567248,
854,E2721700008121,第７保育所,大阪府松原市一津屋3-4-32,,,要配慮者,34.579325477708,135.56930445435,
855,E2721700009111,松原第六中学校,大阪府松原市岡1-340,,,,34.563956,135.553471,
856,E2721700011111,松原南小学校,大阪府松原市岡4-1-5,,,,34.563305,135.558579,
857,E2721700012111,松原南コミュニティ消防センター,大阪府松原市岡4-1-63,,,,34.562994,135.557905,
858,E2721700013111,松原南コミュニティセンター,大阪府松原市岡5-11-19,,,,34.560943975663,135.55732296108,
859,E2721700015121,市立松南苑,大阪府松原市岡6-5-37,,,要配慮者,34.560185,135.554918,
860,E2721700017111,学校法人阪南大学高等学校,大阪府松原市河合2-10-65,,,,34.570259,135.544186,
861,E2721700018111,河合小学校,大阪府松原市河合2-405-1,,,,34.568801,135.543345,
862,E2721700020121,市立高見苑,大阪府松原市高見の里5-458-2,,,要配慮者,34.572458,135.547755,
863,E2721700021111,松原第二中学校,大阪府松原市三宅西2-12-1,,,,34.587723,135.544501,
864,E2721700022111,三宅小学校,大阪府松原市三宅中2-14-21,,,,34.587702,135.553942,
865,E2721700023111,三宅コミュニティ消防センター,大阪府松原市三宅中2-19-12,,,,34.588155,135.554492,
866,E2721700024111,市立三宅公民館,大阪府松原市三宅中3-17-15,,,,34.588398,135.556459,
867,E2721700026111,大阪府立松原高等学校,大阪府松原市三宅東3-4-1,,,,34.590684,135.562016,
868,E2721700027111,松原東小学校,大阪府松原市柴垣2-23-1,,,,34.568366,135.562681,
869,E2721700029111,松原市民ふるさとぴあプラザ,大阪府松原市上田7-11-19,,,,34.572378,135.559326,
870,E2721700030121,第３保育所,大阪府松原市上田7-11-34,,,要配慮者,34.572579125049,135.5591437579,
871,E2721700031111,大阪府立生野高等学校,大阪府松原市新堂1-552,,,,34.572242,135.553428,
872,E2721700032121,松原市総合福祉会館,大阪府松原市新堂1-589-6,,,要配慮者,34.571994,135.551416,
873,E2721700033111,松原中学校,大阪府松原市新堂1-604-1,,,,34.573228,135.554086,
874,E2721700034112,松原小学校,大阪府松原市新堂2-683-2,,,,34.572097,135.556412,
875,E2721700034111,市立中央公民館,大阪府松原市新堂2-683-2,,,,34.572247,135.55675,
876,E2721700035111,松原西小学校,大阪府松原市新堂5-57,,,,34.566699,135.54942,
877,E2721700036111,大阪府立大塚高等学校,大阪府松原市西大塚2-1005,,,,34.569171,135.56611,
878,E2721700037111,松原コミュニティ消防センター,大阪府松原市西野々1-4-25,,,,34.575591,135.563294,
879,E2721700039111,恵我コミュニティ消防センター,大阪府松原市大堀3-19-11,,,,34.588861,135.574357,
880,E2721700039121,市立恵寿苑,大阪府松原市大堀3-19-11,,,要配慮者,34.588804,135.574133,
881,E2721700040111,恵我小学校,大阪府松原市大堀3-4-17,,,,34.590386,135.572271,
882,E2721700043121,第４保育所,大阪府松原市天美我堂3-124-10,,,要配慮者,34.582554,135.524554,
883,E2721700044111,松原第五中学校,大阪府松原市天美我堂3-124-2,,,,34.581676,135.524993,
884,E2721700045111,市立天美公民館,大阪府松原市天美西1-18-28,,,,34.588405,135.529408,
885,E2721700048111,天美西小学校,大阪府松原市天美西6-238-1,,,,34.589305,135.525476,
886,E2721700049111,天美北小学校,大阪府松原市天美東4-240-1,,,,34.591615,135.539595,
887,E2721700050111,学校法人阪南大学本キャンパス,大阪府松原市天美東5-4-33,,,,34.591368,135.534754,
888,E2721700051121,市立弁天苑,大阪府松原市天美東7-85,,,要配慮者,34.588591891006,135.53474516218,
889,E2721700052111,天美コミュニティ消防センター,大阪府松原市天美東8-12-20,,,,34.587873,135.531134,
890,E2721700053111,天美小学校,大阪府松原市天美東8-12-22,,,,34.588207,135.531893,
891,E2721700056121,市立天美荘,大阪府松原市天美東9-12-7,,,要配慮者,34.589239,135.530875,
892,E2721700057111,学校法人阪南大学南キャンパス,大阪府松原市天美南1-108-1,,,,34.584724,135.541941,
893,E2721700058111,天美南小学校,大阪府松原市天美南1-108-3,,,,34.585766,135.542208,
894,E2721700059111,四つ葉幼稚園,大阪府松原市天美南4-276-1,,,,34.58105,135.536504,
895,E2721700062121,市立保健センター,大阪府松原市田井城1-1-40,,,要配慮者,34.577873,135.549989,
896,E2721700063111,松原市文化会館,大阪府松原市田井城1-3-11,,,,34.577819,135.549409,
897,E2721700063112,市立松原公民館,大阪府松原市田井城1-3-11,,,,34.577828,135.549291,
898,E2721700064121,まつばらテラス（輝）,大阪府松原市田井城3-104-2,,,要配慮者,34.578362471401,135.54837498036,
899,E2721700065111,中央小学校,大阪府松原市田井城3-72-2,,,,34.579467,135.547032,
900,E2721700068111,松原第三中学校,大阪府松原市東新町3-1-23,,,,34.578144,135.543394,
901,E2721700070111,市立新町公民館,大阪府松原市南新町1-15-2,,,,34.577053,135.537708,
902,E2721700071111,布忍小学校,大阪府松原市南新町1-6-17,,,,34.575859,135.535889,
903,E2721700072121,市立新町福寿苑,大阪府松原市南新町1-6-22,,,要配慮者,34.575919,135.53542,
904,E2721700073111,はーとビュー（人権交流センター）,大阪府松原市南新町2-141-1,,,,34.571983,135.53822,
905,E2721700075121,市立つるかめ苑,大阪府松原市南新町3-3-12,,,要配慮者,34.573991,135.536336,
906,E2721700076121,第２保育所,大阪府松原市南新町3-7-30,,,要配慮者,34.573189955061,135.53643451436,
907,E2721700077111,松原第四中学校,大阪府松原市別所3-19-28,,,,34.584951,135.567189,
908,E2721500077121,社会福祉法人東和福祉会　特別養護老人ホーム寝屋川苑,大阪府寝屋川市宇谷町1-36,,,高齢者,34.767296006427,135.64501168145,
909,E2721500001111,市立宇谷小学校,大阪府寝屋川市宇谷町8-1,1,,,34.766333256481,135.6454258406,
910,E2721500002111,市立南小学校,大阪府寝屋川市下木田町16-15,1,,,34.749369670422,135.62294487381,
911,E2721500003111,市立市民体育館,大阪府寝屋川市下木田町16-16,1,,,34.748294045418,135.62249633721,
912,E2721500004111,市立南コミュニティセンター,大阪府寝屋川市下木田町16-50,1,,,34.748591567918,135.62160316159,
913,E2721500065111,府立西寝屋川高等学校,大阪府寝屋川市葛原2-19-1,1,,,34.771335326866,135.60181974373,
914,E2721500006111,市立西コミュニティセンター,大阪府寝屋川市葛原2-7-1,1,,,34.770495402879,135.6054366237,
915,E2721500007111,市立エスポアール,大阪府寝屋川市錦町21-3,1,,,34.760732570779,135.6148920789,
916,E2721500008111,市立成美小学校,大阪府寝屋川市錦町23-45,1,,,34.759866253213,135.61456778162,
917,E2721500076121,社会福祉法人真清福祉会　特別養護老人ホームロイヤルライフ天寿苑,大阪府寝屋川市御幸東町9-2,,,高齢者,34.752451046568,135.60671651762,
918,E2721500078121,社会福祉法人香西会　特別養護老人ホーム香西園,大阪府寝屋川市香里西之町14-24,,,高齢者,34.789209294133,135.6272773578,
919,E2721500010111,市立第一中学校,大阪府寝屋川市高宮新町32-1,1,,,34.762340495663,135.63168635977,
920,E2721500011111,市立東コミュニティセンター,大阪府寝屋川市高宮新町32-2,1,,,34.761333656175,135.6311956724,
921,E2721500075121,社会福祉法人いわき会　特別養護老人ホーム和の里,大阪府寝屋川市高柳1-1-15,,,高齢者,34.765001612727,135.61301043099,
922,E2721500012111,市立西小学校,大阪府寝屋川市高柳3-1-27,1,,,34.765359320947,135.61048440479,
923,E2721500013111,市立第九中学校,大阪府寝屋川市高柳4-16-16,1,,,34.761287694794,135.60818135789,
924,E2721500014111,市立啓明小学校,大阪府寝屋川市高柳6-3-1,1,,,34.759850397806,135.60384887751,
925,E2721500015111,市立国松緑丘小学校,大阪府寝屋川市国松町47-1,1,,,34.770567666265,135.63776257395,
926,E2721500016111,市立和光小学校,大阪府寝屋川市黒原橘町30-1,1,,,34.756239652141,135.60276527634,
927,E2721500017111,市立三井小学校,大阪府寝屋川市三井が丘3-7-3,1,,,34.772434119757,135.64285429358,
928,E2721500018111,同志社香里中学校・高等学校,大阪府寝屋川市三井南町15-1,1,,,34.772822957338,135.63597183697,
929,E2721500081121,社会福祉法人香西会　特別養護老人ホーム香西会テレサ,大阪府寝屋川市讃良西町7-45,,,高齢者,34.742445053509,135.62113377782,
930,E2721500019111,市立第七中学校,大阪府寝屋川市讃良東町1-1,1,,,34.748706935046,135.62570985743,
931,E2721500073121,社会福祉法人広成福祉会　特別養護老人ホ－ム香里寿苑,大阪府寝屋川市寿町32-20,,,高齢者,34.781906928561,135.62863896324,
932,E2721500020111,市立北小学校,大阪府寝屋川市寿町57-29,1,,,34.782746125878,135.62560446033,
933,E2721500021111,市立中央小学校,大阪府寝屋川市初町1-25,1,,,34.763775365105,135.62584249888,
934,E2721500022111,大阪電気通信大学,大阪府寝屋川市初町18-8,1,,,34.760360625914,135.62652910195,
935,E2721500066121,社会福祉法人讃良福祉会　ワークセンター小路,大阪府寝屋川市小路南町8-2,,,障害者,34.751096966913,135.63632824235,
936,E2721500023111,市立西北コミュニティセンター,大阪府寝屋川市松屋町20-30,1,,,34.785223096474,135.62558400954,
937,E2721500024111,市立西南コミュニティセンター,大阪府寝屋川市上神田1-30-1,1,,,34.756577311727,135.6121228492,
938,E2721500080121,社会福祉法人いわき会　特別養護老人ホーム神田の里,大阪府寝屋川市上神田1-31-1,,,高齢者,34.755951,135.612463,
939,E2721500025111,市立第五中学校,大阪府寝屋川市上神田2-8-1,1,,,34.755358039447,135.6078053342,
940,E2721500069121,社会福祉法人光輝会　隆光学園,大阪府寝屋川市寝屋南2-1694,,,障害者,34.767354297532,135.65364462387,
941,E2721500026111,府立北かわち皐が丘高等学校,大阪府寝屋川市寝屋北町1-1,1,,,34.773679770008,135.6553332551,
942,E2721500063121,社会福祉法人聖森会　はたのさと,大阪府寝屋川市秦町29-4,,,障害者,34.763871360996,135.63060283486,
943,E2721500082121,社会福祉法人香西会　香西会スバル,大阪府寝屋川市秦町3-12,,,高齢者,34.76670376852,135.63309115177,
944,E2721500027111,市立市民会館,大阪府寝屋川市秦町41-1,1,,,34.762884161222,135.63148214575,
945,E2721500071121,社会福祉法人月の輪学院　月の輪学院,大阪府寝屋川市仁和寺本町2-3-3,,,障害者,34.770002770421,135.59589357785,
946,E2721500028111,市立第五小学校,大阪府寝屋川市成田西町2-3,1,,,34.777077206017,135.63827253236,
947,E2721500029111,市立東北コミュニティセンター,大阪府寝屋川市成田町3-3,1,,,34.777338894347,135.63973085075,
948,E2721500030111,市立第六中学校,大阪府寝屋川市成田町3-6,1,,,34.777909677251,135.64110188724,
949,E2721500005122,社会福祉法人百丈山合掌会　特別養護老人ホーム合掌荘,大阪府寝屋川市成田東が丘28-7,,,高齢者,34.777931097838,135.64668117417,
950,E2721500005121,社会福祉法人百丈山合掌会　パゴダの丘作業所合掌園,大阪府寝屋川市成田東が丘28-7,,,障害者,34.776675330822,135.6469601239,
951,E2721500031111,市立第十中学校,大阪府寝屋川市成田南町20-7,1,,,34.775291296575,135.64531687423,
952,E2721500032111,市立石津小学校,大阪府寝屋川市石津元町8-1,1,,,34.776598086739,135.62013668868,
953,E2721500087121,社会福祉法人たちばな会　特別養護老人ホーム寝屋川石津園,大阪府寝屋川市石津中町35-8,,,高齢者,34.777125,135.621017,
954,E2721500064121,社会福祉法人聖森会　かわかつのさと,大阪府寝屋川市川勝町6-14,,,障害者,34.768122143626,135.63589659218,
955,E2721500033111,市立地域交流センター（アルカスホール）,大阪府寝屋川市早子町12-21,1,,,34.763892150378,135.6229475253,
956,E2721500034111,市立東小学校,大阪府寝屋川市太秦元町2-1,1,,,34.761433117541,135.63384457231,
957,E2721500035112,市立望が丘地域交流スペース,大阪府寝屋川市打上高塚町4-1,1,,,34.755102,135.649839,
958,E2721500035113,市立望が丘小学校・中学校,大阪府寝屋川市打上高塚町4-1,1,,,34.755102,135.649839,
959,E2721500079121,社会福祉法人東香会　特別養護老人ホームいちょう園,大阪府寝屋川市打上南町14-1,,,高齢者,34.753536569545,135.64934115491,
960,E2721500062121,社会福祉法人ねやのさと福祉会　りんごの森,大阪府寝屋川市大谷町11-1,,,障害者,34.764836650475,135.65984988657,
961,E2721500061121,社会福祉法人ねやのさと福祉会　オレンジの森,大阪府寝屋川市大谷町12-3,,,障害者,34.764210873171,135.66062236277,
962,E2721500037121,社会福祉法人療育・自立センター　すばる・北斗福祉作業所,大阪府寝屋川市大谷町7-1,1,,障害者,34.763082568933,135.65879388342,
963,E2721500037111,すばる・北斗福祉作業所（療育・自立センター）,大阪府寝屋川市大谷町7-1,1,,,34.76313324895,135.65860344658,
964,E2721500072121,医療法人長尾会　長尾会クリニック,大阪府寝屋川市大谷町7-3,,,障害者,34.762880640478,135.6585232233,
965,E2721500038111,市立池田小学校,大阪府寝屋川市池田2-1-7,1,,,34.773490284591,135.61678688993,
966,E2721500067121,社会福祉法人療育・自立センター　チャレンジドセンターつばさ,大阪府寝屋川市池田2-9-15,,,障害者,34.776557897352,135.61637753818,
967,E2721500074121,社会福祉法人栄光会　特別養護老人ホーム寝屋川十字の園,大阪府寝屋川市池田3-1-33,,,高齢者,34.77309250545,135.61391787139,
968,E2721500039111,市立桜小学校,大阪府寝屋川市池田新町3-23,1,,,34.773257673808,135.61206696362,
969,E2721500059111,市立池の里市民交流センター,大阪府寝屋川市池田西町24-5,1,,,34.770837172615,135.60846601579,
970,E2721500040111,市立第二中学校,大阪府寝屋川市池田西町27-7,1,,,34.769554377299,135.61085770478,
971,E2721500041111,摂南大学,大阪府寝屋川市池田中町17-8,1,,,34.780025140421,135.61217217211,
972,E2721500068121,社会福祉法人療育・自立センター　つばさ福祉作業所,大阪府寝屋川市池田北町15-9,,,障害者,34.778946044794,135.61606640192,
973,E2721500042111,市立中木田中学校,大阪府寝屋川市中木田町7-1,1,,,34.757939317279,135.62170198528,
974,E2721500043111,市立点野小学校,大阪府寝屋川市点野5-26-1,1,,,34.772481371166,135.6002628405,
975,E2721500044111,市立第八中学校,大阪府寝屋川市点野5-28-1,1,,,34.771408215345,135.59994054585,
976,E2721500070121,Ｌ－Ｌ－ＷＯＲＬＤ株式会社　えるちゃん,大阪府寝屋川市点野5-4-15,,,障害者,34.775670661835,135.6021092798,
977,E2721500045111,市立田井小学校,大阪府寝屋川市田井西町9-1,1,,,34.776840396101,135.62571147927,
978,E2721500046111,市立第三中学校,大阪府寝屋川市田井町17-3,1,,,34.779077130687,135.6297107268,
979,E2721500088121,社会福祉法人いわき会　特別養護老人ホーム東神田の里,大阪府寝屋川市東神田町19-1,,,高齢者,34.7558273159148,135.6135451382583,
980,E2721500047111,市立神田小学校,大阪府寝屋川市東神田町27-1,1,,,34.754831747864,135.6149760721,
981,E2721500048111,市立楠根小学校,大阪府寝屋川市楠根南町21-1,1,,,34.751526720476,135.63094811712,
982,E2721500049111,市立友呂岐中学校,大阪府寝屋川市日新町2-25,1,,,34.781059855415,135.62401823201,
983,E2721500051111,香里ヌヴェール学院（旧　大阪聖母女学院）,大阪府寝屋川市美井町18-10,1,,,34.7810243602,135.63620577008,
984,E2721500053111,市立木屋小学校,大阪府寝屋川市豊里町19-22,1,,,34.784830739345,135.61969310132,
985,E2721500054111,市立堀溝小学校,大阪府寝屋川市堀溝3-10-8,1,,,34.738389065298,135.62568412763,
986,E2721500055111,府立寝屋川高等学校,大阪府寝屋川市本町15-64,1,,,34.764815915387,135.62591677444,
987,E2721500056111,総合教育研修センター,大阪府寝屋川市明徳1-1-1,1,,,34.777018403588,135.64951401582,
988,E2721500057111,学び館　東障害福祉センター,大阪府寝屋川市明和1-13-23,1,,,34.752086574498,135.64244389427,
989,E2721500058111,市立木田小学校,大阪府寝屋川市木田元宮1-17-1,1,,,34.752346786129,135.62137231854,
990,E2720500001111,青少年クリエイティブセンター,大阪府吹田市岸部中1-16-1,,,,34.774834958333,135.53209011111,
991,E2720500002111,交流活動館,大阪府吹田市岸部中1-22-2,,,,34.774573619444,135.53305973889,
992,E2720500003121,岸部中グループホーム,大阪府吹田市岸部中1-26-1-102,,,要配慮者のうち、市が特定した者,34.775477,135.535427,
993,E2720500004112,岸部第一小学校,大阪府吹田市岸部中2-19-1,1,,,34.777074780556,135.53603499722,
994,E2720500005121,特別養護老人ホームあすーる吹田,大阪府吹田市岸部中2-7-12,,,要配慮者のうち、市が特定した者,34.775396677849,135.53272974503,
995,E2720500006111,岸一地区公民館,大阪府吹田市岸部中3-20-1,,,,34.779426702778,135.53578363056,
996,E2720500007111,岸部市民センター,大阪府吹田市岸部南1-4-8,1,,,34.775809094444,135.54486746944,
997,E2720500010111,第二中学校,大阪府吹田市岸部北1-21-1,1,,,34.780655263889,135.52710360833,
998,E2720500011111,岸二地区集会所,大阪府吹田市岸部北4-12-1,1,,,34.782757854989,135.52891359003,
999,E2720500011112,岸部第二小学校,大阪府吹田市岸部北4-12-1,1,,,34.782376205556,135.52915452222,
1000,E2720500012111,岸二地区公民館,大阪府吹田市岸部北4-15-20,,,,34.782182147721,135.52996215732,
1001,E2720500013121,特別養護老人ホーム寿楽荘,大阪府吹田市岸部北4-9-3,,,要配慮者のうち、市が特定した者,34.782045563484,135.52773055942,
1002,E2720500014121,特別養護老人ホーム緑風会イサベル,大阪府吹田市岸部北5-43-10,,,要配慮者のうち、市が特定した者,34.786444931968,135.53153046105,
1003,E2720500016111,吹田第一小学校,大阪府吹田市元町30-35,1,,,34.759931872222,135.52335223889,
1004,E2720500018111,千一地区公民館,大阪府吹田市原町2-12-2,,,,34.77322874885,135.52492988122,
1005,E2720500019121,介護老人福祉施設吹田竜ヶ池ホーム,大阪府吹田市原町3-21-25,,,要配慮者のうち、市が特定した者,34.778926,135.526392,
1006,E2720500020111,吹田高校,大阪府吹田市原町4-24-14,1,,,34.777588708333,135.52807825556,
1007,E2720500021111,古江台中学校,大阪府吹田市古江台1-1-1,1,,,34.808068861111,135.50643025556,
1008,E2720500022111,古江台市民ホール,大阪府吹田市古江台2-10-21,,,,34.816579616667,135.50885123611,
1009,E2720500025111,古江台小学校,大阪府吹田市古江台5-6-1,1,,,34.815502522222,135.50998006944,
1010,E2720500026121,救護施設　千里寮,大阪府吹田市古江台6-2-8,,,要配慮者のうち、市が特定した者,34.807653,135.514753,
1011,E2720500023111,北千里地区公民館,大阪府吹田市古江台４－２－Ｄ7,,,,34.818972136111,135.51021329722,
1012,E2720500027111,東佐井寺幼稚園,大阪府吹田市五月が丘西4-1,1,,,34.786940013889,135.52330029722,
1013,E2720500027112,東佐井寺小学校,大阪府吹田市五月が丘西4-1,1,,,34.786804186111,135.52268479722,
1014,E2720500028111,東佐井寺地区公民館,大阪府吹田市五月が丘西5-1,,,,34.786043444444,135.52292645,
1015,E2720500029111,佐井寺中学校,大阪府吹田市五月が丘南5-1,1,,,34.784275930556,135.52625921944,
1016,E2720500030111,吹田東小学校,大阪府吹田市幸町20-1,1,,,34.767716191667,135.53575256111,
1017,E2720500031111,第五中学校,大阪府吹田市幸町21-1,1,,,34.768302244444,135.53624972778,
1018,E2720500032121,特別養護老人ホームハピネスさんあい,大阪府吹田市幸町22-5,,,要配慮者のうち、市が特定した者,34.769048426748,135.53550620018,
1019,E2720500034112,豊津第一小学校,大阪府吹田市江坂町1-15-42,1,,,34.761424277778,135.49985610556,
1020,E2720500036121,地域密着型特別養護老人ホーム憩～江坂～,大阪府吹田市江坂町2-14-22,,,要配慮者のうち、市が特定した者,34.763026024865,135.49181110186,
1021,E2720500037111,豊津第二小学校,大阪府吹田市江坂町2-5-1,1,,,34.762347144444,135.49497208333,
1022,E2720500038112,江坂大池小学校,大阪府吹田市江坂町3-13-1,1,,,34.766371416667,135.49586526944,
1023,E2720500040112,吹田第三小学校,大阪府吹田市高城町18-39,1,,,34.762382561111,135.53043870278,
1024,E2720500040111,吹田第三幼稚園,大阪府吹田市高城町18-39,1,,,34.762347022222,135.531021975,
1025,E2720500041111,吹三地区公民館,大阪府吹田市高城町19-7,,,,34.761764875,135.53106586667,
1026,E2720500043111,高野台市民ホール,大阪府吹田市高野台1-6-1,,,,34.795230091667,135.51662273889,
1027,E2720500044111,高野台小学校,大阪府吹田市高野台2-16-1,1,,,34.795865566667,135.51566725556,
1028,E2720500045111,千里高校,大阪府吹田市高野台2-17-1,1,,,34.800012880556,135.51492391944,
1029,E2720500046111,高野台中学校,大阪府吹田市高野台4-5-1,1,,,34.791974661111,135.51932448889,
1030,E2720500047111,佐井寺小学校,大阪府吹田市佐井寺3-3-1,1,,,34.786179452778,135.51690365556,
1031,E2720500049111,佐井寺地区公民館,大阪府吹田市佐井寺南が丘1-1,,,,34.781829702778,135.51852855556,
1032,E2720500052121,特別養護老人ホーム青藍荘,大阪府吹田市佐竹台2-3-1,,,要配慮者のうち、市が特定した者,34.791913665086,135.51497409353,
1033,E2720500051111,佐竹台市民ホール,大阪府吹田市佐竹台2-5-1,,,,34.791248572222,135.51485933056,
1034,E2720500055111,佐竹台小学校,大阪府吹田市佐竹台4-12-1,1,,,34.787921730556,135.51522406389,
1035,E2720500057121,吹田特別養護老人ホーム高寿園,大阪府吹田市山手町1-1-1,,,要配慮者のうち、市が特定した者,34.766861337678,135.51480708911,
1036,E2720500058111,山手地区公民館,大阪府吹田市山手町1-6-1,,,,34.766426408333,135.51182409722,
1037,E2720500059111,山手小学校,大阪府吹田市山手町2-15-43,1,,,34.766999938889,135.51118387222,
1038,E2720500061111,山田中学校,大阪府吹田市山田市場15-1,1,,,34.792621505556,135.538820025,
1039,E2720500062111,南山田地区公民館,大阪府吹田市山田市場18-6,,,,34.793090627778,135.53989077222,
1040,E2720500063111,山三地区公民館,大阪府吹田市山田西1-26-2,1,,,34.791038508333,135.52916558056,
1041,E2720500064111,亥の子谷コミュニティセンター,大阪府吹田市山田西1-26-20,1,,,34.7898642,135.52899977222,
1042,E2720500064121,亥の子谷デイサービスセンター,大阪府吹田市山田西1-26-20,1,,要配慮者のうち、市が特定した者,34.789857613198,135.52908165511,
1043,E2720500068121,特別養護老人ホームいのこの里,大阪府吹田市山田西1-26-27,,,要配慮者のうち、市が特定した者,34.790438541734,135.52908792866,
1044,E2720500065112,山田第三小学校,大阪府吹田市山田西1-4-1,1,,,34.792931927778,135.53178533889,
1045,E2720500069111,西山田小学校,大阪府吹田市山田西2-10-1,1,,,34.795557372222,135.524466225,
1046,E2720500070111,西山田中学校,大阪府吹田市山田西2-11-1,1,,,34.796532802778,135.52302466667,
1047,E2720500072111,西山田地区公民館,大阪府吹田市山田西2-5-1,,,,34.794833055556,135.52871031667,
1048,E2720500073111,夢つながり未来館,大阪府吹田市山田西4-2-43,,,,34.804615169444,135.51611011667,
1049,E2720500074111,山田ふれあい文化センター,大阪府吹田市山田東1-28-9,1,,,34.797354488889,135.53294713333,
1050,E2720500078121,グループホームたんぽぽ,大阪府吹田市山田東2-31-5,,,要配慮者のうち、市が特定した者,34.801362837878,135.52756041037,
1051,E2720500075111,山一地区公民館,大阪府吹田市山田東2-33-1,,,,34.799254511111,135.52888411667,
1052,E2720500076111,山田第一小学校,大阪府吹田市山田東2-33-2,1,,,34.799821669444,135.52868440278,
1053,E2720500079111,山田高校,大阪府吹田市山田東3-28-1,1,,,34.801288175,135.52884214444,
1054,E2720500080111,山田東中学校,大阪府吹田市山田東4-33-1,1,,,34.803101297222,135.52777165,
1055,E2720500081111,北山田地区公民館,大阪府吹田市山田東4-43-20,1,,,34.804992719444,135.52407998056,
1056,E2720500083111,山五地区公民館,大阪府吹田市山田南45-13,1,,,34.788002308333,135.535985,
1057,E2720500085112,北山田小学校,大阪府吹田市山田北1-1,1,,,34.808207333333,135.52082408056,
1058,E2720500085111,北山田地区集会所,大阪府吹田市山田北1-1,1,,,34.808629225,135.52011329722,
1059,E2720500086111,武道館（洗心館）,大阪府吹田市山田北2-1,,,,34.809071402778,135.52045186944,
1060,E2720500087121,特別養護老人ホームみらい,大阪府吹田市山田北5-13,,,要配慮者のうち、市が特定した者,34.809192949948,135.51911442284,
1061,E2720500088121,介護老人保健施設　千里,大阪府吹田市山田北5-14,,,要配慮者のうち、市が特定した者,34.808800364927,135.51913347251,
1062,E2720500089121,くらしの支援センター　みんなの木,大阪府吹田市寿町2-18-1,,,要配慮者のうち、市が特定した者,34.753062,135.520795,
1063,E2720500091121,総合福祉会館,大阪府吹田市出口町19-2,,,要配慮者のうち、市が特定した者,34.76442,135.514779,
1064,E2720500092111,男女共同参画センター・教育センター,大阪府吹田市出口町2-1,,,,34.764244302778,135.51868708056,
1065,E2720500093111,片山市民体育館,大阪府吹田市出口町31-2,,,,34.7650833,135.51523045556,
1066,E2720500094121,介護老人福祉施設ちくりんの里,大阪府吹田市春日2-25-10,,,要配慮者のうち、市が特定した者,34.785212739388,135.49358589855,
1067,E2720500095112,千里新田小学校,大阪府吹田市春日4-10-1,1,,,34.784643563889,135.50001125278,
1068,E2720500096111,吹田市立勤労者会館,大阪府吹田市昭和町12-1,1,,,34.762428038889,135.52724097222,
1069,E2720500097111,東山田地区公民館,大阪府吹田市新芦屋上32-1,,,,34.803498922222,135.54995104167,
1070,E2720500098111,吹田東地区公民館,大阪府吹田市吹東町3-6,,,,34.766398577778,135.53584533889,
1071,E2720500099111,豊一市民センター,大阪府吹田市垂水町1-53-7,1,,,34.7650108,135.49948719167,
1072,E2720500100111,豊一地区公民館,大阪府吹田市垂水町3-15-35,,,,34.761932091667,135.50501118056,
1073,E2720500101111,豊津中学校,大阪府吹田市垂水町3-32-50,1,,,34.75831555,135.50413688056,
1074,E2720500102111,青山台市民ホール,大阪府吹田市青山台2-1-20,,,,34.821846766667,135.50542441389,
1075,E2720500103111,青山台小学校,大阪府吹田市青山台2-5-1,1,,,34.821988966667,135.50407366944,
1076,E2720500104111,青山台中学校,大阪府吹田市青山台4-2-1,1,,,34.822446702778,135.50843058611,
1077,E2720500106111,千里丘中学校,大阪府吹田市青葉丘南15-1,1,,,34.803676041667,135.54808567222,
1078,E2720500107111,東山田幼稚園,大阪府吹田市青葉丘南15-10,1,,,34.804840663889,135.54856031111,
1079,E2720500107112,東山田小学校,大阪府吹田市青葉丘南15-10,1,,,34.805332575,135.548926925,
1080,E2720500108111,吹田東高校,大阪府吹田市青葉丘南16-1,1,,,34.805216952778,135.54718210556,
1081,E2720500109111,山田第二小学校,大阪府吹田市千里丘下19-1,1,,,34.793520558333,135.55024567222,
1082,E2720500110111,山二地区公民館,大阪府吹田市千里丘下23-19,,,,34.794957213889,135.54869057778,
1083,E2720500111111,千里丘市民センター,大阪府吹田市千里丘上14-37,,,,34.795228997222,135.55121556667,
1084,E2720500112121,介護老人保健施設　吹田徳州苑,大阪府吹田市千里丘西21-1,,,要配慮者のうち、市が特定した者,34.797346673265,135.54192675409,
1085,E2720500113112,南山田小学校,大阪府吹田市千里丘西9-1,1,,,34.794366058333,135.54343521111,
1086,E2720500116121,特別養護老人ホーム　メヌホット千里丘,大阪府吹田市千里丘北1-3-2,,,要配慮者のうち、市が特定した者,34.799553613554,135.54428709802,
1087,E2720500114111,千里丘北小学校,大阪府吹田市千里丘北1-30,1,,,34.799928,135.544885,
1088,E2720500117112,千里第二小学校,大阪府吹田市千里山松が丘25-1,1,,,34.779043488889,135.50928610278,
1089,E2720500118111,シルバーワークプラザ,大阪府吹田市千里山松が丘26-23,,,,34.779705075,135.50882113333,
1090,E2720500119111,千三地区公民館,大阪府吹田市千里山西1-12-1,1,,,34.772134497222,135.50438219167,
1091,E2720500121111,千里第三小学校,大阪府吹田市千里山西2-13-1,1,,,34.772643258333,135.50003118333,
1092,E2720500122111,第一中学校,大阪府吹田市千里山西2-2-1,1,,,34.772612463889,135.50220765556,
1093,E2720500123111,千里新田地区公民館,大阪府吹田市千里山西6-30-41,,,,34.784241997222,135.50430673056,
1094,E2720500124121,地域密着型特別養護老人ホーム　緑,大阪府吹田市千里山竹園1-50-18,,,要配慮者のうち、市が特定した者,34.783309431659,135.49927244196,
1095,E2720500125111,千二地区公民館,大阪府吹田市千里山東2-19-23,1,,,34.776896205556,135.50704827222,
1096,E2720500126111,千里山コミュニティセンター,大阪府吹田市千里山霧が丘22-1,,,,34.779044977647,135.50597541636,
1097,E2720500127121,障害者支援交流センター,大阪府吹田市千里万博公園12-27,,,要配慮者のうち、市が特定した者,34.81119007219,135.51714528333,
1098,E2720500128111,資源リサイクルセンター（くるくるプラザ）,大阪府吹田市千里万博公園4-3,,,,34.808409247222,135.54000905,
1099,E2720500129121,特別養護老人ホームスローライフ千里,大阪府吹田市千里万博公園6-8,,,要配慮者のうち、市が特定した者,34.814762103021,135.53550837828,
1100,E2720500131111,文化会館（メイシアター）,大阪府吹田市泉町2-29-1,1,,,34.759737833333,135.51530830278,
1101,E2720500132111,吹田第二小学校,大阪府吹田市泉町3-15-18,1,,,34.758690638889,135.51084153056,
1102,E2720500133111,吹二地区公民館,大阪府吹田市泉町3-15-29,1,,,34.758510647222,135.51024076111,
1103,E2720500135111,竹見台中学校,大阪府吹田市竹見台1-3-1,1,,,34.795656561111,135.50408683333,
1104,E2720500136111,千里たけみ小学校,大阪府吹田市竹見台3-3-1,1,,,34.795605705556,135.50171785556,
1105,E2720500137111,竹見台市民ホール,大阪府吹田市竹見台3-5-3,,,,34.795113525,135.500657675,
1106,E2720500139111,片山中学校,大阪府吹田市竹谷町35-1,1,,,34.778296816667,135.52102919444,
1107,E2720500140111,総合運動場,大阪府吹田市竹谷町37-1,1,,,34.779763338889,135.52260709167,
1108,E2720500141111,第三中学校,大阪府吹田市中の島町3-51,1,,,34.752065066667,135.52276159167,
1109,E2720500142111,片山地区公民館,大阪府吹田市朝日が丘町15-1,,,,34.769009566667,135.519179475,
1110,E2720500143111,片山幼稚園,大阪府吹田市朝日が丘町16-1,1,,,34.770123597222,135.51912168889,
1111,E2720500143112,片山小学校,大阪府吹田市朝日が丘町16-1,1,,,34.769918616667,135.51880283333,
1112,E2720500144111,千里市民センター,大阪府吹田市津雲台1-2-1,,,,34.793076316166,135.50832667248,
1113,E2720500144112,南千里地区公民館,大阪府吹田市津雲台1-2-1,,,,34.79308512688,135.50828912155,
1114,E2720500146111,津雲台市民ホール,大阪府吹田市津雲台4-1-1,,,,34.800786325,135.50792727222,
1115,E2720500147111,津雲台小学校,大阪府吹田市津雲台4-7-1,1,,,34.802393666667,135.50968378056,
1116,E2720500148121,介護老人保健施設　つくも,大阪府吹田市津雲台4-7-2,,,要配慮者のうち、市が特定した者,34.803267,135.511299,
1117,E2720500149111,桃山台小学校,大阪府吹田市桃山台1-5-1,1,,,34.791856694444,135.50338834444,
1118,E2720500151111,桃山台市民ホール,大阪府吹田市桃山台2-5-5,,,,34.793174858333,135.50140903889,
1119,E2720500152111,南千里中学校,大阪府吹田市桃山台4-2-1,1,,,34.787607402778,135.50034311667,
1120,E2720500154111,藤白台市民ホール,大阪府吹田市藤白台2-9-1,,,,34.816634071256,135.51705016658,
1121,E2720500155121,藤白台デイサービスセンター,大阪府吹田市藤白台2-9-1-115,,,要配慮者のうち、市が特定した者,34.816874414517,135.51666206474,
1122,E2720500156111,藤白台小学校,大阪府吹田市藤白台3-3-1,1,,,34.819669627778,135.51549980556,
1123,E2720500158111,自然体験交流センター,大阪府吹田市藤白台5-20-1,,,,34.827417752778,135.509915125,
1124,E2720500160111,北千里市民体育館,大阪府吹田市藤白台5-5-1,,,,34.827465236111,135.50732058611,
1125,E2720500161111,北千里高校,大阪府吹田市藤白台5-6-1,1,,,34.828650641667,135.50688282222,
1126,E2720500163121,内本町デイサービスセンター,大阪府吹田市内本町2-2-12,1,,要配慮者のうち、市が特定した者,34.758468566693,135.52574170261,
1127,E2720500163111,内本町コミュニティセンター,大阪府吹田市内本町2-2-12,1,,,34.758338797222,135.52583451111,
1128,E2720500164111,吹一地区公民館,大阪府吹田市内本町3-19-21,,,,34.755060280556,135.52430638611,
1129,E2720500168121,地域密着型特別養護老人ホーム　陽翠苑,大阪府吹田市南吹田1-1-22,,,要配慮者のうち、市が特定した者,34.753215,135.512888,
1130,E2720500172111,吹田南地区公民館,大阪府吹田市南吹田4-18-15,,,,34.749551291225,135.50509721909,
1131,E2720500174111,吹田南小学校,大阪府吹田市南吹田5-12-1,1,,,34.75216265,135.50390061944,
1132,E2720500175111,吹六地区公民館,大阪府吹田市南清和園町40-1,,,,34.753298613889,135.515572,
1133,E2720500176111,吹田第六小学校,大阪府吹田市南清和園町43-1,1,,,34.753665216667,135.51477901389,
1134,E2720500177121,吹田市介護老人保健施設,大阪府吹田市片山町2-13-25,,,要配慮者のうち、市が特定した者,34.769053967804,135.51702988971,
1135,E2720500178111,千里第一小学校,大阪府吹田市片山町4-32-10,1,,,34.769390225,135.52658430278,
1136,E2720500179111,第六中学校,大阪府吹田市穂波町16-1,1,,,34.755596813889,135.50996195,
1137,E2720500186111,豊二地区公民館,大阪府吹田市豊津町47-1,,,,34.758621930556,135.48967400833,
1138,E2720500187111,豊津西中学校,大阪府吹田市豊津町6-1,1,,,34.760432355556,135.494513825,
1139,E2720500188111,目俵市民体育館,大阪府吹田市目俵町1-11,1,,,34.766348769444,135.53176436389,
1140,E2722400002111,味生公民館,大阪府摂津市一津屋1-16-13,1,,,34.76146877,135.5676449,
1141,E2722400005111,味生小学校,大阪府摂津市一津屋2-19-1,1,,,34.7600908,135.5649292,
1142,E2722400008111,第三中学校,大阪府摂津市学園町1-3-1,1,,,34.78498346,135.5590044,
1143,E2722400009111,大阪府立摂津高等学校,大阪府摂津市学園町1-5-1,1,,,34.78734797,135.5602616,
1144,E2722400010111,三宅柳田小学校,大阪府摂津市学園町2-9-1,1,,,34.7841749,135.5602615,
1145,E2722400014121,せっつ桜苑,大阪府摂津市桜町1-1-11,,,要配慮者,34.788458766674,135.5601435852,
1146,E2722400015121,みきの路,大阪府摂津市桜町2-1-7,,,要配慮者,34.788099622615,135.56312677783,
1147,E2722400017111,味舌小学校,大阪府摂津市三島2-13-38,1,,,34.77653154,135.556285,
1148,E2722400019111,摂津小学校,大阪府摂津市三島3-14-60,1,,,34.78141825,135.5557756,
1149,E2722400020111,学校法人浪工学園星翔高等学校知新館,大阪府摂津市三島3-5-36,1,,,34.779058631779,135.55478883707,
1150,E2722400024111,味舌体育館,大阪府摂津市正雀1-1-6,1,,,34.778545209795,135.55158846485,
1151,E2722400027111,正雀体育館,大阪府摂津市正雀4-2-3,1,,,34.77444015,135.5557616,
1152,E2722400028111,市民図書館,大阪府摂津市正雀4-9-25,1,,,34.77239549,135.5531737,
1153,E2722400029111,安威川公民館,大阪府摂津市正雀4-9-28,1,,,34.77251888,135.5533829,
1154,E2722400030111,正雀市民ルーム,大阪府摂津市正雀本町1-11-1,1,,,34.775248139,135.5483366479,
1155,E2722400032111,千里丘小学校,大阪府摂津市千里丘3-15-4,1,,,34.789750111719,135.54439458836,
1156,E2722400033111,千里丘公民館,大阪府摂津市千里丘3-9-47,1,,,34.78753712,135.547166,
1157,E2722400035111,子育て総合支援センター遊戯室（旧三宅小学校）,大阪府摂津市千里丘東1-17-46,1,,,34.79274529,135.5549292,
1158,E2722400037121,摂津いやし園,大阪府摂津市鳥飼下1-13-7,1,,要配慮者,34.776641858979,135.58765405259,
1159,E2722400038111,鳥飼小学校,大阪府摂津市鳥飼下1-7-1,1,,,34.77757674,135.5889976,
1160,E2722400041111,鳥飼東小学校,大阪府摂津市鳥飼上3-4-51,1,,,34.786194,135.592499,
1161,E2722400042121,ふれあいの里,大阪府摂津市鳥飼上5-2-8,,,要配慮者,34.792727436067,135.59485172992,
1162,E2722400043111,第五中学校,大阪府摂津市鳥飼新町1-10-1,1,,,34.78622106,135.5874437,
1163,E2722400045111,鳥飼西小学校,大阪府摂津市鳥飼西3-1-1,1,,,34.76931493,135.5801303,
1164,E2722400046121,とりかい白鷺園,大阪府摂津市鳥飼中1-19-8,,,要配慮者,34.779337434277,135.5918460218,
1165,E2722400050111,第二中学校,大阪府摂津市鳥飼八防2-1-1,1,,,34.77093281,135.575225,
1166,E2722400051121,摂津特養ひかり,大阪府摂津市鳥飼八防2-7-12,,,要配慮者,34.769638361875,135.57343484056,
1167,E2722400052112,新鳥飼公民館,大阪府摂津市鳥飼本町1-9-45,1,,,34.77896906,135.5858539,
1168,E2722400052111,鳥飼体育館,大阪府摂津市鳥飼本町1-9-45,1,,,34.77915412,135.5855749,
1169,E2722400053111,鳥飼北小学校,大阪府摂津市鳥飼本町5-10-1,1,,,34.77635385,135.5786291,
1170,E2722400059111,第四中学校,大阪府摂津市東別府4-6-1,1,,,34.7673878,135.5576515,
1171,E2722400061111,別府小学校,大阪府摂津市東別府5-1-33,1,,,34.77073963,135.5576704,
1172,E2722400063121,老健ひかり,大阪府摂津市東別府5-2-45,,,要配慮者,34.769586227228,135.55638088965,
1173,E2722400064111,第一中学校,大阪府摂津市南千里丘3-20,1,,,34.78377963,135.5553929,
1174,E2722400065111,コミュニティプラザ,大阪府摂津市南千里丘5-35,1,,,34.7861764,135.5546619,
1175,E2722400067111,別府コミュニティセンター,大阪府摂津市別府2-10-21,1,,,34.765704324831,135.55383974247,
1176,E2722400068111,味生体育館,大阪府摂津市別府2-3-1,1,,,34.76784525,135.5533169,
1177,E2738300001111,千早小吹台小学校体育館,大阪府千早赤阪村大字小吹68-780,1,,,34.4393832278697,135.607983197791,
1178,E2738300009111,保健センター,大阪府千早赤阪村大字水分195-1,,,,34.4635968993313,135.622554905849,
1179,E2738300002111,くすのきホール,大阪府千早赤阪村大字水分263,1,,,34.4637782375002,135.625875480597,
1180,E2738300008111,赤阪小学校体育館,大阪府千早赤阪村大字水分56,,,,34.4661577116116,135.624448545413,
1181,E2738300003111,多聞尚学館千早清明寮,大阪府千早赤阪村大字千早1040,1,,,34.41748,135.648148,
1182,E2738300004121,特別養護老人ホーム千早赤阪春の家,大阪府千早赤阪村大字東阪122-1,,,高齢者,34.4502727664869,135.614411830809,
1183,E2738300005111,Ｂ＆Ｇ海洋センター体育館,大阪府千早赤阪村大字東阪255-1,1,,,34.449884,135.616679,
1184,E2738300007111,いきいきサロンくすのき,大阪府千早赤阪村大字二河原邊8-1,1,,,34.4638979052024,135.626247790663,
1185,E2721300003121,さくらこども園,大阪府泉佐野市旭町4-6,1,,妊産婦・乳児,34.414178,135.322935,
1186,E2721300003111,泉佐野市立第三小学校,大阪府泉佐野市旭町4-6,1,,,34.413737,135.32266,
1187,E2721300004111,泉佐野市立佐野中学校,大阪府泉佐野市羽倉崎4-3-12,1,,,34.404066,135.298641,
1188,E2721300006111,泉佐野市立北部市民交流センター本館,大阪府泉佐野市下瓦屋222-1,1,,,34.417584,135.342473,
1189,E2721300007111,泉佐野市立第三中学校,大阪府泉佐野市下瓦屋500,1,,,34.421559,135.335058,
1190,E2721300009111,府立佐野工科高等学校,大阪府泉佐野市高松東1-3-50,1,,,34.407021,135.316725,
1191,E2721300010111,泉佐野市立第二小学校,大阪府泉佐野市高松北2-1-7,1,,,34.407443,135.313593,
1192,E2721300012111,泉佐野市立生涯学習センター,大阪府泉佐野市市場東1-2-1,1,,,34.404326,135.327355,
1193,E2721300013111,府立佐野高等学校,大阪府泉佐野市市場東2-14-1,1,,,34.406179,135.32365,
1194,E2721300014111,泉佐野市立中央小学校,大阪府泉佐野市市場南1-9-1,1,,,34.401597,135.326768,
1195,E2721300017111,泉佐野市立新池中学校,大阪府泉佐野市松風台1-1151-1,1,,,34.400066,135.334247,
1196,E2721300057121,のぞみこども園,大阪府泉佐野市上瓦屋583-1,,,妊産婦・乳児,34.416212,135.335235,
1197,E2721300018111,市青少年課事務所,大阪府泉佐野市上瓦屋610-3,1,,,34.418708,135.340622,
1198,E2721300020111,泉佐野市立上之郷小学校,大阪府泉佐野市上之郷1680,1,,,34.37405,135.325966,
1199,E2721300021111,泉佐野市立健康増進センター,大阪府泉佐野市新安松1-1-21,1,,,34.400069,135.309683,
1200,E2721300026111,泉佐野市立佐野公民館,大阪府泉佐野市大西1-23-9,1,,,34.40992,135.312594,
1201,E2721300027111,大木防災拠点,大阪府泉佐野市大木1438-1,1,,,34.354105,135.369605,
1202,E2721300028111,泉佐野市立大木小学校,大阪府泉佐野市大木1443,1,,,34.353696,135.370289,
1203,E2721300029121,泉佐野市立社会福祉センター,大阪府泉佐野市中庄1102,,,要配慮者,34.402682,135.333703,
1204,E2721300030111,泉佐野市立日新小学校,大阪府泉佐野市中庄801,1,,,34.414826,135.328124,
1205,E2721300059121,はるかこども園,大阪府泉佐野市長滝1028,,,妊産婦・乳児,34.380626,135.318977,
1206,E2721300031111,泉佐野市立長南小学校,大阪府泉佐野市長滝418,1,,,34.385249,135.311419,
1207,E2721300032111,泉佐野市立北部市民交流センター体育分館,大阪府泉佐野市鶴原1016-1,1,,,34.419445888623,135.3443419828,
1208,E2721300032112,泉佐野市立北部市民交流センター青少年分館,大阪府泉佐野市鶴原1016-1,1,,,34.419676,135.34446,
1209,E2721300033111,泉佐野市立長坂小学校,大阪府泉佐野市鶴原1053,1,,,34.418136,135.344547,
1210,E2721300034111,泉佐野市立北中小学校,大阪府泉佐野市鶴原2-2-68,1,,,34.427316,135.335508,
1211,E2721300035111,土丸町会館,大阪府泉佐野市土丸50-1,1,,,34.370502,135.355192,
1212,E2721300036111,泉佐野市立佐野台小学校,大阪府泉佐野市東佐野台1-1,1,,,34.408734,135.344716,
1213,E2721300037111,泉佐野市立末広小学校,大阪府泉佐野市南中安松1545,1,,,34.397608,135.310159,
1214,E2721300038121,泉佐野市立児童発達支援センター,大阪府泉佐野市南中安松1548,,,障害児,34.397095,135.310508,
1215,E2721300039111,泉佐野市立長南中学校,大阪府泉佐野市南中安松888,1,,,34.386456,135.304239,
1216,E2721300041111,泉佐野市立長南公民館,大阪府泉佐野市南中樫井1,1,,,34.385633,135.303937,
1217,E2721300044111,泉佐野市立南部市民交流センター福祉分館,大阪府泉佐野市南中樫井419,,,,34.384145,135.293137,
1218,E2721300045111,泉佐野市立南部市民交流センター体育分館,大阪府泉佐野市南中樫井428-1,1,,,34.383745,135.293405,
1219,E2721300046111,泉佐野市立南部市民交流センター本館,大阪府泉佐野市南中樫井476-2,1,,,34.383452,135.292863,
1220,E2721300060111,泉佐野市立南部市民交流センター福祉分館,大阪府泉佐野市南中樫井479,,,,34.384145,135.293137,
1221,E2721300048111,日根野公民館,大阪府泉佐野市日根野1660-1,1,,,34.379637,135.336668,
1222,E2721300049111,泉佐野市立日根野小学校,大阪府泉佐野市日根野1684,1,,,34.38018,135.336571,
1223,E2721300050111,泉佐野市立日根野中学校,大阪府泉佐野市日根野1699,1,,,34.381199,135.337846,
1224,E2721300051111,府立日根野高等学校,大阪府泉佐野市日根野2372-1,1,,,34.390634,135.338538,
1225,E2721300054111,泉佐野市立第一小学校,大阪府泉佐野市野出町1-34,1,,,34.414513,135.312883,
1226,E2720600001121,関空泉大津ワシントンホテル,大阪府泉大津市なぎさ町5-1,,左記の者のうち、事前に市が特定し、環境調整を事前に行った者,妊産婦,34.507673,135.396658,
1227,E2720600040121,ホテルレイクアルスター　アルザ泉大津,大阪府泉大津市旭町18-5,,左記の者のうち、事前に市が特定し、環境調整を事前に行った者,妊産婦,34.501939,135.406824,
1228,E2720600047121,特別養護老人ホーム　美休,大阪府泉大津市河原町11-6,,但し、施設利用者を優先する,高齢者,34.500326,135.390629,
1229,E2720600044121,障がい者福祉施設　カモメ,大阪府泉大津市河原町2-13,,,要配慮者,34.502231,135.395789,
1230,E2720600004111,戎小学校,大阪府泉大津市河原町3-7,1,,,34.501819906713,135.39466593153,
1231,E2720600006111,穴師小学校,大阪府泉大津市我孫子1-12-10,1,,,34.494960060322,135.41701557149,
1232,E2720600007111,楠小学校,大阪府泉大津市我孫子2-4-7,1,,,34.493019021859,135.41229989056,
1233,E2720600012111,条南小学校,大阪府泉大津市宮町9-1,1,,,34.500664235591,135.41968363552,
1234,E2720600043121,障がい者福祉施設　みなと,大阪府泉大津市汐見町85-1,,,要配慮者,34.502094,135.387324,
1235,E2720600014111,小津中学校,大阪府泉大津市助松町2-13-1,1,,,34.516368081054,135.4184679614,
1236,E2720600016111,浜小学校,大阪府泉大津市小松町5-6,1,,,34.509075616479,135.4083935629,
1237,E2720600017111,旭小学校,大阪府泉大津市昭和町2-27,1,,,34.500560089834,135.40494125321,
1238,E2720600041121,特別養護老人ホーム　オズ,大阪府泉大津市菅原町10-33,,,要介護の高齢者・障がい者,34.506585,135.402801,
1239,E2720600021111,条東小学校,大阪府泉大津市千原町2-12-1,1,,,34.506156687299,135.42858106469,
1240,E2720600042121,小規模特別養護老人ホーム　オズだいすき倶楽部,大阪府泉大津市池浦町3-10-16,,,要介護の高齢者,34.497806,135.417703,
1241,E2720600027111,誠風中学校,大阪府泉大津市池浦町4-1-1,1,,,34.499012687139,135.41348613565,
1242,E2720600028111,東陽中学校,大阪府泉大津市池浦町4-4-1,1,,,34.499852794616,135.41429872551,
1243,E2720600033111,上條小学校,大阪府泉大津市東助松町3-13-1,1,,,34.511124142052,135.42243020883,
1244,E2720600008121,特別養護老人ホームローズガーデン条南苑,大阪府泉大津市東豊中町2-4-26,,,高齢者,34.493225,135.426098,
1245,E2720600045121,障がい者福祉施設ワークショップ　かりん,大阪府泉大津市豊中町2-8-19,,左記の者のうち、事前に市が特定した者,障がい者,34.494839,135.424178,
1246,E2722800001121,泉南特別養護老人ホーム　なでしこりんくう,大阪府泉南市りんくう南浜3-7,,左記のうち、指定一般避難所へ避難した後、そこでの避難生活が困難と判断された方,高齢者や障害者、その他特別な配慮を要する方とその支援者のみ,34.3794057991975,135.264562336516,
1247,E2722800002111,西信達中学校,大阪府泉南市岡田3-24-1,1,,,34.383196035032,135.28007435868,
1248,E2722800003111,西信達公民館,大阪府泉南市岡田3-9-7,1,,,34.383889253644,135.27737482408,
1249,E2722800004111,西信達小学校,大阪府泉南市岡田5-24-1,1,,,34.384891000671,135.27688740826,
1250,E2722800005111,岡中老人集会場,大阪府泉南市信達岡中620,1,,,34.349961910066,135.27431139634,
1251,E2722800006121,特別養護老人ホーム　六尾の郷,大阪府泉南市信達金熊寺130,,左記のうち、指定一般避難所へ避難した後、そこでの避難生活が困難と判断された方,高齢者や障害者、その他特別な配慮を要する方とその支援者のみ,34.3466438777199,135.286067113747,
1252,E2722800007111,東小学校,大阪府泉南市信達金熊寺553,1,,,34.336386364391,135.29146289921,
1253,E2722800008111,鳴滝小学校,大阪府泉南市信達市場1602,1,,,34.369752655453,135.27535228984,
1254,E2722800009111,市場老人集会場,大阪府泉南市信達市場2076-1,1,,,34.368749495623,135.28304166701,
1255,E2722800010111,砂川老人集会場,大阪府泉南市信達市場222-6,1,,,34.3607512106752,135.289205898155,
1256,E2722800011111,砂川小学校,大阪府泉南市信達市場450-6,1,,,34.363738585564,135.29358761119,
1257,E2722800012111,一丘中学校,大阪府泉南市信達市場543-12,1,,,34.368177897377,135.28800761401,
1258,E2722800014111,埋蔵文化財センター,大阪府泉南市信達大苗代374-4,1,,,34.375303448615,135.28935043384,
1259,E2722800015111,大苗代老人集会場,大阪府泉南市信達大苗代600-1,1,,,34.3742898483465,135.285416511615,
1260,E2722800016111,信達中学校,大阪府泉南市信達牧野34-1,1,,,34.357049922229,135.28166582213,
1261,E2722800017111,信達公民館,大阪府泉南市信達牧野413,1,,,34.36266667805,135.28089205767,
1262,E2722800018111,信達小学校,大阪府泉南市信達牧野705,1,,,34.364759656133,135.27702023506,
1263,E2722800019111,六尾老人集会場,大阪府泉南市信達六尾324-2,1,,,34.344564423535,135.28857221796,
1264,E2722800041121,ケアハウス長寿苑,大阪府泉南市信達六尾547,,左記のうち、指定一般避難所へ避難した後、そこでの避難生活が困難と判断された方,高齢者や障害者、その他特別な配慮を要する方とその支援者のみ,34.347069,135.285706,
