NO,共通ID,施設・場所名,住所,洪水,崖崩れ、土石流及び地滑り,高潮,地震,津波,大規模な火事,内水氾濫,火山現象,指定避難所との住所同一,緯度,経度,備考
1,E3034100001201,移レストハウス,和歌山県かつらぎ町大字移82-1,1,1,,1,,,1,,1,34.294695,135.455451,
2,E3034100002201,天野地域交流センター（ゆずり葉）,和歌山県かつらぎ町大字下天野930,1,1,,1,,,1,,1,34.2591611,135.5145633,
3,E3034100003201,久木コミュニティセンター,和歌山県かつらぎ町大字花園久木284,1,,,,,,1,,1,34.1507588,135.5722887,
4,E3034100004201,新子ふるさと村,和歌山県かつらぎ町大字花園新子96,1,,,,,,1,,1,34.13156,135.5499371,
5,E3034100005201,花園保健福祉館,和歌山県かつらぎ町大字花園中南250,1,,,,,,1,,1,34.1358227,135.5709853,
6,E3034100006201,旧花園中学校,和歌山県かつらぎ町大字花園北寺189,1,,,1,,,1,,1,34.1376874,135.5372523,
7,E3034100007201,遍照寺,和歌山県かつらぎ町大字花園梁瀬1567,1,,,,,,1,,1,34.1384065,135.5155117,
8,E3034100008201,梁瀬小学校,和歌山県かつらぎ町大字花園梁瀬567-1,1,,,1,,1,1,,1,34.1363912,135.5164956,
9,E3034100010201,はなぞの温泉「花圃の里」,和歌山県かつらぎ町大字花園梁瀬779,1,,,1,,,1,,1,34.1386916,135.5193076,
10,E3034100011201,新規作物地域ブランド定着施設,和歌山県かつらぎ町大字笠田中256-19,1,1,,1,,,1,,1,34.290037,135.472689,
11,E3034100012201,笠田中学校,和歌山県かつらぎ町大字笠田東132,,1,,1,,,1,,1,34.28813454,135.4805428,
12,E3034100013201,笠田東第１自治区コミュニティセンター,和歌山県かつらぎ町大字笠田東30-3,,1,,1,,,1,,1,34.2911689,135.4805584,
13,E3034100014201,笠田東児童館,和歌山県かつらぎ町大字笠田東353-1,,1,,,,,1,,1,34.28517691,135.4780778,
14,E3034100015201,笠田ふるさと交流館,和歌山県かつらぎ町大字笠田東396-3,,1,,1,,,1,,1,34.2882136,135.4786396,
15,E3034100016201,笠田小学校,和歌山県かつらぎ町大字笠田東558,1,1,,1,,,1,,1,34.2878084,135.4751819,
16,E3034100017201,笠田東第１自治区西集会所,和歌山県かつらぎ町大字笠田東666-2,1,1,,1,,,1,,1,34.2890748,135.4772634,
17,E3034100018201,笠田高等学校,和歌山県かつらぎ町大字笠田東825,1,1,,1,,,1,,1,34.2927388,135.4782471,
18,E3034100019201,宮本集会所,和歌山県かつらぎ町大字宮本13,1,,,1,,,1,,1,34.270314,135.502974,
19,E3034100020201,窪ふるさと館,和歌山県かつらぎ町大字窪140,1,1,,1,,,1,,1,34.28924,135.464017,
20,E3034100021201,兄井集会所,和歌山県かつらぎ町大字兄井243,1,,,,,,1,,1,34.288871,135.505724,
21,E3034100022201,四邑公民館,和歌山県かつらぎ町大字御所8-2,1,,,1,,,1,,1,34.256846660492,135.48644103487,
22,E3034100023201,四郷地域交流センター（ともがき）,和歌山県かつらぎ町大字広口1197,1,,,1,,,1,,1,34.32447624,135.4797062,
23,E3034100024201,広口生活改善センター,和歌山県かつらぎ町大字広口476,1,,,,,,1,,1,34.31692944,135.4721471,
24,E3034100025201,高田児童館,和歌山県かつらぎ町大字高田67-2,1,1,,,,,1,,1,34.282619,135.44936,
25,E3034100026201,笠田公民館佐野分館,和歌山県かつらぎ町大字佐野550-1,,1,,,,,1,,1,34.2954007,135.4879896,
26,E3034100027201,三谷こども園,和歌山県かつらぎ町大字三谷1650,,,,1,,,1,,1,34.2910712,135.5186647,
27,E3034100028201,三谷公民館,和歌山県かつらぎ町大字三谷1670-1,,,,,,,1,,1,34.289528149284,135.51769723929,
28,E3034100029201,丹生酒殿神社,和歌山県かつらぎ町大字三谷631,1,,,,,,1,,1,34.289211,135.520012,
29,E3034100030201,山崎児童館,和歌山県かつらぎ町大字山崎184,1,,,,,,1,,1,34.292488,135.534658,
30,E3034100066201,志賀地域交流センター（ふれあい）,和歌山県かつらぎ町大字志賀1347-3,1,,1,1,1,1,,1,1,34.22198,135.503413,
31,E3034100032201,寺尾集会所,和歌山県かつらぎ町大字寺尾207,1,,,,,,1,,1,34.284698,135.495775,
32,E3034100034201,新城農作業準備休養施設,和歌山県かつらぎ町大字新城879-1,1,,,1,,,1,,1,34.198583631853,135.50531693561,
33,E3034100035201,西渋田児童館,和歌山県かつらぎ町大字西渋田61-1,,1,,1,,1,,,1,34.27827,135.472165,
34,E3034100036201,西飯降集会所,和歌山県かつらぎ町大字西飯降291,1,1,,1,,,1,,1,34.3063008,135.5267444,
35,E3034100037201,大谷公民館,和歌山県かつらぎ町大字大谷288-5,1,1,,1,,,1,,1,34.2982986,135.4946107,
36,E3034100038201,大谷小学校,和歌山県かつらぎ町大字大谷338,1,1,,1,,,1,,1,34.300988,135.4942487,
37,E3034100039201,大谷地域交流センター,和歌山県かつらぎ町大字大谷868-1,,1,,1,,,1,,1,34.2941501,135.4896759,
38,E3034100041201,滝文化保存伝習施設,和歌山県かつらぎ町大字滝872-4,1,,,1,,1,1,,1,34.327992,135.4973201,
39,E3034100042201,広野高齢者活動促進施設,和歌山県かつらぎ町大字短野210-1,1,1,,1,,,1,,1,34.3166982,135.5218104,
40,E3034100043201,中飯降グラウンド,和歌山県かつらぎ町大字中飯降1344-3,1,1,,1,,,1,,,34.3100894,135.5385601,
41,E3034100044201,中飯降児童館,和歌山県かつらぎ町大字中飯降284-1,1,1,,1,,,1,,1,34.3054555,135.5319335,
42,E3034100045201,和歌山県農林大学校,和歌山県かつらぎ町大字中飯降422,1,1,,1,,,1,,1,34.3082385,135.5290128,
43,E3034100047201,かつらぎ町地域福祉センター,和歌山県かつらぎ町大字丁ノ町2338-2,,1,,1,,,1,,1,34.2955487,135.504271,
44,E3034100048201,かつらぎ総合文化会館,和歌山県かつらぎ町大字丁ノ町2454,,1,,1,,,1,,1,34.2949374,135.5049145,
45,E3034100068201,かつらぎ公園体育センター,和歌山県かつらぎ町大字丁ノ町2527,,1,1,1,1,1,,,1,34.295268,135.518528,
46,E3034100050201,丁ノ町地域交流センター,和歌山県かつらぎ町大字丁ノ町459-1,1,,,1,,1,1,,1,34.2996613,135.517533,
47,E3034100067201,丁ノ町第二集会所,和歌山県かつらぎ町大字丁ノ町65-2,,1,1,,1,1,,,1,34.300089,135.508385,
48,E3034100051201,渋田小学校,和歌山県かつらぎ町大字東渋田152,1,1,,1,,,1,,1,34.2771148,135.4757693,
49,E3034100052201,東渋田軽スポーツセンター,和歌山県かつらぎ町大字東渋田428-8,1,,,1,,,1,,1,34.278621,135.483218,
50,E3034100053201,見好公民館,和歌山県かつらぎ町大字東渋田50,,1,,,,,1,,1,34.279964,135.477452,
51,E3034100054201,河南グラウンド,和歌山県かつらぎ町大字東渋田626-3,,1,,1,,,1,,,34.284027,135.4904565,
52,E3034100055201,河南地域交流センター,和歌山県かつらぎ町大字東渋田667-1,1,,,1,,,1,,1,34.282349,135.493099,
53,E3034100056201,東谷ふるさとセンター,和歌山県かつらぎ町大字東谷1847,1,,,1,,,1,,1,34.3389235,135.4895331,
54,E3034100057201,背ノ山ふれあい会館,和歌山県かつらぎ町大字背ノ山390,1,1,,1,,,1,,1,34.282374,135.458194,
55,E3034100058201,萩原コミュニティセンター,和歌山県かつらぎ町大字萩原353-2,,1,,1,,,1,,1,34.289179,135.466264,
56,E3034100059201,西柏木会館,和歌山県かつらぎ町大字柏木305-1,1,1,,1,,,1,,1,34.3081981,135.4915965,
57,E3034100060201,平生活改善センター,和歌山県かつらぎ町大字平93,1,,,,,,1,,1,34.336927,135.478032,
58,E3034100061201,ゆうゆうコミュニテイホーム,和歌山県かつらぎ町大字妙寺146-2,,1,,1,,,1,,1,34.3006949,135.5279949,
59,E3034100062201,紀北農芸高校,和歌山県かつらぎ町大字妙寺1781,1,1,,1,,,1,,1,34.3095366,135.5292785,
60,E3034100063201,妙寺公民館,和歌山県かつらぎ町大字妙寺445-1,,1,,1,,,1,,1,34.297646819332,135.52091018874,
61,E3034100064201,妙寺中学校,和歌山県かつらぎ町大字妙寺581,1,1,,1,,,1,,1,34.3017296,135.5204024,
62,E3034100065201,妙寺小学校,和歌山県かつらぎ町大字妙寺857,1,,,1,,1,1,,1,34.3027836,135.5264409,
63,E3040600001201,町道見老津長井橋山手線東国道付近,和歌山県すさみ町見老津,,,,,1,,,,,33.51667121,135.5737371,
64,E3040600003201,見老津生活改善センター,和歌山県すさみ町見老津295,1,1,,,,,,,,33.5108622,135.5801865,
65,E3040600004201,常栄寺,和歌山県すさみ町見老津322,,,,,1,,,,,33.51081315,135.5808431,
66,E3040600005201,見老津避難所,和歌山県すさみ町見老津404,1,1,1,1,1,,,,1,33.509198,135.580163,
67,E3040600002201,観流坊,和歌山県すさみ町見老津２１６－１先,,,,,1,,,,,33.51144157,135.5796549,
68,E3040600002202,おんどの山,和歌山県すさみ町見老津２１６－１先,,,,,1,,,,,33.51284152,135.5799419,
69,E3040600002203,西平見,和歌山県すさみ町見老津２１６－１先,,,,,1,,,,,33.5123645,135.57849,
70,E3040600006203,町道小家の元線付近裏山,和歌山県すさみ町口和深,,,,,1,,,,,33.52940463,135.5182624,
71,E3040600006202,町道小家の元線支線付近裏山,和歌山県すさみ町口和深,,,,,1,,,,,33.52935768,135.5177554,
72,E3040600006201,下谷渡船付近裏山,和歌山県すさみ町口和深,,,,,1,,,,,33.52890287,135.5162252,
73,E3040600006207,口和深川東線１号橋南山辺,和歌山県すさみ町口和深,,,,,1,,,,,33.52686685,135.5185011,
74,E3040600006206,町道西浜和深川線（ＪＲ線路付近）,和歌山県すさみ町口和深,,,,,1,,,,,33.534329,135.514323,
75,E3040600006204,町道小家の元線支線付近裏畑,和歌山県すさみ町口和深,,,,,1,,,,,33.529702,135.5182489,
76,E3040600013201,口和深集会センター,和歌山県すさみ町口和深283-2,1,1,1,1,1,,,,1,33.5296693,135.5206672,
77,E3040600014201,谷口渡船裏山,和歌山県すさみ町口和深３６８－２西方,,,,,1,,,,,33.53077722,135.5151182,
78,E3040600015206,公営住宅江住団地西高台,和歌山県すさみ町江住,,,,,1,,,,,33.50964418,135.6027332,
79,E3040600015205,吉田組事務所東付近山,和歌山県すさみ町江住,,,,,1,,,,,33.51070423,135.6065365,
80,E3040600015204,吉田組プラント付近県道,和歌山県すさみ町江住,,,,,1,,,,,33.51421974,135.602583,
81,E3040600015203,ＪＲ江須之川橋梁北高台,和歌山県すさみ町江住,,,,,1,,,,,33.51056986,135.588647,
82,E3040600015202,ＪＲ江須之川橋梁西高台,和歌山県すさみ町江住,,,,,1,,,,,33.51009574,135.5887006,
83,E3040600015201,国道４２号線江須ノ川橋西側,和歌山県すさみ町江住,,,,,1,,,,,33.5081098,135.5897842,
84,E3040600015209,国道４２号線江須ノ川橋下東側付近山,和歌山県すさみ町江住,,,,,1,,,,,33.50857945,135.5911521,
85,E3040600015207,江須ノ川漁港事務所付近個人宅高台,和歌山県すさみ町江住,,,,,1,,,,,33.50707655,135.5942099,
86,E3040600015208,江須ノ川漁港北国道４２号線,和歌山県すさみ町江住,,,,,1,,,,,33.50752385,135.5939309,
87,E3040600039201,童謡公園,和歌山県すさみ町江住142,,,,,1,,,,1,33.50467008,135.5885343,
88,E3040600041201,江須之川生活改善センター,和歌山県すさみ町江住240,1,1,,,,,,,1,33.5076798,135.5908675,
89,E3040600042201,江住小学校（体育館）,和歌山県すさみ町江住670,1,1,1,1,1,,,,1,33.50722779,135.6005567,
90,E3040600042202,江住小学校（校舎）,和歌山県すさみ町江住670,1,1,,1,1,,,,1,33.50753642,135.601061,
91,E3040600044201,道の駅すさみ,和歌山県すさみ町江住808-1,1,1,,,1,,,,1,33.50550763,135.5997224,
92,E3040600152201,公営住宅江住団地北県道バイパス,和歌山県すさみ町江住（公営住宅江住団地北県道バイパス）,,,,,1,,,,,33.51117387,135.6021324,
93,E3040600149201,江須之川生活改善センター東国道４２号線１,和歌山県すさみ町江住（江須之川生活改善センター東国道４２号線１）,,,,,1,,,,,33.50596726,135.5891137,
94,E3040600150201,江須之川生活改善センター東国道４２号線２,和歌山県すさみ町江住（江須之川生活改善センター東国道４２号線２）,,,,,1,,,,,33.50820373,135.5912487,
95,E3040600153201,江須之川本谷線三号橋付近,和歌山県すさみ町江住（江須之川本谷線三号橋付近）,,,,,1,,,,,33.50935773,135.5900149,
96,E3040600142201,酒井渡船付近個人宅高台,和歌山県すさみ町江住（酒井渡船付近個人宅高台）,,,,,1,,,,,33.5072018,135.5950252,
97,E3040600143201,春日神社,和歌山県すさみ町江住（春日神社）,,,,,1,,,,,33.511055,135.603607,
98,E3040600145201,小倉酒店付近裏山,和歌山県すさみ町江住（小倉酒店付近裏山）,,,,,1,,,,,33.511509,135.605628,
99,E3040600146201,城の平,和歌山県すさみ町江住（城の平）,,,,,1,,,,,33.511934,135.605927,
100,E3040600144201,町営住宅小郷谷団地付近,和歌山県すさみ町江住（町営住宅小郷谷団地付近）,,,,,1,,,,,33.51374118,135.6057372,
101,E3040600147201,町道江住新平見線付近,和歌山県すさみ町江住（町道江住新平見線付近）,,,,,1,,,,,33.50980073,135.6093904,
102,E3040600148201,町道江須之川西津浦線東国道４２号線,和歌山県すさみ町江住（町道江須之川西津浦線東国道４２号線）,,,,,1,,,,,33.50783695,135.5964307,
103,E3040600141201,町道江須平線起点付近,和歌山県すさみ町江住（町道江須平線起点付近）,,,,,1,,,,,33.50638772,135.5993919,
104,E3040600151201,楠堂谷東側山,和歌山県すさみ町江住（楠堂谷東側山）,,,,,1,,,,,33.508386,135.595946,
105,E3040600154201,薬師さん北個人宅裏山,和歌山県すさみ町江住（薬師さん北個人宅裏山）,,,,,1,,,,,33.5134102,135.6041386,
106,E3040600038201,薬師さん,和歌山県すさみ町江住１２７４－３東方先,,,,,1,,,,,33.51289146,135.6045404,
107,E3040600045201,町道平線タイラ橋付近県道バイパス,和歌山県すさみ町江住９８９北方先,,,,,1,,,,,33.51341029,135.6021908,
108,E3040600047201,栗垣内集会所,和歌山県すさみ町佐本西栗垣内58,1,1,,1,,,,,,33.59114335,135.6097153,
109,E3040600048201,佐本中集会所,和歌山県すさみ町佐本中205-1,1,1,,,,,,,1,33.58993235,135.6252936,
110,E3040600049201,公民館佐本分館,和歌山県すさみ町佐本中228-2,,,,,1,,,,1,33.5892255,135.62467,
111,E3040600050202,旧佐本小学校（校舎）,和歌山県すさみ町佐本中86,,,,,1,,,,1,33.5911353,135.627483,
112,E3040600050201,旧佐本小学校（体育館）,和歌山県すさみ町佐本中86,,,,,1,,,,1,33.59085778,135.6270403,
113,E3040600051201,中野集会所,和歌山県すさみ町佐本中野113-2,1,,,,1,,,,1,33.60065535,135.6186766,
114,E3040600052201,追川集会所,和歌山県すさみ町佐本追川220,1,1,,1,,,,,1,33.58722702,135.6183631,
115,E3040600053201,ＪＲ堀切踏切付近裏山,和歌山県すさみ町周参見,,,,,1,,,,,33.56069503,135.4953597,
116,E3040600053202,ダンスパシフィックブルー（屋上）,和歌山県すさみ町周参見,,,,,1,,,,,33.551748,135.494659,
117,E3040600053208,町道小泊西線北個人宅裏山,和歌山県すさみ町周参見,,,,,1,,,,,33.5521834,135.4860793,
118,E3040600053209,石橋墓地横砂防堰堤付近,和歌山県すさみ町周参見,,,,,1,,,,,33.55176716,135.4992396,
119,E3040600053206,ＪＲ山崎踏切付近個人宅裏山３,和歌山県すさみ町周参見,1,1,,,,,,,,33.55406774,135.4935559,
120,E3040600053205,ＪＲ山崎踏切付近個人宅裏山２,和歌山県すさみ町周参見,,,,,1,,,,,33.55383528,135.4937812,
121,E3040600053204,関電すさみ変電所付近個人宅裏山,和歌山県すさみ町周参見,,,,,1,,,,,33.5567506,135.5014018,
122,E3040600053203,王子神社裏,和歌山県すさみ町周参見,,,,,1,,,,,33.553021,135.494678,
123,E3040600053207,小泊生活改善センター北個人宅裏山,和歌山県すさみ町周参見,,,,,1,,,,,33.55114621,135.4889868,
124,E3040600078201,堀切生活改善センター,和歌山県すさみ町周参見1682,1,1,,,,,,,1,33.5578532,135.4944889,
125,E3040600079201,きのくに林産加工場,和歌山県すさみ町周参見1704,,,,,1,,,,,33.56285857,135.4937665,
126,E3040600085201,平松観音堂,和歌山県すさみ町周参見2023,,,,,1,,,,,33.549757,135.491122,
127,E3040600086201,漁村センター,和歌山県すさみ町周参見2050-28,1,1,,1,1,,,,1,33.5493336,135.4924118,
128,E3040600089201,歴史民俗資料館,和歌山県すさみ町周参見2290,,,,,1,,,,1,33.5527658,135.4944732,
129,E3040600090201,平松津波避難タワー,和歌山県すさみ町周参見2305,,,,,1,,,,,33.551385,135.493249,
130,E3040600092201,県営住宅すさみ団地（四階）,和歌山県すさみ町周参見2338-2,,,,,1,,,,,33.554447,135.495578,
131,E3040600095201,農村活性化センター,和歌山県すさみ町周参見2820-1,1,1,,1,,,,,1,33.55674906,135.5101641,
132,E3040600096201,周参見保育所,和歌山県すさみ町周参見2871-1,1,1,1,1,1,,1,,,33.556546,135.511057,
133,E3040600097201,農林漁業者等健康増進施設,和歌山県すさみ町周参見3305-3,1,1,,1,,,,,1,33.555506663618,135.50370488123,
134,E3040600098201,神田愛育文化センター,和歌山県すさみ町周参見3502-2,1,1,,,,,,,1,33.5584415,135.5033467,
135,E3040600099201,金比羅宮,和歌山県すさみ町周参見3553,,,,,1,,,,,33.558274,135.501916,
136,E3040600100202,周参見中学校（校舎）,和歌山県すさみ町周参見3685,1,1,,,,,,,,33.55478588,135.4996843,
137,E3040600100201,周参見中学校　（体育館）,和歌山県すさみ町周参見3685,1,1,,,,,,,,33.55453098,135.5002738,
138,E3040600101201,田中集会センター,和歌山県すさみ町周参見3806-4,1,1,,,,,,,1,33.55388951,135.5001948,
139,E3040600103201,住民福祉会館,和歌山県すさみ町周参見3871-3,1,1,,,,,,,1,33.5522515,135.4979168,
140,E3040600105201,周参見小学校（体育館）,和歌山県すさみ町周参見4027,1,1,,,,,,,1,33.551381531451,135.49728193862,
141,E3040600105202,周参見小学校（校舎）,和歌山県すさみ町周参見4027,1,1,,,,,,,1,33.551139633381,135.49759391838,
142,E3040600107201,役場庁舎（屋上）,和歌山県すさみ町周参見4089,,,,,1,,,,,33.55014809,135.4966733,
143,E3040600108201,総合センター（津波の場合は屋上）,和歌山県すさみ町周参見4120-1,1,1,1,1,1,,,,1,33.54981278,135.4959974,
144,E3040600109201,地域福祉センター［※福祉避難所］,和歌山県すさみ町周参見4133,1,1,,,,,,,1,33.54988878,135.4956111,
145,E3040600111201,津波避難タワー,和歌山県すさみ町周参見4289-1,,,,,1,,,,,33.547424,135.495559,
146,E3040600112201,イブファーム,和歌山県すさみ町周参見4378-1,,,,,1,,,,,33.54488211,135.4949346,
147,E3040600114201,下地一集会所,和歌山県すさみ町周参見4449,1,1,,,,,,,1,33.54561559,135.4961207,
148,E3040600117201,小泊生活改善センター,和歌山県すさみ町周参見4596,1,1,,,,,,,1,33.5507464,135.4883131,
149,E3040600119201,すさみ町避難ビル,和歌山県すさみ町周参見4626-15,1,1,,1,1,,,,1,33.550666,135.49712418651,
150,E3040600121201,天理教紀周文教会,和歌山県すさみ町周参見5009-1,1,1,,,,,,,,33.556944,135.495983,
151,E3040600155201,曽根田橋西個人宅裏山,和歌山県すさみ町周参見（曽根田橋西個人宅裏山）,,,,,1,,,,,33.55134963,135.4900583,
152,E3040600161201,太間地集会所北個人宅裏山,和歌山県すさみ町周参見（太間地集会所北個人宅裏山）,,,,,1,,,,,33.55871025,135.4912291,
153,E3040600163201,大日山配水池西側１,和歌山県すさみ町周参見（大日山配水池西側１）,,,,,1,,,,,33.55475397,135.4939435,
154,E3040600164201,大日山配水池西側２,和歌山県すさみ町周参見（大日山配水池西側２）,,,,,1,,,,,33.55495514,135.493965,
155,E3040600165201,町道小泊中之谷線北個人宅裏山,和歌山県すさみ町周参見（町道小泊中之谷線北個人宅裏山）,,,,,1,,,,,33.5521834,135.4872487,
156,E3040600156201,町道曽根田線起点付近裏山,和歌山県すさみ町周参見（町道曽根田線起点付近裏山）,,,,,1,,,,,33.55224375,135.490466,
157,E3040600159201,町道太間地線太間地橋西個人宅裏山１,和歌山県すさみ町周参見（町道太間地線太間地橋西個人宅裏山１）,,,,,1,,,,,33.55469585,135.4900919,
158,E3040600160201,町道太間地線太間地橋西個人宅裏山２,和歌山県すさみ町周参見（町道太間地線太間地橋西個人宅裏山２）,,,,,1,,,,,33.55505349,135.4898129,
159,E3040600169201,町道太間地線堀切橋東個人宅裏山,和歌山県すさみ町周参見（町道太間地線堀切橋東個人宅裏山）,,,,,1,,,,,33.56100794,135.4954992,
160,E3040600162201,町道大阪火尻線支線付近個人宅裏山,和歌山県すさみ町周参見（町道大阪火尻線支線付近個人宅裏山）,,,,,1,,,,,33.55696683,135.495585,
161,E3040600166201,天理教紀周文教会北個人宅付近１,和歌山県すさみ町周参見（天理教紀周文教会北個人宅付近１）,,,,,1,,,,,33.55725293,135.496218,
162,E3040600167201,天理教紀周文教会北個人宅付近２,和歌山県すさみ町周参見（天理教紀周文教会北個人宅付近２）,,,,,1,,,,,33.55755691,135.4962609,
163,E3040600168201,藤原谷,和歌山県すさみ町周参見（藤原谷）,,,,,1,,,,,33.55174481,135.5027586,
164,E3040600080201,太間地集会所付近裏山,和歌山県すさみ町周参見１８３１先,,,,,1,,,,,33.55694,135.4901992,
165,E3040600081201,太間地観音堂付近裏山,和歌山県すさみ町周参見１９２１南方先,,,,,1,,,,,33.554017,135.490556,
166,E3040600082201,三助谷,和歌山県すさみ町周参見１９６１先,,,,,1,,,,,33.550349,135.49094,
167,E3040600083201,畑山,和歌山県すさみ町周参見１９８４先,,,,,1,,,,,33.550077,135.491342,
168,E3040600084201,天神参道,和歌山県すさみ町周参見２０２１北西,,,,,1,,,,,33.54954747,135.4905948,
169,E3040600087201,王子橋南,和歌山県すさみ町周参見２１００－３先,,,,,1,,,,,33.551679,135.493567,
170,E3040600088201,大日山,和歌山県すさみ町周参見２２８８－１北方先,,,,,1,,,,,33.55473,135.494498,
171,E3040600091201,王子橋北,和歌山県すさみ町周参見２３０８－１先,,,,,1,,,,,33.552609,135.495391,
172,E3040600093201,大日山配水池昇り道,和歌山県すさみ町周参見２３３８－２西方先,,,,,1,,,,,33.555846,135.495647,
173,E3040600094201,大阪殿,和歌山県すさみ町周参見２４００北方先,,,,,1,,,,,33.557966,135.496572,
174,E3040600104201,石橋墓地裏上段,和歌山県すさみ町周参見４００５－２先,,,,,1,,,,,33.55164869,135.4989231,
175,E3040600106201,背戸山,和歌山県すさみ町周参見４０７５先,,,,,1,,,,,33.54820623,135.4972145,
176,E3040600110201,万福寺裏山,和歌山県すさみ町周参見４２８０東方,,,,,1,,,,,33.54747301,135.4971233,
177,E3040600113201,観音谷の高台,和歌山県すさみ町周参見４４２３北東先,,,,,1,,,,,33.54743948,135.4982311,
178,E3040600115201,串の戸（旧君嶋石油前の山）,和歌山県すさみ町周参見４４９１－１西方先,,,,,1,,,,,33.54319206,135.4953544,
179,E3040600118201,小泊地蔵堂付近裏山,和歌山県すさみ町周参見４６１５先,,,,,1,,,,,33.551673,135.488354,
180,E3040600120201,中の谷,和歌山県すさみ町周参見４６７１北方先,,,,,1,,,,,33.553635,135.487475,
181,E3040600123201,小河内集会センター,和歌山県すさみ町小河内913-1,1,1,,,,,,,1,33.565836,135.57902,
182,E3040600124201,西野川会館,和歌山県すさみ町西野川,,,,,1,,,,1,33.60299039,135.627421,
183,E3040600125201,太間川上会館,和歌山県すさみ町太間川38,,,,,1,,,,1,33.59969295,135.5088271,
184,E3040600126201,大鎌集会所,和歌山県すさみ町大鎌237,1,1,,,,,,,1,33.55153178,135.6249513,
185,E3040600127201,大谷会館,和歌山県すさみ町大谷179-3,1,1,,1,,,,,1,33.57706884,135.6165875,
186,E3040600128201,町道里野椎平線ＪＲ下トンネル付近高台,和歌山県すさみ町里野,,,,,1,,,,,33.51212745,135.6253321,
187,E3040600128202,中山,和歌山県すさみ町里野,,,,,1,,,,,33.51140279,135.6275135,
188,E3040600128204,里野漁港北高台,和歌山県すさみ町里野,,,,,1,,,,,33.5037005,135.6252463,
189,E3040600128203,里野海水浴場南国道４２号線,和歌山県すさみ町里野,,,,,1,,,,,33.508555,135.633075,
190,E3040600132201,里野集会所,和歌山県すさみ町里野526,1,1,,1,1,,,,1,33.508786,135.6268143,
191,E3040600133201,正福寺駐車場付近,和歌山県すさみ町里野847,,,,,1,,,,,33.51375541,135.627315,
192,E3040600134201,和深川集会所,和歌山県すさみ町和深川383,1,1,,1,,,,,1,33.5351784,135.5354466,
193,E3039100001201,ミナベ化工㈱事務所,和歌山県みなべ町気佐藤173-1,,,,1,1,,,,,33.776012425982,135.32119452646,
194,E3039100002201,紀州農協アグリセンターみなべ,和歌山県みなべ町気佐藤321-6,,,,1,1,,,,,33.773701,135.320655,
195,E3039100003201,みなべ町津波避難センター,和歌山県みなべ町気佐藤72-1,1,1,1,1,1,,1,,1,33.770327511532,135.318432,
196,E3039100004201,南部川右岸防災ヘリポート（タブチ池跡地）,和歌山県みなべ町筋528,,,,1,1,,,,,33.787884,135.318231,
197,E3039100006201,道林寺,和歌山県みなべ町熊岡82,,,,1,1,,,,,33.780084,135.3374091,
198,E3039100005201,熊岡地区畑崎付近,和歌山県みなべ町熊岡４４８地先,,,,1,1,,,,,33.776768604696,135.336351459,
199,E3039100007201,鶴の湯温泉,和歌山県みなべ町熊瀬川47,1,1,1,,,,1,,1,33.835211,135.319961,
200,E3039100008201,高城公民館,和歌山県みなべ町広野9,1,1,1,,,,1,,1,33.8468251,135.3556716,
201,E3039100009201,高城高齢者センター,和歌山県みなべ町高野1404,1,1,1,,,,1,,1,33.8517727,135.3405665,
202,E3039100010201,堺地区日吉神社奥高台,和歌山県みなべ町堺383,,,,1,1,,,,,33.74857,135.332763,
203,E3039100012201,堺地区ほうじ,和歌山県みなべ町堺418-3,,,,1,1,,,,,33.746536,135.332554,
204,E3039100013201,堺地区灰屋付近,和歌山県みなべ町堺528,,,,1,1,,,,,33.745274,135.329855,
205,E3039100014201,もとや魚店周辺,和歌山県みなべ町堺540-2,,,,1,1,,,,,33.744426,135.329405,
206,E3039100016201,堺地区しんばし山,和歌山県みなべ町堺660,,,,1,1,,,,,33.74650508003,135.33733297092,
207,E3039100017201,常福寺裏山高台,和歌山県みなべ町堺73,,,,1,1,,,,,33.74863026662,135.33012093122,
208,E3039100011201,堺地区小川商店付近高台,和歌山県みなべ町堺４０－１外,,,,1,1,,,,,33.748499,135.328965,
209,E3039100015201,堺地区地蔵尊裏高台,和歌山県みなべ町堺６１８外,,,,1,1,,,,,33.745492,135.332253,
210,E3039100018201,山内地区岩井谷付近,和歌山県みなべ町山内1163,,,,1,1,,,,,33.773885845721,135.30879174471,
211,E3039100019201,紀州梅干館,和歌山県みなべ町山内1339,,,,1,1,,,,,33.772539,135.314076,
212,E3039100020201,紀州南部ロイヤルホテル駐車場,和歌山県みなべ町山内348,,,,1,1,,,,,33.768746,135.301104,
213,E3039100022201,片倉地区千里球場入口付近,和歌山県みなべ町山内78-2,,,,1,1,,,,,33.778882,135.290523,
214,E3039100024201,諏訪神社付近高台,和歌山県みなべ町山内891-2,,,,1,1,,,,,33.776965,135.313027,
215,E3039100021201,山内地区国道４２号峠付近,和歌山県みなべ町山内４４８－３地先,,,,1,1,,,,,33.776225,135.310592,
216,E3039100023201,新福寺裏高台（岡山）,和歌山県みなべ町山内７９０－２外,,,,1,1,,,,,33.778151,135.315291,
217,E3039100026201,南部高等学校　体育館,和歌山県みなべ町芝407,1,1,1,,,,1,,1,33.764886095069,135.32455710085,
218,E3039100026202,南部高等学校（３号棟）,和歌山県みなべ町芝407,,,,1,1,,,,1,33.764591914442,135.3258152123,
219,E3039100027201,みなべ町社会福祉センター,和歌山県みなべ町芝447-2,1,1,1,,,,1,,1,33.766047,135.323451,
220,E3039100028201,南部公民館,和歌山県みなべ町芝503,1,1,1,1,1,,1,,1,33.765499,135.322566,
221,E3039100029201,武道館,和歌山県みなべ町芝503-6,,,,1,1,,,,,33.765388,135.322415,
222,E3039100030201,南部中学校　体育館,和歌山県みなべ町芝510,1,1,1,,,,1,,1,33.76427137,135.322364,
223,E3039100031201,みなべ町役場,和歌山県みなべ町芝742,,,,1,1,,,,,33.772410051203,135.3216267222,
224,E3039100025201,猪ノ山,和歌山県みなべ町芝１０－１外,,,,1,1,,,,,33.768377917669,135.3288217205,
225,E3039100032201,なかよし作業所,和歌山県みなべ町埴田1444-1,1,1,1,,,,1,,1,33.752468,135.326594,
226,E3039100032202,ゆうゆう館,和歌山県みなべ町埴田1444-1,1,1,1,1,1,,1,,1,33.7522606,135.3268848,
227,E3039100033201,介護老人福祉施設　虹,和歌山県みなべ町埴田1450-1,1,1,1,1,1,,1,,1,33.75175,135.327602,
228,E3039100034201,国民宿舎紀州路みなべ,和歌山県みなべ町埴田1540,1,1,1,1,1,,1,,1,33.751598,135.324055,
229,E3039100035201,埴田拝殿高台,和歌山県みなべ町埴田483-5,,,,1,1,,,,,33.762483,135.3280719828,
230,E3039100037201,埴田グラウンド,和歌山県みなべ町埴田929-2,,,,1,1,,,,,33.758161,135.327721,
231,E3039100036201,埴田医王寺（寺山）,和歌山県みなべ町埴田５１５－３外,,,,1,1,,,,,33.763533,135.328815,
232,E3039100038201,紀州備長炭振興館,和歌山県みなべ町清川1254,1,,1,,,,1,,1,33.8514985926,135.39538066997,
233,E3039100039201,旧清川中学校　体育館,和歌山県みなべ町清川2202,1,1,1,,,,1,,1,33.854384370063,135.39887708556,
234,E3039100040201,清川公民館,和歌山県みなべ町清川2223-3,1,1,1,,,,1,,1,33.8533465,135.398804,
235,E3039100041201,清川小学校　体育館,和歌山県みなべ町清川2340,1,1,1,,,,1,,1,33.850058647338,135.39973481507,
236,E3039100042201,西中村墓地,和歌山県みなべ町西岩代1231-2,,,,1,1,,,,,33.79092,135.272429,
237,E3039100043201,西岩代地区大師堂付近,和歌山県みなべ町西岩代1416,,,,1,1,,,,,33.787581,135.277745,
238,E3039100044201,岩代小学校　体育館,和歌山県みなべ町西岩代2162,1,1,1,1,1,,1,,1,33.781231687564,135.28106758481,
239,E3039100044202,岩代小学校　校舎,和歌山県みなべ町西岩代2162,1,1,1,1,1,,1,,1,33.781675,135.281427,
240,E3039100045201,光照寺,和歌山県みなべ町西岩代495,,,,,1,,,,,33.784741,135.270986,
241,E3039100046201,戸仲会場,和歌山県みなべ町西岩代801-1,,,,1,1,,,,,33.7972343,135.2712882,
242,E3039100049201,西本庄地区天王神社,和歌山県みなべ町西本庄1791-2,,,,1,1,,,,,33.811318,135.327597,
243,E3039100050201,須賀神社前,和歌山県みなべ町西本庄242,,,,1,1,,,,,33.799194,135.32625,
244,E3039100051201,水越観音前,和歌山県みなべ町西本庄472-1,,,,1,1,,,,,33.805203,135.322426,
245,E3039100052201,西本庄区民会館,和歌山県みなべ町西本庄746,,,,1,1,,,,,33.806560298645,135.32639845701,
246,E3039100053201,西本庄多目的集会場,和歌山県みなべ町西本庄773,,,,1,1,,,,,33.80774,135.3273317,
247,E3039100047201,瓜谷地区上,和歌山県みなべ町西本庄１２４外,,,,1,1,,,,,33.796145,135.324464,
248,E3039100048201,瓜谷地区下,和歌山県みなべ町西本庄１５２－１外,,,,1,1,,,,,33.795111,135.325805,
249,E3039100055201,特別養護老人ホームときわ寮梅の里,和歌山県みなべ町滝469,1,,1,,,,1,,,33.841167950737,135.35003520222,
250,E3039100056201,高城中学校　体育館,和歌山県みなべ町滝81,1,,1,,,,1,,1,33.848856273126,135.35569964796,
251,E3039100057201,みなべ町生涯学習センター,和歌山県みなべ町谷口301-4,1,1,1,1,1,,1,,1,33.791589,135.330586,
252,E3039100058201,うめ振興館,和歌山県みなべ町谷口538-1,1,1,1,1,1,,1,,1,33.790697,135.327094,
253,E3039100059201,上南部小学校　校舎,和歌山県みなべ町谷口549,,,,1,1,,,,1,33.791142,135.32843,
254,E3039100059202,上南部小学校　体育館,和歌山県みなべ町谷口549,1,1,1,,,,1,,1,33.790838570245,135.32777792898,
255,E3039100060201,片山地区南紀用水ポンプ場,和歌山県みなべ町谷口730-1,,,,1,1,,,,,33.790064,135.323831,
256,E3039100061201,高城小学校　体育館,和歌山県みなべ町土井431,1,1,1,,,,1,,1,33.85362901977,135.35056092615,
257,E3039100062201,東岩代地区三尾正明倉庫,和歌山県みなべ町東岩代159-2,,,,1,1,,,,,33.778494,135.284328,
258,E3039100063201,久木会場,和歌山県みなべ町東岩代1625-1,,,,1,1,,,,,33.795577,135.2963613,
259,E3039100064201,ひかり保育所,和歌山県みなべ町東岩代2059,,,,1,1,,,,,33.7859587,135.286457,
260,E3039100065201,東岩代地区木下宅裏山,和歌山県みなべ町東岩代649,,,,1,1,,,,,33.781352,135.287659,
261,E3039100066201,東中村会場,和歌山県みなべ町東岩代785-1,,,,,1,,,,,33.7821264,135.2883715,
262,E3039100067201,鎌田池公園,和歌山県みなべ町東吉田459,,,,1,1,,,,,33.774422969328,135.32768437825,
263,E3039100068201,みなべ町保健福祉センター,和歌山県みなべ町東本庄100,1,1,1,,,,1,,1,33.787830135934,135.32827587882,
264,E3039100069201,東本庄地区堀本光生様宅,和歌山県みなべ町東本庄274,,,,1,1,,,,,33.793811,135.336291,
265,E3039100072201,東本庄区民会館,和歌山県みなべ町東本庄571,,,,,1,,,,,33.7983309,135.3311157,
266,E3039100073201,来迎寺,和歌山県みなべ町東本庄897,,,,,1,,,,,33.8004389,135.3320534,
267,E3039100074201,上南部中学校　体育館,和歌山県みなべ町東本庄91,1,1,1,,,,1,,1,33.792612797025,135.3312396975,
268,E3039100070201,東本庄地区永井恒雄宅前,和歌山県みなべ町東本庄２９５－３外,,,,1,1,,,,,33.794972,135.336604,
269,E3039100071201,東本庄地区赤坂弘治宅前空地,和歌山県みなべ町東本庄３８１－２外,,,,1,1,,,,,33.798436,135.335316,
270,E3039100075201,閉谷政井谷二号橋付近,和歌山県みなべ町徳蔵384-15,,,,1,1,,,,,33.782864,135.317866,
271,E3039100076201,みなべＩＣ駐車場,和歌山県みなべ町徳蔵74-3,,,,1,1,,,,,33.780273,135.326647,
272,E3039100078201,晩稲地区小殿神社,和歌山県みなべ町晩稲1309-1,,,,1,1,,,,,33.783389682693,135.34229546893,
273,E3039100079201,晩稲地区薬師堂,和歌山県みなべ町晩稲1358,,,,1,1,,,,,33.783524,135.339195,
274,E3039100080201,晩稲地区観音,和歌山県みなべ町晩稲291,,,,1,1,,,,,33.789016,135.33728,
275,E3039100081201,大谷会館,和歌山県みなべ町晩稲640-19,,,,1,1,,,,,33.794866,135.341748,
276,E3039100077201,晩稲地区小川恒則宅前,和歌山県みなべ町晩稲１０１８外,,,,1,1,,,,,33.786234,135.34111,
277,E3039100082202,南部小学校　校舎,和歌山県みなべ町北道289,,,,1,1,,,,1,33.7662,135.32164,
278,E3039100082201,南部小学校　体育館,和歌山県みなべ町北道289,1,1,1,,,,1,,1,33.766532212141,135.32160060875,
279,E3039000001201,上野山,和歌山県印南町印南1484,,,,1,1,,,,,33.815784,135.216844,
280,E3039000002201,若もの広場,和歌山県印南町印南1559-1,,,,1,1,,,,,33.824501,135.218573,
281,E3039000003201,印南変電所上,和歌山県印南町印南1616-3,,,,1,1,,,,,33.824483,135.221064,
282,E3039000004201,津波避難タワー,和歌山県印南町印南1757-6,,,,1,1,,,,,33.81327,135.218793,
283,E3039000005201,要害山,和歌山県印南町印南1866-2,,,,1,1,,,,,33.81523,135.217741,
284,E3039000006201,印南小学校,和歌山県印南町印南1915,1,1,1,1,1,1,1,,,33.81672331,135.2178689,
285,E3039000007201,印南町体育センター,和歌山県印南町印南2012,1,1,1,1,1,1,1,,,33.8186392,135.2175337,
286,E3039000008201,庚申坂付近,和歌山県印南町印南2031-1,,,,1,1,,,,,33.818518,135.214611,
287,E3039000009201,片見谷入口付近,和歌山県印南町印南2040-2,,,,1,1,,,,,33.820652,135.215187,
288,E3039000010201,印南浄水場,和歌山県印南町印南2193-3,,,,1,1,,,,,33.82341172,135.2179561,
289,E3039000011201,東光寺奥,和歌山県印南町印南2332,,,,1,1,,,,,33.813169,135.223319,
290,E3039000012201,かえる大橋,和歌山県印南町印南2441-1,,,,1,1,,,,,33.822247,135.222634,
291,E3039000013201,宇杉ヶ丘,和歌山県印南町印南2721-38,,,,1,1,,,,,33.816303,135.224083,
292,E3039000014201,光川ＪＲトンネル奥,和歌山県印南町印南2876,,,,1,1,,,,,33.812082,135.226213,
293,E3039000015201,印南大権現周辺,和歌山県印南町印南2973-1,,,,1,1,,,,,33.812572,135.22101,
294,E3039000016201,殿平,和歌山県印南町印南3256-7,,,,1,1,,,,,33.810998,135.220516,
295,E3039000017201,光川町道沿い空き地,和歌山県印南町印南3505,,,,1,1,,,,,33.810055,135.224422,
296,E3039000018201,いなみカントリークラブフジ,和歌山県印南町印南4064-1,1,1,,1,1,1,1,,,33.829926,135.233156,
297,E3039000019201,光川神社下,和歌山県印南町印南4479-1,,,,1,1,,,,,33.804511,135.223799,
298,E3039000020201,印南土地改良区事務所前,和歌山県印南町印南551-2,,,,1,1,,,,,33.81490874,135.2103654,
299,E3039000021201,叶神社付近,和歌山県印南町印南750,,,,1,1,,,,,33.813128,135.211919,
300,E3039000022201,稲原中学校,和歌山県印南町印南原1743,1,1,,1,1,1,1,,,33.859453,135.2270169,
301,E3039000023201,稲原小学校,和歌山県印南町印南原4850,1,1,,1,1,1,1,,,33.85956809,135.2338435,
302,E3039000024201,滝ノ口コミュニティーセンター,和歌山県印南町印南原698-2,1,1,,1,1,1,1,,,33.84915,135.227596,
303,E3039000025201,清流小学校,和歌山県印南町羽六776,1,1,,1,1,1,1,,,33.8387315,135.2624056,
304,E3039000026201,宮ノ前多目的共同利用施設,和歌山県印南町宮ノ前598,1,1,,1,1,1,1,,,33.824537,135.252411,
305,E3039000027201,清流中学校,和歌山県印南町古井5,1,1,,1,1,1,1,,,33.8488959,135.2656079,
306,E3039000028201,切目川防災センター,和歌山県印南町古井623,1,1,,1,1,1,1,,,33.8545233,135.2647985,
307,E3039000029201,古屋公民館,和歌山県印南町古屋249-3,1,1,,1,1,1,1,,,33.8212965,135.2549994,
308,E3039000030201,西山口高速側道,和歌山県印南町山口1023-3,,,,1,1,,,,,33.836344,135.220842,
309,E3039000031201,八幡神社,和歌山県印南町山口1217-1,,,,1,1,,,,,33.831692,135.221105,
310,E3039000032201,カルフール・ド・ルポ印南,和歌山県印南町山口150-1,1,1,1,1,1,1,1,,,33.82196571,135.2216007,
311,E3039000033201,仙光寺,和歌山県印南町山口558-1,,,,1,1,,,,,33.830783,135.225134,
312,E3039000034201,山口研修センター,和歌山県印南町山口636-1,1,1,,1,1,1,1,,,33.8323633,135.224084,
313,E3039000035201,西ノ地集会場,和歌山県印南町西ノ地1370-2,1,1,1,1,1,1,1,,,33.8042671,135.2446867,
314,E3039000036201,丸山,和歌山県印南町西ノ地1402,,,,1,1,,,,,33.80382,135.245215,
315,E3039000037201,千手観音,和歌山県印南町西ノ地1860-1,,,,1,1,,,,,33.80794,135.243936,
316,E3039000038201,元村コミュニティーセンター,和歌山県印南町西ノ地210,1,1,1,1,1,1,1,,,33.800832,135.235481,
317,E3039000039201,高垣集会所上墓地,和歌山県印南町西ノ地2389,,,,1,1,,,,,33.81080411,135.2495741,
318,E3039000040201,切目小学校,和歌山県印南町西ノ地536,1,1,1,1,1,1,1,,,33.8023551,135.2354477,
319,E3039000041201,川又集会センター,和歌山県印南町川又334-2,1,1,,1,1,1,1,,,33.89542995,135.3573728,
320,E3039000042201,印南避難センター,和歌山県印南町大字印南1307,1,1,1,1,1,1,1,,1,33.81594085,135.2142552,
321,E3039000044201,印南町公民館,和歌山県印南町大字印南2009-1,1,1,1,1,1,1,1,,1,33.8181033,135.217675,
322,E3039000046201,宇杉研修施設,和歌山県印南町大字印南2340-1,1,1,1,1,1,1,1,,1,33.8140225,135.2214951,
323,E3039000047201,光川コミュニティセンター,和歌山県印南町大字印南3652-2,1,1,1,1,1,1,1,,1,33.8076687,135.2236382,
324,E3039000050201,稲原防災センター,和歌山県印南町大字印南原4850,1,1,,1,1,1,1,,1,33.86017318,135.2327195,
325,E3039000055201,ラ・グレースゴルフクラブ,和歌山県印南町大字古井1145,1,1,1,1,1,1,1,,1,33.858864,135.279629,
326,E3039000060201,いなみこども園,和歌山県印南町大字山口150-3,1,1,1,1,1,1,1,,1,33.822568003368,135.2228862648,
327,E3039000062201,松原コミュニティセンター,和歌山県印南町大字松原90-1,1,1,,1,1,1,1,,1,33.8703548,135.2801753,
328,E3039000063201,上洞生活改善センター,和歌山県印南町大字上洞1039-1,1,1,,1,1,1,1,,1,33.8851745,135.3422488,
329,E3039000073201,弘龍庵,和歌山県印南町大字島田1869-1,1,1,1,1,1,1,1,,1,33.788521,135.235727,
330,E3039000075201,南谷公民館,和歌山県印南町大字南谷712,1,1,,1,1,1,1,,1,33.863914,135.199143,
331,E3039000076201,紀南カントリークラブ,和歌山県印南町大字南谷925,1,1,,1,1,1,1,,1,33.852025,135.2105,
332,E3039000078201,丹生多目的集会施設,和歌山県印南町丹生439-1,1,1,,1,1,1,1,,,33.86848406,135.2822996,
333,E3039000079201,津井コミュニティセンター,和歌山県印南町津井306,1,1,1,1,1,1,1,,,33.8146068,135.2042561,
334,E3039000080201,まづま保育園,和歌山県印南町田ノ垣内150-1,1,1,,1,1,1,1,,,33.87715094,135.3157534,
335,E3039000081201,寺ノ岡,和歌山県印南町島田1037,,,,1,1,,,,,33.797014,135.241978,
336,E3039000082201,島田集会所,和歌山県印南町島田1173-1,1,1,1,1,1,1,1,,,33.79610813,135.2413586,
337,E3039000083201,島田運動場,和歌山県印南町島田1393,,,,1,1,,,,,33.793198,135.242576,
338,E3039000084201,崎山漁村センター,和歌山県印南町島田1812-2,1,1,1,1,1,1,1,,,33.788045,135.236619,
339,E3039000085201,島田農免峠,和歌山県印南町島田2998,,,,1,1,,,,,33.79659855,135.2451334,
340,E3039000086201,名杭墓地付近,和歌山県印南町島田311-5,,,,1,1,,,,,33.806301,135.252886,
341,E3039000087201,楠本集会所上,和歌山県印南町島田92,,,,1,1,,,,,33.813857,135.253072,
342,E3039000088201,みずほ会館,和歌山県印南町南谷102,1,1,,1,1,1,1,,,33.8695303,135.1862423,
343,E3039000089201,樮川集会場,和歌山県印南町樮川707,1,1,,1,1,1,1,,,33.8445945,135.2860842,
344,E3020200003201,井田地蔵寺,和歌山県海南市井田102,,,,,1,,,,,34.157117,135.222138,
345,E3020200004201,岡田八幡宮周辺,和歌山県海南市岡田1181,,,,,1,,,,,34.18886216,135.2278674,
346,E3020200005201,山崎団地,和歌山県海南市岡田1233-5,,,,,1,,,,,34.172527,135.210364,
347,E3020200006201,元プライスカット駐車場周辺,和歌山県海南市岡田611-1,,,,,1,,,,,34.168808,135.209739,
348,E3020200007201,教法寺,和歌山県海南市岡田698,,,,,1,,,,,34.168536,135.213646,
349,E3020200008201,弘誓寺,和歌山県海南市岡田780,,,,,1,,,,,34.168905,135.219403,
350,E3020200009201,専応寺,和歌山県海南市岡田975-1,,,,,1,,,,,34.173166,135.215112,
351,E3020200010201,地福寺,和歌山県海南市岡田992,,,,,1,,,,,34.19133603,135.2105511,
352,E3020200011201,沖野々スポーツ広場,和歌山県海南市沖野々278-1,,,,1,,1,,,,34.163413,135.273082,
353,E3020200012201,沖野々公園,和歌山県海南市沖野々278-6,,,,1,,1,,,,34.16370481,135.2723022,
354,E3020200013201,きらら子ども園,和歌山県海南市沖野々434,1,1,,1,,,,,1,34.159611,135.273844,
355,E3020200014201,住民センター,和歌山県海南市沖野々443-5,1,1,,1,,,,,1,34.1604143,135.2736727,
356,E3020200015201,旧仁義小学校,和歌山県海南市下津町引尾756-1,1,1,,1,,,,,1,34.123081,135.220868,
357,E3020200016201,教徳寺周辺,和歌山県海南市下津町塩津82,,,,,1,,,,,34.134815,135.16536,
358,E3020200017201,極楽寺周辺,和歌山県海南市下津町塩津881,,,,,1,,,,,34.132615,135.165954,
359,E3020200018201,旧塩津小学校（塩津公民館）,和歌山県海南市下津町塩津908,1,1,,1,1,,,,1,34.131978,135.165414,
360,E3020200019201,下津第二中学校,和歌山県海南市下津町下287-2,1,1,,1,,,,,1,34.128197,135.164593,
361,E3020200019202,下津第二中学校（３階）,和歌山県海南市下津町下287-2,,,,,1,,,,1,34.12815251,135.1644711,
362,E3020200020201,加茂神社,和歌山県海南市下津町下567,,,,,1,,,,,34.130947,135.168724,
363,E3020200021201,楠戸山中腹周辺,和歌山県海南市下津町下津119,,,,,1,,,,,34.113017,135.147243,
364,E3020200022201,阿弥陀寺上の道路,和歌山県海南市下津町下津1331,,,,,1,,,,,34.107084,135.142542,
365,E3020200023201,外瀬山周辺,和歌山県海南市下津町下津1514,,,,,1,,,,,34.108782,135.140119,
366,E3020200024201,大正池周辺,和歌山県海南市下津町下津1831,,,,,1,,,,,34.106661,135.137522,
367,E3020200025201,西方寺周辺,和歌山県海南市下津町下津2464,,,,,1,,,,,34.108699,135.135269,
368,E3020200026201,港ふれあい公園,和歌山県海南市下津町下津27-3,,,,1,1,1,,,,34.114485,135.145814,
369,E3020200027201,下津港湾防災管理事務所,和歌山県海南市下津町下津3066-16,1,1,,1,,,,,1,34.1110193,135.1445282,
370,E3020200028201,下津最終処分場周辺,和歌山県海南市下津町下津3103,,,,,1,,,,,34.113557,135.128257,
371,E3020200029201,市道赤松楠戸線周辺,和歌山県海南市下津町下津341,,,,,1,,,,,34.110752,135.149018,
372,E3020200030202,下津小学校（３階）,和歌山県海南市下津町下津477,,,,,1,,,,1,34.10928527,135.1522754,
373,E3020200030201,下津小学校,和歌山県海南市下津町下津477,1,1,,1,,,,,1,34.109713,135.153443,
374,E3020200031204,海南市民交流センター（３階）,和歌山県海南市下津町下津500-1,,,,,1,,,,1,34.1088396,135.1509252,
375,E3020200031202,海南市民交流センター,和歌山県海南市下津町下津500-1,1,1,,1,,,,,1,34.10891751,135.1509256,
376,E3020200031201,拝待体育館,和歌山県海南市下津町下津500-1,1,1,,1,,,,,1,34.1089604,135.150189,
377,E3020200031203,海南市民交流センター立体駐車場（最上段）,和歌山県海南市下津町下津500-1,,,,,1,,,,1,34.109373,135.150404,
378,E3020200032201,下津第一中学校,和歌山県海南市下津町下津500-2,1,1,,1,,,,,1,34.10900246,135.1513865,
379,E3020200033201,下津消防署（屋上）,和歌山県海南市下津町下津518-6,,,,,1,,,,,34.109344,135.149725,
380,E3020200034201,紀文レストラン駐車場,和歌山県海南市下津町下津705,,,,,1,,,,,34.108474,135.145816,
381,E3020200035201,かぐのみ苑周辺,和歌山県海南市下津町丸田1111-1,,,,,1,,,,1,34.133827,135.157338,
382,E3020200037201,戸坂峠,和歌山県海南市下津町丸田1158,,,,,1,,,,,34.135536,135.156528,
383,E3020200038201,下津防災コミュニティセンター,和歌山県海南市下津町丸田217-1,1,1,,1,,,,,1,34.12534013,135.1559798,
384,E3020200038202,下津防災コミュニティセンター（屋上）,和歌山県海南市下津町丸田217-1,,,,,1,,,,1,34.12528684,135.1558994,
385,E3020200040201,大東小学校周辺農道,和歌山県海南市下津町丸田384,,,,,1,,,,,34.125534,135.152352,
386,E3020200041201,海南下津高等学校,和歌山県海南市下津町丸田87,1,1,,1,,,,,,34.127646,135.157686,
387,E3020200041202,海南下津高等学校（３階）,和歌山県海南市下津町丸田87,,,,,1,,,,,34.1275835,135.1575751,
388,E3020200042201,黒田地区高台,和歌山県海南市下津町黒田186,,,,,1,,,,,34.122446,135.159543,
389,E3020200043201,旧加茂第二小学校,和歌山県海南市下津町市坪240,1,1,,1,,,,,1,34.116193,135.196058,
390,E3020200044201,拝待団地周辺,和歌山県海南市下津町小原1495,,,,,1,,,,,34.10695833,135.1512667,
391,E3020200045201,加茂川小学校,和歌山県海南市下津町小松原23,1,1,,1,,,,,1,34.124657,135.186504,
392,E3020200188201,海南サクアス（屋外）,和歌山県海南市下津町小南51-1,,,,,1,,,,,34.128274,135.169837,
393,E3020200046202,下津保健福祉センター（屋上）,和歌山県海南市下津町上14-6,,,,,1,,,,1,34.11646256,135.1540582,
394,E3020200046201,下津保健福祉センター,和歌山県海南市下津町上14-6,1,1,,1,,,,,1,34.116064,135.153909,
395,E3020200047201,こじか保育所,和歌山県海南市下津町上2-1,1,1,,1,,,,,1,34.1165411,135.1547584,
396,E3020200048201,上公民館周辺,和歌山県海南市下津町上356-40,,,,,1,,,,,34.109054927617,135.15798947762,
397,E3020200049201,方集会所周辺高台,和歌山県海南市下津町上48-7,,,,,1,,,,,34.114645,135.15284,
398,E3020200050201,女良農道周辺,和歌山県海南市下津町大崎1336,,,,,1,,,,,34.132937,135.148794,
399,E3020200051201,女良古墳周辺,和歌山県海南市下津町大崎1373-2,,,,,1,,,,,34.13077494,135.1462508,
400,E3020200052201,万葉歌碑周辺,和歌山県海南市下津町大崎2,,,,,1,,,,,34.12773,135.134497,
401,E3020200053201,常行寺周辺,和歌山県海南市下津町大崎357,,,,,1,,,,,34.132921,135.132806,
402,E3020200054201,大崎地区集会所,和歌山県海南市下津町大崎378-1,1,1,,1,1,,,,1,34.133308,135.13334,
403,E3020200056201,旧大崎小学校,和歌山県海南市下津町大崎383,1,,,1,1,,,,1,34.133619768994,135.13353152091,
404,E3020200057201,願称寺周辺,和歌山県海南市下津町大崎398,,,,,1,,,,,34.132213,135.133924,
405,E3020200058201,大崎グラウンド,和歌山県海南市下津町大崎884,,,,,1,,,,,34.1358956,135.131208,
406,E3020200059201,三郷八幡神社参道,和歌山県海南市下津町丁160,,,,,1,,,,,34.122978,135.156456,
407,E3020200060201,三郷八幡神社,和歌山県海南市下津町丁238,,,,,1,,,,,34.121327,135.16058,
408,E3020200061201,丁区パイロット農道周辺,和歌山県海南市下津町丁500,,,,,1,,,,,34.118387,135.158026,
409,E3020200062201,梅田ゲートボール場,和歌山県海南市下津町梅田552-3,,,,1,,1,,,,34.129855,135.178764,
410,E3020200063202,大東小学校（屋上）,和歌山県海南市下津町方1,,,,,1,,,,1,34.12336224,135.1521802,
411,E3020200063201,大東小学校,和歌山県海南市下津町方1,1,1,,1,,,,,1,34.123405,135.15227,
412,E3020200064201,宮ノ谷地区裏山周辺,和歌山県海南市下津町方1092,,,,,1,,,,,34.118018,135.149989,
413,E3020200065201,禅定寺,和歌山県海南市下津町方1157,,,,,1,,,,,34.120461,135.147318,
414,E3020200066201,市道硯楠戸線周辺,和歌山県海南市下津町方1334,,,,,1,,,,,34.118768,135.144571,
415,E3020200067201,硯地区裏山周辺,和歌山県海南市下津町方1430,,,,,1,,,,,34.122623,135.145907,
416,E3020200068201,横山農道周辺,和歌山県海南市下津町方1665-4,,,,,1,,,,,34.127453,135.143624,
417,E3020200070201,高田機工（株）高友寮（屋上）,和歌山県海南市下津町方389,,,,,1,,,,,34.12303045,135.1491332,
418,E3020200072201,方北地区高台③,和歌山県海南市下津町方731,,,,,1,,,,,34.126076,135.148435,
419,E3020200073201,方北地区高台②,和歌山県海南市下津町方793,,,,,1,,,,,34.124809,135.149773,
420,E3020200074201,方北地区高台①,和歌山県海南市下津町方840,,,,,1,,,,,34.123949,135.150479,
421,E3020200075201,旧街道,和歌山県海南市下津町方867,,,,,1,,,,,34.119197,135.154476,
422,E3020200076201,小島谷農道周辺,和歌山県海南市下津町方976,,,,,1,,,,,34.115689,135.151798,
423,E3020200077201,大明神池周辺,和歌山県海南市且来1028,,,,,1,,,,,34.165984,135.236968,
424,E3020200078201,大明神池東,和歌山県海南市且来1065,,,,,1,,,,,34.167249,135.236521,
425,E3020200079201,大明神池西,和歌山県海南市且来1069-5,,,,,1,,,,,34.166455,135.235792,
426,E3020200080201,松尾寺周辺,和歌山県海南市且来1221,,,,,1,,,,,34.174432,135.237649,
427,E3020200081201,且来八幡神社西参道,和歌山県海南市且来1316,,,,,1,,,,,34.170012,135.238796,
428,E3020200082201,温水プール周辺,和歌山県海南市且来1387-3,,,,,1,,,,,34.163904,135.227838,
429,E3020200083201,弁財天山周辺,和歌山県海南市且来1472,,,,,1,,,,,34.17395327,135.233138,
430,E3020200084201,亀川公民館,和歌山県海南市且来272,1,1,,1,,,,,1,34.1718534,135.2383755,
431,E3020200085201,且来八幡神社東参道,和歌山県海南市且来625,,,,,1,,,,,34.17116,135.240893,
432,E3020200086201,亀川小学校,和歌山県海南市且来655,1,1,,1,,,,,1,34.171471,135.238447,
433,E3020200087201,且来招魂山周辺,和歌山県海南市且来840,,,,,1,,,,,34.171101,135.229801,
434,E3020200088201,永楽寺,和歌山県海南市且来866,,,,,1,,,,,34.16576461,135.2127634,
435,E3020200089201,二つ池周辺高台,和歌山県海南市且来922,,,,,1,,,,,34.168871,135.226907,
436,E3020200090201,亀川中学校,和歌山県海南市且来990,1,1,,1,,,,,1,34.170528,135.237647,
437,E3020200091201,北野上公民館,和歌山県海南市原野326-3,1,1,,1,,,,,1,34.1842552,135.2975071,
438,E3020200092201,池崎山西側周辺,和歌山県海南市黒江1237,,,,,1,,,,,34.160312,135.205359,
439,E3020200093201,室山地区高台,和歌山県海南市黒江127,,,,,1,,,,,34.169155,135.205548,
440,E3020200094202,黒江・船尾地区避難所周辺,和歌山県海南市黒江222,,,,,1,,,,1,34.168593307905,135.20757678057,
441,E3020200094201,黒江・船尾地区避難所,和歌山県海南市黒江222,1,1,,1,1,,,,1,34.168332033498,135.20725060418,
442,E3020200096201,室山配水池周辺,和歌山県海南市黒江265,,,,,1,,,,,34.16647305,135.2076538,
443,E3020200097201,室山古墳登山道周辺,和歌山県海南市黒江47,,,,,1,,,,,34.172455,135.206388,
444,E3020200098201,中言神社周辺,和歌山県海南市黒江931,,,,,1,,,,,34.164293,135.205934,
445,E3020200099201,浄國寺周辺,和歌山県海南市黒江976,,,,,1,,,,,34.163486,135.204326,
446,E3020200101201,巽コミュニティセンター,和歌山県海南市阪井274,1,1,,1,,,,,1,34.1573677,135.2552781,
447,E3020200102201,巽中学校,和歌山県海南市阪井399,1,1,,1,,,,,1,34.154109,135.256967,
448,E3020200104201,大野小学校,和歌山県海南市山田91-1,1,1,,1,1,,,,1,34.149337,135.228093,
449,E3020200105202,南野上小学校,和歌山県海南市次ケ谷80,1,1,,1,,,,,1,34.148234,135.271575,
450,E3020200105201,南野上公民館,和歌山県海南市次ケ谷80,1,1,,1,,,,,1,34.1477157,135.2713129,
451,E3020200107201,巽小学校,和歌山県海南市重根1203,1,1,,1,,,,,1,34.155268,135.256275,
452,E3020200113201,招魂山ちびっ子広場周辺,和歌山県海南市船尾19-3,,,,,1,,,,,34.16256,135.203107,
453,E3020200114202,黒江防災コミュニティセンター（屋上）,和歌山県海南市船尾222-21,,,,,1,,,,1,34.16060213,135.2037522,
454,E3020200114201,黒江防災コミュニティセンター,和歌山県海南市船尾222-21,1,1,,1,,,,,1,34.16066,135.203753,
455,E3020200115201,黒江小学校,和歌山県海南市船尾236-4,1,1,,1,,,,,1,34.1593289,135.2004853,
456,E3020200115202,黒江小学校（屋上）,和歌山県海南市船尾236-4,,,,,1,,,,1,34.15926685,135.2000048,
457,E3020200116201,日本製鉄避難マウンド,和歌山県海南市船尾260-100,,,,,1,,,,,34.155868,135.200295,
458,E3020200117201,海南スポーツセンター,和歌山県海南市船尾260-3,1,1,,1,,,,,1,34.15830794,135.198656,
459,E3020200117202,海南スポーツセンター（屋上）,和歌山県海南市船尾260-3,,,,,1,,,,1,34.15826856,135.198791,
460,E3020200118201,恵友病院（６階）,和歌山県海南市船尾264-2,,,,,1,,,,,34.159093,135.199274,
461,E3020200119201,とんだ池周辺,和歌山県海南市船尾297,,,,,1,,,,,34.162267,135.19956,
462,E3020200120201,㈱キンタロー駐車場周辺,和歌山県海南市船尾317-2,,,,,1,,,,,34.161003,135.198036,
463,E3020200121201,船尾山ハイキングコース周辺,和歌山県海南市船尾342-7,,,,,1,,,,,34.16189,135.195958,
464,E3020200122201,石本病院（屋上）,和歌山県海南市船尾365,,,,,1,,,,,34.15926,135.195433,
465,E3020200123201,ホテル裏側周辺,和歌山県海南市船尾398-1,,,,,1,,,,,34.16054,135.193729,
466,E3020200124201,妙覚寺周辺,和歌山県海南市船尾622,,,,,1,,,,,34.162837,135.201205,
467,E3020200125201,猪ノ子山周辺,和歌山県海南市多田1404,,,,,1,,,,,34.175844,135.236441,
468,E3020200126201,国主神社周辺,和歌山県海南市多田714,,,,,1,,,,,34.17785378,135.240495,
469,E3020200186201,海南中央公園（市民運動場、わんぱく公園）,和歌山県海南市大野中1006,,,,,1,1,,,,34.157675,135.231325,
470,E3020200129201,春日ふれあい広場,和歌山県海南市大野中1056,,,,,1,,,,,34.156578,135.225792,
471,E3020200128201,井田児童会館跡地周辺,和歌山県海南市大野中1056-6,,,,,1,,,,,34.155044,135.223645,
472,E3020200130201,総合体育館周辺,和歌山県海南市大野中1106,,,,,1,,,,,34.15644457,135.230566,
473,E3020200131201,春日神社周辺,和歌山県海南市大野中340,,,,,1,,,,,34.156354,135.226792,
474,E3020200132201,大野公民館,和歌山県海南市大野中600-2,1,1,,1,,,,,1,34.1528031,135.226563,
475,E3020200133201,県立海南高等学校,和歌山県海南市大野中651,1,1,,1,,,,,1,34.155168,135.227785,
476,E3020200134201,わんぱく公園周辺,和歌山県海南市大野中995-2,,,,,1,,,,,34.158003,135.232778,
477,E3020200135201,スーパーセンターオークワ海南店（屋上駐車場）,和歌山県海南市築地1-1,,,,,1,,,,,34.152225008131,135.20765325972,
478,E3020200136201,第三中学校,和歌山県海南市鳥居15-3,1,1,,1,,,,,1,34.15242332,135.2187126,
479,E3020200136202,第三中学校（４階）,和歌山県海南市鳥居15-3,,,,,1,,,,1,34.15237005,135.2185838,
480,E3020200137201,内海小学校,和歌山県海南市鳥居190,1,1,,1,,,,,1,34.14967643,135.2139085,
481,E3020200137202,内海小学校（屋上）,和歌山県海南市鳥居190,,,,,1,,,,1,34.14953288,135.2138544,
482,E3020200138201,日限地蔵周辺,和歌山県海南市鳥居284,,,,,1,,,,,34.14826,135.215978,
483,E3020200139201,寶性院周辺,和歌山県海南市鳥居420-3,,,,,1,,,,,34.146634,135.21871,
484,E3020200140201,小中地蔵周辺,和歌山県海南市鳥居518,,,,,1,,,,,34.149251,135.221178,
485,E3020200141201,内海公民館,和歌山県海南市鳥居650-1,1,1,,1,,,,,1,34.1502993,135.2111551,
486,E3020200142201,内海保育所,和歌山県海南市鳥居69,1,1,,1,,,,,1,34.1500278,135.2193171,
487,E3020200143201,藤白神社周辺,和歌山県海南市藤白466,,,,,1,,,,,34.144325,135.209395,
488,E3020200144202,日方小学校（屋上）,和歌山県海南市日方1257,,,,,1,,,,1,34.15734439,135.2104157,
489,E3020200144201,日方小学校,和歌山県海南市日方1257,1,1,,1,,,,,1,34.157255,135.210305,
490,E3020200145201,クレンツ海南（屋上）,和歌山県海南市日方1271-99,,,,,1,,,,,34.155899,135.209113,
491,E3020200146201,パル・シャトー海南（４階以上）,和歌山県海南市日方1272-1,,,,,1,,,,,34.157164,135.208326,
492,E3020200147201,みらい子ども園,和歌山県海南市日方1272-3,1,1,,1,,,,,1,34.156092374237,135.20836001155,
493,E3020200148202,海南合同宿舎１号棟（５階以上）,和歌山県海南市日方1274-3,,,,,1,,,,,34.1559356,135.2062377,
494,E3020200148201,海南合同宿舎２号棟（５階以上）,和歌山県海南市日方1274-3,,,,,1,,,,,34.15610204,135.2061302,
495,E3020200149201,マンションニューハマ（屋上）,和歌山県海南市日方1289-27,,,,,1,,,,,34.153917,135.208432,
496,E3020200150201,防災センター（海南市消防本部）,和歌山県海南市日方1294-13,1,1,,1,,,,,1,34.156596,135.20522,
497,E3020200150202,防災センター（３階）,和歌山県海南市日方1294-13,,,,,1,,,,1,34.15675765,135.2051894,
498,E3020200151201,公園地山,和歌山県海南市日方1307,,,,,1,,,,,34.15953144,135.2109942,
499,E3020200152201,池崎山津波避難場所,和歌山県海南市日方138,,,,,1,,,,,34.161145057634,135.20670067453,
500,E3020200153201,上神田地区高台周辺,和歌山県海南市日方1397,,,,,1,,,,,34.160194,135.219968,
501,E3020200154201,日方集会所奥高台,和歌山県海南市日方1401,,,,,1,,,,,34.160876,135.2216,
502,E3020200155201,城山地区集会所周辺,和歌山県海南市日方149-1,,,,,1,,,,,34.15769023,135.2048312,
503,E3020200156201,県営駅前団地（４階以上）,和歌山県海南市日方1500-6,,,,,1,,,,,34.155824,135.213942,
504,E3020200157201,海南駅前改良住宅第２号棟（４階以上）,和歌山県海南市日方1515-14,,,,,1,,,,,34.15553,135.211923,
505,E3020200157202,海南駅前改良住宅第１号棟（４階以上）,和歌山県海南市日方1515-14,,,,,1,,,,,34.155375664237,135.21125607241,
506,E3020200158201,海南保健福祉センター,和歌山県海南市日方1519-10,1,1,,1,,,,,1,34.155533,135.210198,
507,E3020200158202,海南保健福祉センター（３階）,和歌山県海南市日方1519-10,,,,,1,,,,1,34.15543596,135.2102089,
508,E3020200159201,和歌山プリンスイン海南（４階以上）,和歌山県海南市日方1521-1,,,,,1,,,,,34.154388,135.211075,
509,E3020200160201,海南医療センター（屋上）,和歌山県海南市日方1522-1,,,,,1,,,,,34.15382035,135.2104685,
510,E3020200161201,海南ｎｏｂｉｎｏｓ,和歌山県海南市日方1525-6,1,1,,1,,,,,1,34.155059811199,135.20922009979,
511,E3020200161202,海南ｎｏｂｉｎｏｓ（屋上）,和歌山県海南市日方1525-6,,,,,1,,,,1,34.155361833472,135.20939347223,
512,E3020200162201,谷口病院（６階）,和歌山県海南市日方327-11,,,,,1,,,,,34.158079972493,135.20888165194,
513,E3020200163201,柿本神社,和歌山県海南市日方600,,,,,1,,,,,34.159971,135.213403,
514,E3020200164201,元火葬場周辺,和歌山県海南市日方788,,,,,1,,,,,34.16183611,135.2178083,
515,E3020200165201,神田地蔵寺,和歌山県海南市日方828,,,,,1,,,,,34.160209,135.218045,
516,E3020200166201,日方公民館,和歌山県海南市日方839,1,1,,1,,,,,1,34.1598067,135.2189838,
517,E3020200167201,海南中学校,和歌山県海南市日方962-2,1,1,,1,,,,,1,34.158545,135.221198,
518,E3020200167202,海南中学校（屋上）,和歌山県海南市日方962-2,,,,,1,,,,1,34.15860541,135.2213233,
519,E3020200168201,別院広場,和歌山県海南市別院636-1,,,,1,,1,,,,34.16676007,135.2835782,
520,E3020200170201,中野上小学校,和歌山県海南市椋木93,1,1,,1,,,,,1,34.1602537,135.2856949,
521,E3020200171201,ＪＲ海南駅（プラットホーム）,和歌山県海南市名高187-8,,,,,1,,,,,34.154359,135.214337,
522,E3020200172201,海南駅前広場,和歌山県海南市名高530,,,,1,,1,,,,34.15435031,135.2135838,
523,E3020200173201,北野上小学校,和歌山県海南市孟子174,1,1,,1,,,,,1,34.1835526,135.2926409,
524,E3020200177201,東部運動場,和歌山県海南市木津382,,,,1,,1,,,,34.15144714,135.2784498,
525,E3020200178201,中野上公民館,和歌山県海南市野上中167-5,,1,,1,,,,,1,34.162581,135.279089,
526,E3020200179201,東海南中学校,和歌山県海南市野上中590,1,1,,1,,,,,1,34.164831,135.283374,
527,E3020200180201,国道４２号冷水駅前バス停周辺,和歌山県海南市冷水308,,,,,1,,,,,34.141202,135.193434,
528,E3020200181201,冷水集会所,和歌山県海南市冷水325-31,1,1,,1,,,,,1,34.14333529,135.1915009,
529,E3020200182201,国道４２号冷水中バス停周辺,和歌山県海南市冷水379,,,,,1,,,,,34.141235,135.19164,
530,E3020200183201,国道４２号冷水バス停周辺,和歌山県海南市冷水598,,,,,1,,,,,34.141253,135.189353,
531,E3020200184201,冷水地区避難所,和歌山県海南市冷水630-1,1,1,,1,,,,,1,34.141074400875,135.18876146062,
532,E3020900001201,岡田集会所,和歌山県岩出市岡田463,1,1,,1,,,1,,,34.259029791263,135.33053187684,
533,E3020900002201,岡田児童館,和歌山県岩出市岡田643-4,1,1,,1,,,1,,,34.258492116538,135.33547893095,
534,E3020900003201,蔵谷公園,和歌山県岩出市紀泉台427-2,1,1,,1,,,1,,,34.282445,135.290328,
535,E3020900004201,紀泉台地区公民館,和歌山県岩出市紀泉台428,1,1,,1,,,1,,1,34.281657887832,135.29066019253,
536,E3020900005201,紀泉台公園１,和歌山県岩出市紀泉台481,1,1,,1,,,1,,,34.280432143442,135.28928190406,
537,E3020900006201,荒神公園,和歌山県岩出市紀泉台75,1,1,,1,,,1,,,34.282674353626,135.29416375377,
538,E3020900007201,紀泉台グラウンド,和歌山県岩出市紀泉台96-2,1,1,,1,,,1,,,34.282645,135.291122,
539,E3020900008201,紀泉台公園２,和歌山県岩出市紀泉台96-38,1,1,,1,,,1,,,34.282953196751,135.29220056158,
540,E3020900009201,吉田団地公園,和歌山県岩出市吉田92-2,1,1,,1,,,1,,,34.268132773829,135.2764900692,
541,E3020900047201,境谷地区避難場所,和歌山県岩出市境谷254,1,,,1,,,1,,,34.310024,135.277096,
542,E3020900010201,岩出市総合保健福祉センター（あいあいセンター）,和歌山県岩出市金池92,1,1,,1,,,1,,1,34.2742523074634,135.295545356052,
543,E3020900011201,岩出市民総合体育館,和歌山県岩出市荊本63-2,1,1,,1,,,1,,1,34.2638430143553,135.310322911467,
544,E3020900012201,岩出地区コミュニティセンター,和歌山県岩出市高塚11,1,1,,1,,,1,,1,34.253267680612,135.31999819253,
545,E3020900013201,那賀高等学校,和歌山県岩出市高塚115,1,1,,1,,,1,,1,34.2603276,135.3226577,
546,E3020900014201,若葉台公園,和歌山県岩出市今中170-8,1,1,,1,,,1,,,34.27946077655,135.31923690373,
547,E3020900015201,根来北集会所,和歌山県岩出市根来1162,1,1,,1,,,1,,,34.281823297453,135.30731749626,
548,E3020900016201,根来小学校,和歌山県岩出市根来479,1,1,,1,,,1,,1,34.2777485245544,135.309101685894,
549,E3020900017201,根来地区公民館（岩出市農業構造改善総合センター）,和歌山県岩出市根来535-2,1,1,,1,,,1,,1,34.276237577726,135.30897728846,
550,E3020900018201,くすのき公園,和歌山県岩出市桜台422,1,1,,1,,,1,,,34.279969590825,135.31673860362,
551,E3020900019201,さくら公園,和歌山県岩出市桜台423,1,1,,1,,,1,,,34.280832210975,135.31605509627,
552,E3020900020201,わんぱく広場,和歌山県岩出市桜台425,1,1,,1,,,1,,,34.282180112277,135.31783613492,
553,E3020900021201,けやき公園,和歌山県岩出市桜台426,1,1,,1,,,1,,,34.282744128845,135.31624687684,
554,E3020900022201,むくのき公園,和歌山県岩出市桜台427,1,1,,1,,,1,,,34.279352366991,135.317654,
555,E3020900023201,桜台地区公民館,和歌山県岩出市桜台494,1,1,,1,,,1,,1,34.27832843068,135.31399658848,
556,E3020900024201,山宮の浦公園,和歌山県岩出市山492-33,1,1,,1,,,1,,,34.276558099978,135.28171643842,
557,E3020900025201,サンホール,和歌山県岩出市山719,1,1,,1,,,1,,1,34.270818422682,135.282202,
558,E3020900026201,船山地区公民館,和歌山県岩出市山崎118-4,1,1,,1,,,1,,1,34.2478502762608,135.318923489804,
559,E3020900027201,上岩出公民館（岩出市農家高齢者創作館）,和歌山県岩出市水栖199-3,1,1,,1,,,1,,1,34.267927,135.32159936906,
560,E3020900028201,大池児童館,和歌山県岩出市水栖5-1,1,1,,1,,,1,,,34.267300734822,135.32755944996,
561,E3020900029201,上岩出小学校,和歌山県岩出市水栖514,1,1,,1,,,1,,1,34.2706341977998,135.325927511997,
562,E3020900030201,岩出小学校,和歌山県岩出市清水30,1,1,,1,,,1,,1,34.2510101865429,135.318509914035,
563,E3020900031201,岩出地区公民館,和歌山県岩出市清水386-12,1,1,,1,,,1,,1,34.255566315819,135.319014,
564,E3020900032201,いわで御殿,和歌山県岩出市清水5-1,1,1,,1,,,1,,,34.250815601087,135.31927823468,
565,E3020900033201,山崎北小学校,和歌山県岩出市西安上70,1,1,,1,,,1,,1,34.2763495027808,135.291645695158,
566,E3020900034201,東公園,和歌山県岩出市西国分491,1,1,,1,,,1,,,34.266343897397,135.33198887684,
567,E3020900035201,岩出市立体育館,和歌山県岩出市西野264,1,1,,1,,,1,,1,34.256382661781,135.309853899925,
568,E3020900036201,岩出中学校,和歌山県岩出市西野65,1,1,,1,,,1,,1,34.2618537042277,135.307421379052,
569,E3020900037201,中央小学校,和歌山県岩出市川尻202,1,1,,1,,,1,,1,34.2704028878452,135.316955633552,
570,E3020900038201,曽屋教育集会所,和歌山県岩出市曽屋456-5,1,1,,1,,,1,,,34.266127267798,135.30665907684,
571,E3020900039201,中黒団地公園,和歌山県岩出市相谷460-15,1,1,,1,,,1,,,34.273875889395,135.28651606904,
572,E3020900040201,山崎小学校,和歌山県岩出市中黒100,1,1,,1,,,1,,1,34.2677231811725,135.291581717592,
573,E3020900041201,山崎地区公民館,和歌山県岩出市中黒52-2,1,1,,1,,,1,,1,34.267097313948,135.29182478058,
574,E3020900042201,さぎのせ公園,和歌山県岩出市中島1183,1,1,,1,,,1,,,34.25723400505,135.27586896282,
575,E3020900043201,中島グリーンタウン南公園,和歌山県岩出市中島35-8,1,1,,1,,,1,,,34.258689889432,135.2857810269,
576,E3020900044201,上岩出地区コミュニティセンター,和歌山県岩出市北大池84-2,1,1,,1,,,1,,1,34.275866566769,135.32835087684,
577,E3020900045201,交通公園,和歌山県岩出市堀口41,1,1,,1,,,1,,,34.270617889914,135.30431949212,
578,E3020900046201,岩出第二中学校,和歌山県岩出市野上野155,1,1,,1,,,1,,1,34.274411946781,135.316107894577,
579,E3020800004201,丸栖コミュニティーセンター公園・広場,和歌山県紀の川市貴志川町丸栖658,1,1,,1,,,1,,1,34.232588,135.323233,
580,E3020800008201,中貴志小学校屋外運動場,和歌山県紀の川市貴志川町上野山55,1,1,,1,,,1,,1,34.216531,135.312204,
581,E3020800014201,長山ふれあい公園,和歌山県紀の川市貴志川町長山277-735,1,,,1,,,1,,,34.211165,135.286267,
582,E3020800015201,古和田会館・駐車場（第１・第２）,和歌山県紀の川市古和田626,1,1,,1,,,1,,,34.272975,135.354504,
583,E3020800016201,上名手小学校屋外運動場,和歌山県紀の川市江川中988,1,1,,1,,,1,,,34.293699,135.444565,
584,E3020800023201,道の駅　青洲の里駐車場・公園広場,和歌山県紀の川市西野山473,1,1,,1,,,1,,,34.281156,135.441258,
585,E3020800028201,長田小学校屋外運動場,和歌山県紀の川市長田中538,1,1,,1,,,1,,,34.273642,135.388408,
586,E3020800029201,紀伊国分寺跡公園,和歌山県紀の川市東国分573-3,1,1,,1,,,1,,,34.268618,135.339159,
587,E3020800030201,東国分公園（中児童公園）,和歌山県紀の川市東国分98-1,1,1,,1,,,1,,,34.26458,135.344711,
588,E3020800031201,打田中学校屋外運動場,和歌山県紀の川市東大井345,1,1,,1,,,1,,1,34.267227,135.363659,
589,E3020800032201,細野渓流キャンプ場,和歌山県紀の川市桃山町垣内258-1,1,1,,1,,,1,,,34.188639,135.421118,
590,E3020800035201,桃源郷運動公園駐車場,和歌山県紀の川市桃山町最上1147-11,1,1,,1,,,1,,,34.2228034712862,135.355286536968,
591,E3020800047201,粉河中部運動場,和歌山県紀の川市粉河1479,1,1,,1,,,1,,1,34.27354,135.401983,
592,E3020800058201,名手小学校屋外運動場,和歌山県紀の川市名手西野328,1,1,,1,,,1,,,34.270898,135.432732,
593,E3020800059201,川原小学校屋外運動場,和歌山県紀の川市野上126,1,1,,1,,,1,,,34.291305,135.427346,
594,E3030400001201,安井集会所,和歌山県紀美野町安井134-2,1,1,,1,,,,,1,34.145415,135.345061,
595,E3030400002201,円明寺集会所,和歌山県紀美野町円明寺202-1,1,1,,1,,,,,1,34.168464079951,135.4119335964,
596,E3030400003201,総合福祉センター,和歌山県紀美野町下佐々1408-4,1,1,,1,,,,,1,34.152110115117,135.31119498129,
597,E3030400006201,吉見集会所,和歌山県紀美野町下佐々1752-1,1,1,,1,,,,,1,34.156717896006,135.30666498599,
598,E3030400008201,下佐々コミュニティーセンター,和歌山県紀美野町下佐々595-1,1,1,,1,,,,,1,34.15641947232,135.31484455261,
599,E3030400009202,新生町集会所,和歌山県紀美野町下佐々803-1,1,1,,1,,,,,1,34.156207380871,135.3101230307,
600,E3030400010201,紀美野中学校体育館,和歌山県紀美野町下佐々940,1,1,,1,,,,,1,34.15435582621,135.31462915419,
601,E3030400011201,上真国多目的集会所,和歌山県紀美野町花野原351-6,1,,,1,,,,,1,34.168786060976,135.39979093724,
602,E3030400013201,自然体験世代交流センター,和歌山県紀美野町鎌滝636,1,1,,1,,,,,1,34.14181707053,135.38366050434,
603,E3030400014201,吉野集会所,和歌山県紀美野町吉野320-3,,1,,1,,,,,1,34.158323826858,135.32929632299,
604,E3030400016201,国木原集会所,和歌山県紀美野町国木原1,1,1,,1,,,,,1,34.185278670943,135.34153568275,
605,E3030400018201,四郷集会所,和歌山県紀美野町四郷134,1,1,,1,,,,,1,34.180267862586,135.41290294799,
606,E3030400053201,柴目河南集会所,和歌山県紀美野町柴目355,1,1,,1,,,,,1,34.169674,135.330934,
607,E3030400021201,小畑集会所,和歌山県紀美野町小畑107,,1,,1,,,,,1,34.16337398961,135.29383972129,
608,E3030400022201,スポーツ公園体育館,和歌山県紀美野町小畑853-2,1,1,,1,,,,,1,34.175131960821,135.30797160596,
609,E3030400023201,真国区民センター,和歌山県紀美野町真国宮32-2,1,1,,1,,,,,1,34.169555745693,135.37453908489,
610,E3030400024201,下神野小学校体育館,和歌山県紀美野町神野市場214,1,1,,1,,,,,1,34.151191506919,135.35227674498,
611,E3030400025201,神野市場交流ふれあいセンター,和歌山県紀美野町神野市場269,1,1,,1,,,,,1,34.149468204983,135.35622153453,
612,E3030400028201,釜滝集会所,和歌山県紀美野町西野246-1,1,1,,1,,,,,1,34.17150077048,135.34029819288,
613,E3030400029201,西野集会所,和歌山県紀美野町西野691,1,1,,1,,,,,1,34.169649164165,135.34991328182,
614,E3030400030201,赤木高齢者ふれあい憩いの家,和歌山県紀美野町赤木311,1,1,,1,,,,,1,34.135428932954,135.38620576039,
615,E3030400032201,小川地区公民館,和歌山県紀美野町中田23,1,1,,1,,,,,1,34.131406089619,135.32413934132,
616,E3030400034201,長谷集会所,和歌山県紀美野町長谷37-1,1,1,,1,,,,,1,34.183331736144,135.31666558556,
617,E3030400035201,長谷宮集落センター,和歌山県紀美野町長谷宮223-2,1,1,,1,,,,,1,34.182648963062,135.47999573848,
618,E3030400037201,国吉多目的集会所,和歌山県紀美野町田64,,1,,1,,,,,1,34.140079138599,135.41585577948,
619,E3030400050201,東野集会所,和歌山県紀美野町東野31-1,1,1,,1,,,,,1,34.16781,135.356562,
620,E3030400038201,野上小学校体育館,和歌山県紀美野町動木1445,1,1,,1,,,,,1,34.163860922936,135.30704905376,
621,E3030400039201,動木集会所,和歌山県紀美野町動木227-1,1,1,,1,,,,,1,34.165277031846,135.30672349189,
622,E3030400040201,芝崎集会所,和歌山県紀美野町動木363-1,1,1,,1,,,,,1,34.169761071926,135.30931461543,
623,E3030400042201,福井集会所,和歌山県紀美野町福井1313-1,1,1,,1,,,,,1,34.147294425006,135.32737665865,
624,E3030400043201,福田集会所,和歌山県紀美野町福田143-1,,1,,1,,,,,1,34.156527664706,135.34255744,
625,E3030400044201,箕六高齢者ふれあい憩いの家,和歌山県紀美野町箕六53,1,1,,1,,,,,1,34.127095330087,135.3597902267,
626,E3030400051201,毛原下集会所,和歌山県紀美野町毛原下253-2,1,1,,1,,,,,1,34.142578,135.43866,
627,E3030400045201,長谷毛原健康センター,和歌山県紀美野町毛原宮172-2,1,1,,1,,,,,1,34.159741,135.461504,
628,E3030400047201,毛原中集会所,和歌山県紀美野町毛原中178-2,1,1,,1,,,,,1,34.158284815912,135.45677072729,
629,E3030400049201,旧美里中学校体育館,和歌山県紀美野町野中494-1,1,1,,1,,,,,1,34.14747189508,135.35012506499,
630,E3020300001201,あやの台小学校,和歌山県橋本市あやの台2-17,1,1,,1,,1,1,,1,34.3398246129713,135.657781903575,
631,E3020300002201,紀見小学校,和歌山県橋本市柿の木坂25-1,1,1,,1,,1,1,,1,34.3402549950804,135.595706288921,
632,E3020300003201,学文路小学校,和歌山県橋本市学文路900,1,1,,1,,1,1,,1,34.2993859125396,135.587561335593,
633,E3020300004201,柱本小学校,和歌山県橋本市紀見ケ丘2-20-1,1,1,,1,,1,1,,1,34.3682663243669,135.610295705809,
634,E3020300005201,隅田中学校,和歌山県橋本市隅田町芋生243-1,1,1,,1,,1,1,,1,34.3272474653413,135.648660684103,
635,E3020300006201,旧兵庫幼稚園,和歌山県橋本市隅田町下兵庫395,1,1,,1,,1,1,,1,34.3205943335134,135.630111400206,
636,E3020300007201,山内防災センター,和歌山県橋本市隅田町山内255-2,1,1,,1,,1,1,,1,34.3546421855463,135.649022287042,
637,E3020300008201,隅田小学校,和歌山県橋本市隅田町垂井20,1,1,,1,,1,1,,1,34.3309694268273,135.648101466005,
638,E3020300010201,古佐田区民会館みんなの家,和歌山県橋本市古佐田1-1016,1,1,,1,,1,1,,1,34.317041,135.612178,
639,E3020300012201,紀見幼稚園,和歌山県橋本市御幸辻284,1,1,,1,,1,1,,1,34.340429768188,135.603994226868,
640,E3020300013201,旧信太小学校体育館,和歌山県橋本市高野口町九重87-1,1,1,,1,,1,1,,1,34.3323743576654,135.553198556813,
641,E3020300015201,高野口山村体験交流促進センター,和歌山県橋本市高野口町嵯峨谷116,1,1,,1,,1,1,,1,34.3411322454381,135.538295897484,
642,E3020300016201,伏原体育館,和歌山県橋本市高野口町伏原806-1,1,1,,1,,1,1,,1,34.3073381709064,135.576832352434,
643,E3020300017201,高野口中学校,和歌山県橋本市高野口町名古曽1322-10,1,1,,1,,1,1,,1,34.3219425031351,135.559871539852,
644,E3020300018201,応其小学校,和歌山県橋本市高野口町名古曽19-1,1,1,,1,,1,1,,1,34.3035738934259,135.567264308514,
645,E3020300020201,高野口小学校,和歌山県橋本市高野口町名倉226,,1,,1,,1,,,1,34.3036742381822,135.552689820126,
646,E3020300022201,三石小学校,和歌山県橋本市三石台2-1-1,1,1,,1,,1,1,,1,34.3531262793293,135.601100536134,
647,E3020300023201,紀見北中学校,和歌山県橋本市三石台3-19-1,1,1,,1,,1,1,,1,34.36161741143,135.600810610509,
648,E3020300025201,橋本中央中学校,和歌山県橋本市市脇5-3-8,,1,,1,,1,,,1,34.3125071165959,135.604630025707,
649,E3020300026201,境原小学校,和歌山県橋本市小峰台1-25-1,1,1,,1,,1,1,,1,34.3523805673445,135.627041069435,
650,E3020300027201,紀見東中学校,和歌山県橋本市城山台1-39-2,1,1,,1,,1,1,,1,34.3463114946001,135.613146037182,
651,E3020300029201,城山小学校,和歌山県橋本市城山台2-10-2,1,1,,1,,1,1,,1,34.34832528644,135.611667479574,
652,E3020300031201,清水小学校,和歌山県橋本市清水2014,1,1,,1,,1,1,,1,34.3087225243018,135.606662531114,
653,E3020300033201,学文路東体育館,和歌山県橋本市清水363,,1,,1,,1,,,1,34.3072455759786,135.596997756749,
654,E3020300034201,恋野小学校,和歌山県橋本市赤塚129-1,1,1,,1,,1,1,,1,34.3228992040544,135.648151705392,
655,E3020300035201,谷奥深集会所,和歌山県橋本市谷奥深62,1,1,,1,,1,1,,1,34.2823425941525,135.672521808396,
656,E3020300037201,東家体育館,和歌山県橋本市東家2-1-13,1,1,,1,,1,1,,1,34.3161451670284,135.606848409983,
657,E3020300039201,旧西部中学校体育館,和歌山県橋本市柏原500,1,1,,1,,1,1,,1,34.3221146393928,135.582196109892,
658,E3020300040201,西部小学校,和歌山県橋本市柏原554-2,1,1,,1,,1,1,,1,34.3235941772745,135.583546533586,
659,E3020300041201,ひこばえの里,和歌山県橋本市彦谷752-15,1,1,,1,,1,1,,1,34.2846650659905,135.640876724845,
660,E3034300001201,下古沢コミュニティ消防センター,和歌山県九度山町大字下古沢243-2,,,,1,,1,1,,1,34.2688492,135.554395,
661,E3034300002201,河根小学校,和歌山県九度山町大字河根118,1,,,1,,1,1,,1,34.2747497,135.578021,
662,E3034300003201,河根児童館,和歌山県九度山町大字河根120-1,1,,,,,1,1,,1,34.2751762,135.577686,
663,E3034300004201,梨の木コミュニティセンター,和歌山県九度山町大字河根384-26,1,,,1,,1,1,,1,34.2807429,135.573098,
664,E3034300005201,河根峠集会所,和歌山県九度山町大字河根513-1,1,1,,1,,1,1,,1,34.277098717326,135.57719390486,
665,E3034300006201,硯水集会所,和歌山県九度山町大字河根541-2,1,1,,1,,1,1,,1,34.2799587,135.578411,
666,E3034300007201,繁野集会所,和歌山県九度山町大字河根757-3,1,,,1,,1,1,,1,34.281563,135.57939,
667,E3034300008201,河根中学校,和歌山県九度山町大字河根77,1,,,1,,1,1,,1,34.2735429,135.578458,
668,E3034300009201,笠木児童会館,和歌山県九度山町大字笠木94,1,,,1,,1,1,,1,34.2448524,135.544284,
669,E3034300010201,九度山小学校,和歌山県九度山町大字九度山1077,1,,,1,,1,1,,1,34.2872793,135.564687,
670,E3034300011201,九度山町ふるさとセンター,和歌山県九度山町大字九度山1190-1,1,1,,1,,1,1,,1,34.28732537,135.5620623,
671,E3034300012201,九度山町中央公民館,和歌山県九度山町大字九度山1194,1,1,,1,,1,1,,1,34.287671,135.561819,
672,E3034300013201,旭集会所,和歌山県九度山町大字九度山1290,1,1,,1,,1,1,,1,34.2873981,135.55958,
673,E3034300014201,九度山西集会所,和歌山県九度山町大字九度山1473-1,1,1,,1,,1,1,,1,34.2908727,135.55846,
674,E3034300015201,九度山児童館,和歌山県九度山町大字九度山1671-1,1,1,,,,1,1,,1,34.2917296,135.5613007,
675,E3034300016201,九度山中学校,和歌山県九度山町大字九度山619,1,1,,1,,1,1,,1,34.287776,135.567518,
676,E3034300017201,九度山東集会所,和歌山県九度山町大字九度山619-1,1,1,,1,,1,1,,1,34.28850547,135.5674666,
677,E3034300018201,梅林集会所,和歌山県九度山町大字九度山749-1,1,,,,,1,1,,1,34.283250755892,135.56785103033,
678,E3034300019201,慈尊院児童館,和歌山県九度山町大字慈尊院112-5,1,1,,,,1,1,,1,34.296126,135.5487243,
679,E3034300020201,西島コミュニティ消防センター,和歌山県九度山町大字慈尊院329-7,1,,,1,,1,1,,1,34.2964967,135.53773,
680,E3034300021201,上古沢コミュニティ消防センター,和歌山県九度山町大字上古沢39,,,,1,,1,1,,1,34.260129,135.548308,
681,E3034300022201,農林総合研修センター「さえもん」,和歌山県九度山町大字丹生川246-1,,,,1,,1,1,,1,34.2718,135.5919,
682,E3034300023201,丹生川小学校　体育館,和歌山県九度山町大字丹生川582,1,,,,,1,1,,1,34.2768111,135.606838,
683,E3034300024201,青淵へき地集会所,和歌山県九度山町大字丹生川922,1,,,,,1,1,,1,34.2787778,135.624692,
684,E3034300025201,旧古澤小学校,和歌山県九度山町大字中古沢1,1,,,1,,1,1,,1,34.2671118,135.5495293,
685,E3034300027201,文化財伝承館「ふれあい」,和歌山県九度山町大字椎出202,1,,,1,,1,1,,1,34.2713238,135.56566,
686,E3034300028201,椎出児童館,和歌山県九度山町大字椎出410-2,1,,,,,1,1,,1,34.2709032,135.56344,
687,E3034300029201,野平集会所,和歌山県九度山町大字東郷199-2,1,,,1,,1,1,,1,34.2592556,135.60257,
688,E3034300030201,入郷コミュニティ消防センター,和歌山県九度山町大字入郷23-1,,1,,1,,1,1,,1,34.2940175,135.554853,
689,E3034300031201,九度山町民武道館,和歌山県九度山町大字入郷637-5,,1,,1,,1,1,,1,34.2945754,135.553091,
690,E3034300032201,九度山文化スポーツセンター,和歌山県九度山町大字入郷637-6,1,1,,1,,1,1,,1,34.294364,135.554096,
691,E3034300033201,久保集会所,和歌山県九度山町大字北又344,1,,,1,,1,1,,1,34.2585,135.61,
692,E3034300034201,森の童話館,和歌山県九度山町大字北又379,1,1,,1,,1,1,,1,34.25878,135.60927,
693,E3034300035201,北又児童会館,和歌山県九度山町大字北又628-3,,,,,,1,1,,1,34.2641048,135.626651,
694,E3034300039201,中古沢コミュニティ消防センター,和歌山県九度山町中古沢282-3,,,,1,,1,1,,,34.262971,135.551281,
695,E3042800002202,雨天練習場付近,和歌山県串本町サンゴ台,,1,,,1,,,,,33.479767951433,135.783454281,
696,E3042800002201,イベント広場,和歌山県串本町サンゴ台,,1,,,1,,,,,33.480416730823,135.78448424927,
697,E3042800002203,総合運動公園,和歌山県串本町サンゴ台,,1,,,1,,,,,33.482528585943,135.78426430813,
698,E3042800005201,サンゴ台集会所,和歌山県串本町サンゴ台1060-140,1,1,,1,1,,,,1,33.482403307839,135.78137825123,
699,E3042800006201,クラブハウス,和歌山県串本町サンゴ台1060-42,1,1,,1,1,,,,1,33.48298942884,135.78505287758,
700,E3042800007201,消防防災センター（消防本部・串本消防署）,和歌山県串本町サンゴ台1256-1,1,1,,1,1,,,,,33.483477114284,135.78737030617,
701,E3042800378201,串本町役場,和歌山県串本町サンゴ台690-5,1,,,1,1,,,,,33.483009,135.783905,
702,E3042800008201,くしもと町立病院,和歌山県串本町サンゴ台691-7,1,,,1,1,,,,,33.484784998271,135.78447353993,
703,E3042800009204,山ノ神,和歌山県串本町伊串,,1,,,1,,,,,33.50749729891,135.80434757551,
704,E3042800009203,五輪山,和歌山県串本町伊串,,,,,1,,,,,33.504240948489,135.80841380437,
705,E3042800009201,セドノ山,和歌山県串本町伊串,,1,,,1,,,,,33.503919,135.802749,
706,E3042800009202,ドウ谷,和歌山県串本町伊串,,,,,1,,,,,33.506683222792,135.80258804639,
707,E3042800009207,尾崎みかん園,和歌山県串本町伊串,,1,,,1,,,,,33.504007229065,135.80185178002,
708,E3042800009206,地蔵様上,和歌山県串本町伊串,,1,,,1,,,,,33.511460219424,135.80159026464,
709,E3042800009205,山見登り口,和歌山県串本町伊串,,1,,,1,,,,,33.50261,135.803318,
710,E3042800016201,海蔵寺,和歌山県串本町伊串144,,,,1,1,,,,1,33.505732,135.806407,
711,E3042800017201,伊串多目的集会所,和歌山県串本町伊串264-2,1,1,,1,,,,,1,33.503372045818,135.80468419274,
712,E3042800018201,バス停港口,和歌山県串本町樫野,,,,,1,,,,,33.468309037914,135.85236903963,
713,E3042800018202,釣り公園裏山,和歌山県串本町樫野,,1,,,1,,,,,33.470261991624,135.84841224116,
714,E3042800018204,鈴木宅付近,和歌山県串本町樫野,,,,,1,,,,,33.465724716272,135.85154560146,
715,E3042800018203,福島宅付近,和歌山県串本町樫野,,,,,1,,,,,33.466369125762,135.85074630318,
716,E3042800022201,樫野集会所,和歌山県串本町樫野852,1,1,,1,1,,,,1,33.468525,135.849118,
717,E3042800023209,串本中学校裏山,和歌山県串本町串本,,,,,1,,,,,33.461322687282,135.78006396879,
718,E3042800023208,串本小学校裏山,和歌山県串本町串本,,,,,1,,,,,33.471118586913,135.77595482458,
719,E3042800023207,錦江山北,和歌山県串本町串本,,,,,1,,,,,33.475050099696,135.77292089064,
720,E3042800023206,奥の谷,和歌山県串本町串本,,,,,1,,,,,33.475561953409,135.77793965926,
721,E3042800023205,マリンセンター裏山,和歌山県串本町串本,,,,,1,,,,,33.473539422088,135.77391098131,
722,E3042800023204,バス停裏,和歌山県串本町串本,,,,,1,,,,,33.475032201289,135.77516858179,
723,E3042800023203,ギオン山,和歌山県串本町串本,,,,,1,,,,,33.468057766892,135.7754237472,
724,E3042800023202,エビス山,和歌山県串本町串本,,,,,1,,,,,33.473006933646,135.77419529547,
725,E3042800023201,Ａコープ付近登り口,和歌山県串本町串本,,,,,1,,,,,33.461841821665,135.78174303164,
726,E3042800044201,三区会館,和歌山県串本町串本1049-6,1,1,,1,,,,,1,33.46810843,135.7778002,
727,E3042800045201,老人憩の家「わかしお」,和歌山県串本町串本1252,1,1,,1,,,,,1,33.46746256,135.7791624,
728,E3042800046201,植松防災センター（２階以上）,和歌山県串本町串本1403-8,1,1,,1,1,,,,,33.466445002767,135.7766597437,
729,E3042800374201,津波避難タワー（串本）,和歌山県串本町串本1434-1,,,,,1,,,,,33.464219,135.778755,
730,E3042800048201,串本古座高校串本校舎体育館,和歌山県串本町串本1522,,,,1,1,,,,1,33.4614075,135.7794181,
731,E3042800049201,小西マンション,和歌山県串本町串本1547-7,,,,,1,,,,,33.470355547374,135.78085682246,
732,E3042800050201,串本中学校（体育館）,和歌山県串本町串本1620,,,,1,,,,,1,33.462984,135.780759,
733,E3042800051201,雇用促進住宅,和歌山県串本町串本1680,,,,,1,,,,,33.461707563071,135.77752123465,
734,E3042800052201,ホテルシーカンス,和歌山県串本町串本1735-33,,,,,1,,,,,33.469197512943,135.78159312973,
735,E3042800437201,県営住宅串本団地（３階以上）,和歌山県串本町串本1800,1,1,,1,1,,,,1,33.472574,135.781485,
736,E3042800377201,紀乃国屋ビル（屋上）,和歌山県串本町串本1801,,,,,1,,,,,33.472252,135.781456,
737,E3042800375201,和歌山東漁協津波避難タワー,和歌山県串本町串本1885-1,,,,,1,,,,,33.466247,135.781631,
738,E3042800370201,旧ＮＴＴビル,和歌山県串本町串本1894-1,,,,,1,,,,,33.46548794,135.7807272,
739,E3042800056201,二区会館,和歌山県串本町串本1940,1,1,,1,,,,,1,33.46725662,135.7808911,
740,E3042800057201,大水崎会館,和歌山県串本町串本2075,,,,1,,,,,1,33.47914356,135.7856764,
741,E3042800373201,新宮警察署串本分庁舎（屋上）,和歌山県串本町串本2114,,,,,1,,,,,33.478288,135.785571,
742,E3042800059201,大江戸温泉物語（４階以上）,和歌山県串本町串本2300-1,,,,,1,,,,,33.479290322906,135.7883898871,
743,E3042800372201,成和ビル,和歌山県串本町串本2304,,,,,1,,,,,33.471759,135.782079,
744,E3042800061201,串本町立文化センター,和歌山県串本町串本2427,1,1,,,,,,,1,33.47246971,135.7840671,
745,E3042800061202,串本町立体育館,和歌山県串本町串本2427,1,1,,1,,,,,1,33.472073,135.783764,
746,E3042800062201,武道館,和歌山県串本町串本2564,,,,1,,,,,1,33.47425313,135.7848812,
747,E3042800063201,くしもとこども園（さくら園舎）,和歌山県串本町串本502,1,,,,,,,,,33.47229985,135.7781497,
748,E3042800064201,くしもとこども園（つばき園舎）,和歌山県串本町串本508-3,1,,,,,,,,,33.47297,135.7776489,
749,E3042800065201,串本町学校給食センター,和歌山県串本町串本713,,,,,1,,,,,33.471371899586,135.77639166909,
750,E3042800066201,串本小学校,和歌山県串本町串本776,1,1,,1,,,,,1,33.47057953,135.7768635,
751,E3042800424201,広原宅裏,和歌山県串本町串本（広原宅裏）,,,,,1,,,,,33.47560942,135.7755816,
752,E3042800425201,西の岡（図書館裏山）,和歌山県串本町串本（西の岡（図書館裏山））,,,,,1,,,,,33.47093064,135.7763572,
753,E3042800426201,西の岡（袋側）,和歌山県串本町串本（西の岡（袋側））,,,,,1,,,,,33.47366471,135.7747156,
754,E3042800432201,西の岡（墓地上）,和歌山県串本町串本（西の岡（墓地上））,,,,,1,,,,,33.47287717,135.7759924,
755,E3042800427201,西の岡（本町通り裏山）,和歌山県串本町串本（西の岡（本町通り裏山））,,,,,1,,,,,33.47035787,135.7754988,
756,E3042800428201,地蔵道,和歌山県串本町串本（地蔵道）,,,,,1,,,,,33.47369604,135.7738091,
757,E3042800429201,渡船前,和歌山県串本町串本（渡船前）,,,,,1,,,,,33.47748376,135.7753862,
758,E3042800430201,備蓄倉庫前（西の岡）,和歌山県串本町串本（備蓄倉庫前（西の岡））,,,,,1,,,,,33.47455964,135.7749892,
759,E3042800431201,尾の浦奥,和歌山県串本町串本（尾の浦奥）,,,,,1,,,,,33.46033013,135.7841519,
760,E3042800433201,矢ノ熊谷,和歌山県串本町串本（矢ノ熊谷）,,,,,1,,,,,33.47520846,135.7796992,
761,E3042800434201,矢ノ熊踏切急傾斜上,和歌山県串本町串本（矢ノ熊踏切急傾斜上）,,,,,1,,,,,33.47450147,135.7799942,
762,E3042800435201,幼稚園横高台,和歌山県串本町串本（幼稚園横高台）,,,,,1,,,,,33.47246997,135.7771457,
763,E3042800067201,旧古座川病院裏山,和歌山県串本町古座,,,,,1,,,,,33.51550271,135.8318415,
764,E3042800067202,造船所裏,和歌山県串本町古座,,,,,1,,,,,33.514392728807,135.83529621078,
765,E3042800067203,中ノ谷,和歌山県串本町古座,,,,,1,,,,,33.51513596,135.8303154,
766,E3042800070201,古座漁村センター,和歌山県串本町古座164-1,1,,,1,,,,,1,33.516771,135.827361,
767,E3042800071201,古座消防拠点施設,和歌山県串本町古座274-2,,,,1,,,,,1,33.51482871075,135.82796741498,
768,E3042800072201,古座集会所,和歌山県串本町古座348,,,,1,,,,,1,33.514573056553,135.82992767655,
769,E3042800073201,阿弥陀寺,和歌山県串本町古座458-2,,,,,1,,,,,33.517608445604,135.82806497528,
770,E3042800074201,青原寺,和歌山県串本町古座492,,,,,1,,,,,33.516396416174,135.82887500241,
771,E3042800075204,市谷広場,和歌山県串本町古田,,,,,1,,,,,33.53115508,135.808686,
772,E3042800075205,中谷倉庫,和歌山県串本町古田,1,,,,1,,,,,33.531145130461,135.8083939365,
773,E3042800075201,岩渕谷,和歌山県串本町古田,,,,,1,,,,,33.525371970433,135.81526575599,
774,E3042800075202,栗原（河内様裏山）,和歌山県串本町古田,,,,,1,,,,,33.534956,135.808783,
775,E3042800075203,山口谷,和歌山県串本町古田,,,,,1,,,,,33.526771695285,135.81423578772,
776,E3042800080201,六勝寺,和歌山県串本町古田197,1,,,1,1,,,,1,33.5298078,135.8116126,
777,E3042800081201,古田コミュニティセンター,和歌山県串本町古田199-1,1,,,1,1,,,,1,33.530176,135.812542,
778,E3042800082201,古田第２浄水場付近,和歌山県串本町古田322,,,,,1,,,,,33.530447542132,135.80924151455,
779,E3042800083201,地主神社,和歌山県串本町古田478,,1,,,1,,,,,33.532647609284,135.80972967658,
780,E3042800084201,井沼トンネル裏山,和歌山県串本町江田,,,,,1,,,,,33.49437953,135.7016096,
781,E3042800084202,井沼裏山,和歌山県串本町江田,,,,,1,,,,,33.49665209,135.7005689,
782,E3042800084203,岡裏山,和歌山県串本町江田,,,,,1,,,,,33.49585133,135.6987021,
783,E3042800084204,玉置付近,和歌山県串本町江田,,,,,1,,,,,33.49216954,135.7041523,
784,E3042800084205,向井裏山,和歌山県串本町江田,,,,,1,,,,,33.49633895,135.701159,
785,E3042800084206,荒井付近,和歌山県串本町江田,,,,,1,,,,,33.49364586,135.7038304,
786,E3042800084207,国道４２号（海側）松尾平見登口,和歌山県串本町江田,,1,,,1,,,,,33.49055899,135.7028005,
787,E3042800084208,国道４２号（山側）江田平見登口,和歌山県串本町江田,,1,,,1,,,,,33.49032635,135.7038841,
788,E3042800084209,新屋付近,和歌山県串本町江田,,,,,1,,,,,33.49553371,135.7022211,
789,E3042800094201,海蔵寺,和歌山県串本町江田528,1,,,1,1,,,,1,33.49295244,135.7042274,
790,E3042800095201,江田多目的集会所,和歌山県串本町江田91-1,,,,1,,,,,1,33.49478215,135.7004562,
791,E3042800395201,田中付近,和歌山県串本町江田（田中付近）,,,,,1,,,,,33.49425427,135.7025108,
792,E3042800096203,トラ谷,和歌山県串本町高富,,,,,1,,,,,33.48345368,135.7506354,
793,E3042800096204,ミカン畑１,和歌山県串本町高富,,,,,1,,,,,33.48565494,135.7579417,
794,E3042800096205,ミカン畑２,和歌山県串本町高富,,1,,,1,,,,,33.48647369,135.7589073,
795,E3042800096206,稲垣裏山,和歌山県串本町高富,,,,,1,,,,,33.490514869049,135.7629412685,
796,E3042800096207,釜郷原,和歌山県串本町高富,,,,,1,,,,,33.48626789,135.7615466,
797,E3042800096209,集会所裏,和歌山県串本町高富,,,,,1,,,,,33.48480487,135.7628073,
798,E3042800096208,国道４２号（逢坂山トンネル方面）,和歌山県串本町高富,,1,,,1,,,,,33.48370424,135.7426049,
799,E3042800096201,ＪＲ高富変電所前,和歌山県串本町高富,,,,,1,,,,,33.49083574,135.7628287,
800,E3042800096202,カジヤ裏,和歌山県串本町高富,,,,,1,,,,,33.48463485,135.7616646,
801,E3042800105201,光明寺,和歌山県串本町高富375,,1,,1,1,,,,1,33.4873042,135.763836,
802,E3042800106201,高富地区集会所,和歌山県串本町高富485-3,,,,1,,,,,1,33.485031436984,135.76324229696,
803,E3042800108201,晋済寺,和歌山県串本町佐部,1,,,1,1,,,,,33.551858557431,135.85474046397,
804,E3042800109201,佐部集会所,和歌山県串本町佐部320,1,1,,1,1,,,,1,33.5499262,135.8558598,
805,E3042800111206,牛尾野,和歌山県串本町出雲,,,,,1,,,,,33.453032260553,135.79155408285,
806,E3042800111208,出雲集会所裏山,和歌山県串本町出雲,,,,,1,,,,,33.449335222375,135.79188667677,
807,E3042800111209,西の丘,和歌山県串本町出雲,,,,,1,,,,,33.449898,135.792291,
808,E3042800111201,イカシキ,和歌山県串本町出雲,,,,,1,,,,,33.455762417598,135.78984819792,
809,E3042800111202,ジョロコシ,和歌山県串本町出雲,,,,,1,,,,,33.451573157774,135.79151116751,
810,E3042800111203,ヘイチの坂,和歌山県串本町出雲,,1,,,1,,,,,33.449755958637,135.78698359869,
811,E3042800111204,井城跡地,和歌山県串本町出雲,,,,,1,,,,,33.449790560917,135.79281775541,
812,E3042800111205,旧小学校跡付近,和歌山県串本町出雲,,1,,,1,,,,,33.453220241334,135.78950487516,
813,E3042800111207,周遊道路,和歌山県串本町出雲,,1,,,1,,,,,33.448735445876,135.7872840061,
814,E3042800125201,出雲集会所,和歌山県串本町出雲1027-7,,,,1,,,,,1,33.448863,135.7915,
815,E3042800126201,観福寺,和歌山県串本町出雲103,1,,,1,1,,,,1,33.451417,135.793387,
816,E3042800127201,ふれあいの家,和歌山県串本町出雲1614-1,1,1,,1,1,,,,1,33.449637760896,135.78122854871,
817,E3042800128201,出雲小学校,和歌山県串本町出雲1617-21,1,1,,,1,,,,,33.4478226,135.7856947,
818,E3042800403201,竹林裏,和歌山県串本町出雲（竹林裏）,,1,,,1,,,,,33.449383,135.789995,
819,E3042800404201,尾の浦付近,和歌山県串本町出雲（尾の浦付近）,,,,,1,,,,,33.45914022,135.7865146,
820,E3042800405201,墓地登り口,和歌山県串本町出雲（墓地登り口）,,,,,1,,,,,33.45122404,135.7901808,
821,E3042800406201,墓地付近,和歌山県串本町出雲（墓地付近）,,1,,,1,,,,,33.449891,135.790882,
822,E3042800407201,薬師堂（観福寺）,和歌山県串本町出雲（薬師堂（観福寺））,,,,,1,,,,,33.45156197,135.792981,
823,E3042800129201,正法寺,和歌山県串本町上田原,1,1,,1,1,,,,,33.558106,135.869269,
824,E3042800131201,古座あさかぜ園,和歌山県串本町上田原1237,1,1,,,1,,,,1,33.555969610064,135.86900979917,
825,E3042800132201,上田原生活改善センター,和歌山県串本町上田原867-1,,,,1,1,,,,1,33.561066940424,135.86979914676,
826,E3042800133201,旧上野山保育所,和歌山県串本町上野山143,1,1,,1,1,,,,1,33.515706923196,135.83484715911,
827,E3042800135201,古座福祉センター,和歌山県串本町上野山291-4,1,1,,1,1,,,,1,33.518338,135.833459,
828,E3042800136205,地主神社裏山,和歌山県串本町神野川,,1,,,1,,,,,33.514986307594,135.81830814555,
829,E3042800136204,浅利裏山,和歌山県串本町神野川,,,,,1,,,,,33.513766973452,135.8161375679,
830,E3042800136203,神野川会館,和歌山県串本町神野川,,1,,1,,,,,,33.512089731976,135.81894852294,
831,E3042800136202,坂畑の山,和歌山県串本町神野川,,,,,1,,,,,33.511105735177,135.8159873642,
832,E3042800136201,経塚,和歌山県串本町神野川,,,,,1,,,,,33.512553173204,135.81745419822,
833,E3042800141201,宗福寺,和歌山県串本町神野川1211,1,,,1,1,,,,1,33.51571292,135.816105,
834,E3042800143204,中尾の坂,和歌山県串本町須江,,,,,1,,,,,33.45718837,135.826925,
835,E3042800143203,須江消防屯所,和歌山県串本町須江,,1,,,1,,,,,33.45650808,135.82582,
836,E3042800143202,須江崎の坂,和歌山県串本町須江,,,,,1,,,,,33.45549318043,135.82738948277,
837,E3042800143201,カケノ農道,和歌山県串本町須江,,1,,,1,,,,,33.458393881496,135.83010080022,
838,E3042800147201,大島中学校（体育館）,和歌山県串本町須江1482,1,1,,1,1,,,,,33.466961,135.825926,
839,E3042800379201,旧大島中学校,和歌山県串本町須江1482-1,1,1,,1,1,,,,1,33.466586,135.826026,
840,E3042800148201,大島小学校（体育館）,和歌山県串本町須江1577-11,1,1,,1,1,,,,1,33.46756,135.82451,
841,E3042800149201,南丁寺,和歌山県串本町須江25,,,,1,1,,,,1,33.457511,135.828372,
842,E3042800150201,旧須江小学校,和歌山県串本町須江545,,1,,,1,,,,,33.459315821559,135.82734885377,
843,E3042800151201,須江・浜須賀集会所,和歌山県串本町須江635,1,1,,1,1,,,,1,33.458834,135.827707,
844,E3042800152201,須江コミュニティセンター,和歌山県串本町須江721-2,1,,,1,1,,,,1,33.46265294534,135.82610646581,
845,E3042800153207,青年クラブ裏山,和歌山県串本町西向,,,,,1,,,,,33.520647172768,135.81926492963,
846,E3042800153208,大浦町営住宅裏山,和歌山県串本町西向,,,,,1,,,,,33.503928288923,135.81130014959,
847,E3042800153209,大浦墓地,和歌山県串本町西向,,,,,1,,,,,33.50463503728,135.81199215952,
848,E3042800153201,ＪＲ保線管理ビル,和歌山県串本町西向,,,,,1,,,,,33.518174785476,135.82122440396,
849,E3042800153202,カジヤ谷,和歌山県串本町西向,,,,,1,,,,,33.52211852882,135.81875530992,
850,E3042800153203,岡田山,和歌山県串本町西向,,,,,1,,,,,33.51579192868,135.81983198488,
851,E3042800153204,火伏の森周辺,和歌山県串本町西向,,1,,,1,,,,,33.51656939,135.8216384,
852,E3042800153205,護国神社跡,和歌山県串本町西向,,,,,1,,,,,33.5190471,135.8195543,
853,E3042800153206,西向小学校裏山,和歌山県串本町西向,,,,,1,,,,,33.515254276798,135.81948633252,
854,E3042800166201,目津大浦集会所,和歌山県串本町西向1480-49,,,,1,,,,,1,33.506304595523,135.8161549479,
855,E3042800167201,新宮保健所串本支所（２階以上）,和歌山県串本町西向193,1,1,,,,,,,,33.52057561682,135.8212819508,
856,E3042800168201,串本町役場旧古座分庁舎（３階以上）,和歌山県串本町西向359,1,1,,1,1,,,,,33.518133,135.822887,
857,E3042800169201,成就寺,和歌山県串本町西向396,1,,,1,1,,,,1,33.518035,135.819765,
858,E3042800170201,町民文化センター（西向）,和歌山県串本町西向450,,,,1,,,,,1,33.516487953186,135.82406912136,
859,E3042800376201,津波避難タワー（西向）,和歌山県串本町西向536,,,,,1,,,,,33.51623023,135.8231256,
860,E3042800172201,妙福寺,和歌山県串本町西向577,1,1,,1,,,,,1,33.5165557,135.8222697,
861,E3042800173201,西向小学校（体育館）,和歌山県串本町西向638,1,,,1,1,,,,1,33.515219,135.820158,
862,E3042800173202,西向小学校,和歌山県串本町西向638,1,,,1,1,,,,1,33.514993,135.819948,
863,E3042800174201,西向多目的集会所,和歌山県串本町西向648-1,,,,1,,,,,1,33.51444387,135.8202234,
864,E3042800175201,旧西向幼稚園,和歌山県串本町西向858-3,1,1,,1,,,,,1,33.5127,135.820504,
865,E3042800176201,西向中学校（３階以上）,和歌山県串本町西向922,1,1,,,,,,,1,33.51026888,135.8181072,
866,E3042800176202,西向中学校（体育館）,和歌山県串本町西向922,,,,1,,,,,1,33.510114,135.817798,
867,E3042800410201,大神神社入口,和歌山県串本町西向（大神神社入口）,,,,,1,,,,,33.52300849,135.8177307,
868,E3042800411201,目津の谷,和歌山県串本町西向（目津の谷）,,,,,1,,,,,33.51081092,135.8145976,
869,E3042800412201,目津平見,和歌山県串本町西向（目津平見）,,,,,1,,,,,33.50524663,135.8147532,
870,E3042800413201,目津墓地,和歌山県串本町西向（目津墓地）,,,,,1,,,,,33.50713545,135.8148997,
871,E3042800177201,大島保育所裏山,和歌山県串本町大島,,,,,1,,,,,33.476279507004,135.8100003464,
872,E3042800177203,水谷高台,和歌山県串本町大島,,,,,1,,,,,33.46694893,135.8003604,
873,E3042800177202,温泉前,和歌山県串本町大島,,,,,1,,,,,33.474583640681,135.80834810565,
874,E3042800177206,忠魂碑,和歌山県串本町大島,,1,,,1,,,,,33.469914243567,135.8027127845,
875,E3042800177205,大島消防屯所,和歌山県串本町大島,1,1,,1,1,,,,,33.475092345683,135.81334997655,
876,E3042800177204,打越,和歌山県串本町大島,,,,,1,,,,,33.468625472509,135.80082987378,
877,E3042800184201,水門神社,和歌山県串本町大島73-2,,,,,1,,,,,33.471176146658,135.80439721177,
878,E3042800185201,蓮生寺,和歌山県串本町大島77,1,,,1,1,,,,1,33.471760942804,135.80406148672,
879,E3042800186201,紀伊大島開発総合センター,和歌山県串本町大島8-10,1,,,1,,,,,1,33.472214,135.801885,
880,E3042800187201,右東谷津荷線登り口,和歌山県串本町中湊,,,,,1,,,,,33.51912984,135.8282554,
881,E3042800188201,古座小学校（体育館フロア）,和歌山県串本町中湊160,1,,,1,,,,,1,33.52208648,135.8267261,
882,E3042800190201,中湊コミュニティセンター,和歌山県串本町中湊163-12,,,,1,,,,,1,33.522420724029,135.82605779909,
883,E3042800191201,串本古座高校古座校舎体育館,和歌山県串本町中湊377,,,,1,1,,,,1,33.523066142249,135.82802553531,
884,E3042800192201,正法寺,和歌山県串本町中湊584,,,,,1,,,,,33.523878525942,135.82576363995,
885,E3042800193201,古座公民館,和歌山県串本町中湊65,,,,1,1,,,,1,33.520458857102,135.82848151084,
886,E3042800381201,南紀熊野ジオパークセンター,和歌山県串本町潮岬2838-3,1,1,,1,1,,,,1,33.437556,135.760886,
887,E3042800194201,潮岬小学校（体育館）,和歌山県串本町潮岬3136,1,1,,1,1,,,,1,33.447715,135.75952,
888,E3042800195201,潮岬中学校（体育館）,和歌山県串本町潮岬3349,1,1,,1,1,,,,1,33.44834,135.755364,
889,E3042800196201,潮岬こども園,和歌山県串本町潮岬3349-132,1,1,,,1,,,,,33.447716415901,135.75682451935,
890,E3042800197201,潮岬公民館,和歌山県串本町潮岬3454-1,1,1,,1,1,,,,1,33.4484162,135.7605839,
891,E3042800198201,平松コミュニティセンター,和歌山県串本町潮岬360-1,1,1,,1,1,,,,1,33.455707,135.768179,
892,E3042800199201,潮岬あゆみ園,和歌山県串本町潮岬659,,,,,1,,,,1,33.454600249289,135.77893665047,
893,E3042800200201,潮岬青少年の家,和歌山県串本町潮岬669,1,1,,1,1,,,,1,33.446471,135.780534,
894,E3042800201201,萩尾塔石集会所,和歌山県串本町潮岬807-1,1,1,,1,1,,,,1,33.453650212903,135.77639675701,
895,E3042800202209,佐藤宅付近,和歌山県串本町津荷,,1,,,1,,,,,33.51503533,135.8400598,
896,E3042800202208,宮様の山,和歌山県串本町津荷,,,,,1,,,,,33.51944178,135.8421694,
897,E3042800202207,永明寺裏,和歌山県串本町津荷,,,,,1,,,,,33.520097750985,135.83818489918,
898,E3042800202206,永明寺,和歌山県串本町津荷,,,,1,,,,,,33.520191668674,135.83854967959,
899,E3042800202205,稲荷山５,和歌山県串本町津荷,,,,,1,,,,,33.518506506398,135.83896752394,
900,E3042800202204,稲荷山４,和歌山県串本町津荷,,,,,1,,,,,33.518443893398,135.8396434406,
901,E3042800202203,稲荷山３,和歌山県串本町津荷,,,,,1,,,,,33.519565548826,135.83940262208,
902,E3042800202202,稲荷山２,和歌山県串本町津荷,,,,,1,,,,,33.518800782007,135.83988005528,
903,E3042800202201,稲荷山１,和歌山県串本町津荷,,,,,1,,,,,33.518563747644,135.84005171666,
904,E3042800385201,上野山にしき園,和歌山県串本町津荷,,,,,1,,,,,33.51516648,135.8385953,
905,E3042800218201,上野山こども園,和歌山県串本町津荷29-2,,1,,,1,,,,1,33.515076298356,135.83806044551,
906,E3042800219201,津荷集会所,和歌山県串本町津荷376,1,1,,1,,,,,1,33.5198905,135.8407273,
907,E3042800382201,志うけの谷,和歌山県串本町津荷（志うけの谷）,,,,,1,,,,,33.51692238,135.8383995,
908,E3042800383201,小畑裏,和歌山県串本町津荷（小畑裏）,,,,,1,,,,,33.51720967,135.8402813,
909,E3042800384201,上地,和歌山県串本町津荷（上地）,,,,,1,,,,,33.52353686,135.8368545,
910,E3042800386201,上野山防災広場,和歌山県串本町津荷（上野山防災広場）,,1,,,1,,,,,33.5190685,135.8319326,
911,E3042800387201,上野山北,和歌山県串本町津荷（上野山北）,,,,,1,,,,,33.52020319,135.8364576,
912,E3042800221206,むねの平見２,和歌山県串本町田原,,,,,1,,,,,33.536228225545,135.87326110048,
913,E3042800221204,たん谷,和歌山県串本町田原,,,,,1,,,,,33.537292421503,135.86569727107,
914,E3042800221203,せーべの平見,和歌山県串本町田原,,,,,1,,,,,33.534935969983,135.86658240005,
915,E3042800221202,かまとこの平見,和歌山県串本町田原,,1,,,1,,,,,33.541122077117,135.8887133066,
916,E3042800221201,えびす,和歌山県串本町田原,,,,,1,,,,,33.532865637937,135.86982787295,
917,E3042800221205,むねの平見１,和歌山県串本町田原,,,,,1,,,,,33.537140394311,135.8735936944,
918,E3042800221209,黒潮台,和歌山県串本町田原,,,,,1,,,,,33.531121691265,135.86530030414,
919,E3042800221208,五平山,和歌山県串本町田原,,,,,1,,,,,33.533344099208,135.86814344569,
920,E3042800221207,むねの平見３,和歌山県串本町田原,,,,,1,,,,,33.535441248679,135.87435544176,
921,E3042800232201,山村交流センター,和歌山県串本町田原277-4,,1,,1,,,,,1,33.535713,135.868302,
922,E3042800233201,古座ヴィラコミュニティセンター,和歌山県串本町田原3704-101,1,1,,1,1,,,,1,33.5291018728,135.86260939181,
923,E3042800235201,津波避難タワー（田原）,和歌山県串本町田原428,,,,,1,,,,,33.534991,135.870269,
924,E3042800236201,田原区民会館,和歌山県串本町田原540,1,1,,1,,,,,1,33.536818,135.869058,
925,E3042800237201,旧田原中学校（２階以上）,和歌山県串本町田原700,1,1,,1,1,,,,1,33.537627774657,135.86798251315,
926,E3042800238202,田原小学校（体育館）,和歌山県串本町田原725,,,,1,,,,,1,33.539148025972,135.8684438531,
927,E3042800238201,田原小学校（２階以上）,和歌山県串本町田原725,1,,,,,,,,1,33.538830563936,135.86813271685,
928,E3042800408201,展望台,和歌山県串本町田原（展望台）,,1,,,1,,,,,33.53276726,135.8780676,
929,E3042800409201,坊の山,和歌山県串本町田原（坊の山）,,,,,1,,,,,33.53992603,135.8680147,
930,E3042800239205,中の平見中腹,和歌山県串本町田子,,,,,1,,,,,33.491834746301,135.68429726078,
931,E3042800239201,久美屋裏山,和歌山県串本町田子,,,,,1,,,,,33.49059775,135.6838064,
932,E3042800239202,元峰平見下,和歌山県串本町田子,,1,,,1,,,,,33.49082742,135.6808439,
933,E3042800239203,元峰平見上,和歌山県串本町田子,,1,,,1,,,,,33.492835,135.682388,
934,E3042800239207,富山平見,和歌山県串本町田子,,1,,,1,,,,,33.49061117,135.6884627,
935,E3042800239206,田子区民会館裏山,和歌山県串本町田子,,1,,,1,,,,,33.49250357,135.6834953,
936,E3042800239204,中の平見中央,和歌山県串本町田子,,1,,,1,,,,,33.49124645,135.6851797,
937,E3042800246201,田子多目的集会所,和歌山県串本町田子118-5,,,,1,,,,,,33.49251699,135.6837528,
938,E3042800248201,願成寺,和歌山県串本町田子89,,,,1,1,,,,1,33.494587,135.683536,
939,E3042800250207,旧田並小学校体育館裏山,和歌山県串本町田並,,,,,1,,,,,33.48912785,135.7168377,
940,E3042800250208,国道４２号（いねむりパーキング付近）,和歌山県串本町田並,,1,,,1,,,,,33.488806,135.705845,
941,E3042800250201,ＪＲトンネル裏,和歌山県串本町田並,,,,,1,,,,,33.48797359,135.7141126,
942,E3042800250204,円光寺裏山,和歌山県串本町田並,,,,,1,,,,,33.48757093,135.715958,
943,E3042800250203,のうなぎ２,和歌山県串本町田並,,,,,1,,,,,33.48888626,135.7104541,
944,E3042800250202,のうなぎ１,和歌山県串本町田並,,,,,1,,,,,33.48919943,135.7093705,
945,E3042800250205,灰地,和歌山県串本町田並,,,,,1,,,,,33.48700721,135.7133401,
946,E3042800250206,旧国道１,和歌山県串本町田並,,,,,1,,,,,33.48565999,135.7185357,
947,E3042800250209,国道４２号串本方面,和歌山県串本町田並,,,,,1,,,,,33.48715431,135.7207083,
948,E3042800369201,津波避難タワー（田並）,和歌山県串本町田並1073-3,,,,,1,,,,,33.4862511,135.7169772,
949,E3042800265201,円光寺,和歌山県串本町田並1141,,,,1,,,,,1,33.48728687,135.7162346,
950,E3042800266201,旧田並小学校（体育館）,和歌山県串本町田並1212,,,,1,,,,,1,33.48894275,135.717669,
951,E3042800267201,串本西中学校（２階以上）,和歌山県串本町田並1300,1,,,,,,,,1,33.4902023,135.7167023,
952,E3042800267202,串本西中学校（体育館）,和歌山県串本町田並1300,,,,1,,,,,1,33.49032069,135.7171219,
953,E3042800268201,串本町リサイクルセンター,和歌山県串本町田並2288-1,,,,,1,,,,,33.487002736733,135.72475024864,
954,E3042800269201,田並公民館,和歌山県串本町田並910,1,1,,1,,,,,1,33.485897,135.715505,
955,E3042800390201,佐居裏山,和歌山県串本町田並（佐居裏山）,,,,,1,,,,,33.48959761,135.7213707,
956,E3042800391201,西峰１,和歌山県串本町田並（西峰１）,,,,,1,,,,,33.48861783,135.7160545,
957,E3042800392201,西峰２,和歌山県串本町田並（西峰２）,,,,,1,,,,,33.48889521,135.7172132,
958,E3042800393201,天神,和歌山県串本町田並（天神）,,,,,1,,,,,33.4898297,135.7195013,
959,E3042800394201,田ノ崎,和歌山県串本町田並（田ノ崎）,,,,,1,,,,,33.48375009,135.7097996,
960,E3042800270201,荒計谷,和歌山県串本町田並上,,,,,1,,,,,33.49722911,135.7172697,
961,E3042800270203,竹内裏墓地,和歌山県串本町田並上,,,,,1,,,,,33.49372185,135.7193082,
962,E3042800270204,津呂地平見,和歌山県串本町田並上,,,,,1,,,,,33.49263028,135.7175808,
963,E3042800270202,水本裏山,和歌山県串本町田並上,,,,,1,,,,,33.495168,135.718961,
964,E3042800380201,田並地区防災拠点施設,和歌山県串本町田並上1131,1,1,,1,1,,,,1,33.492175,135.717402,
965,E3042800274201,愛民会館,和歌山県串本町田並上95-3,1,,,1,1,,,,1,33.49580509,135.7185363,
966,E3042800275207,戸畔,和歌山県串本町二色,,1,,,1,,,,,33.48141099,135.7693702,
967,E3042800275208,大乗,和歌山県串本町二色,,,,,1,,,,,33.48042493,135.7746057,
968,E3042800275209,茶山西,和歌山県串本町二色,,,,,1,,,,,33.48000434,135.7714622,
969,E3042800275206,戸先２,和歌山県串本町二色,,,,,1,,,,,33.47856806,135.7688175,
970,E3042800275205,戸先１,和歌山県串本町二色,,,,,1,,,,,33.47816536,135.7686351,
971,E3042800275204,旧錦富小学校裏山,和歌山県串本町二色,,1,,,1,,,,,33.48378924,135.7654224,
972,E3042800275203,稲荷神社裏山,和歌山県串本町二色,,,,,1,,,,,33.48535996,135.7714032,
973,E3042800275202,伊平裏山,和歌山県串本町二色,,,,,1,,,,,33.48042045,135.7693003,
974,E3042800275201,キッチョモ裏山,和歌山県串本町二色,,,,,1,,,,,33.481718,135.7707702,
975,E3042800288201,にしき園（屋上）,和歌山県串本町二色160,,,,,1,,,,1,33.48907336,135.7689623,
976,E3042800289201,法雲寺,和歌山県串本町二色227,,,,1,,,,,1,33.48703325,135.7702283,
977,E3042800290201,旧錦富小学校（屋上）,和歌山県串本町二色360,1,,,1,,,,,1,33.48345368,135.7651381,
978,E3042800290202,旧錦富小学校体育館,和歌山県串本町二色360,1,,,1,,,,,1,33.483231212736,135.76523723943,
979,E3042800291201,二色多目的集会所,和歌山県串本町二色372-1,1,1,,1,,,,,1,33.48222394,135.766917,
980,E3042800399201,茶山東,和歌山県串本町二色（茶山東）,,,,,1,,,,,33.47967771,135.7735757,
981,E3042800400201,楠の下,和歌山県串本町二色（楠の下）,,1,,,1,,,,,33.48833069,135.769531,
982,E3042800401201,法雲寺裏山,和歌山県串本町二色（法雲寺裏山）,,,,,1,,,,,33.48741801,135.7703517,
983,E3042800402201,又射谷,和歌山県串本町二色（又射谷）,,,,,1,,,,,33.48412,135.766057,
984,E3042800293208,旧養春小学校裏山,和歌山県串本町姫,,,,,1,,,,,33.50143615812,135.8006856107,
985,E3042800293209,池田山,和歌山県串本町姫,,,,,1,,,,,33.501632980365,135.79571815961,
986,E3042800293201,いちすけ裏山,和歌山県串本町姫,,,,,1,,,,,33.50175375743,135.79858812325,
987,E3042800293202,かじや山,和歌山県串本町姫,,,,,1,,,,,33.499700524407,135.79617413514,
988,E3042800293203,しりでの坂,和歌山県串本町姫,,1,,,1,,,,,33.494667884562,135.79536410802,
989,E3042800293204,井上山,和歌山県串本町姫,,,,,1,,,,,33.498609025587,135.79505833619,
990,E3042800293205,稲荷山,和歌山県串本町姫,,,,,1,,,,,33.501843,135.797879,
991,E3042800293206,海林寺,和歌山県串本町姫,,,,1,,,,,,33.501999784263,135.79692515367,
992,E3042800293207,海林寺裏山,和歌山県串本町姫,,,,,1,,,,,33.502353167037,135.79685005182,
993,E3042800305201,旧養春小学校,和歌山県串本町姫27,1,,,1,,,,,1,33.501182511579,135.8004768924,
994,E3042800306201,老人憩の家「福寿荘」,和歌山県串本町姫718-1,1,1,,1,,,,,1,33.497799,135.796986,
995,E3042800388201,中山蜜柑畑,和歌山県串本町姫（中山蜜柑畑）,,,,,1,,,,,33.50174034,135.8002243,
996,E3042800389201,崩れ,和歌山県串本町姫（崩れ）,,1,,,1,,,,,33.50130196,135.8023915,
997,E3042800307205,串本西小学校裏山,和歌山県串本町有田,,,,,1,,,,,33.4911847,135.7344349,
998,E3042800307209,国道４２号（田並寄）,和歌山県串本町有田,,,,,1,,,,,33.48667726,135.7311465,
999,E3042800307208,港谷配水池,和歌山県串本町有田,,,,,1,,,,,33.48865698,135.7381148,
1000,E3042800307207,港谷,和歌山県串本町有田,,,,,1,,,,,33.48841919026,135.73767759337,
1001,E3042800307206,串本有田病院付近,和歌山県串本町有田,,,,,1,,,,,33.49447286,135.7386191,
1002,E3042800307204,旧国道（入谷）,和歌山県串本町有田,,,,,1,,,,,33.48527689,135.731876,
1003,E3042800307203,貝岡中の硲,和歌山県串本町有田,,1,,,1,,,,,33.48790536,135.7414462,
1004,E3042800307202,逢坂山トンネル付近,和歌山県串本町有田,,,,,1,,,,,33.48451832,135.7396781,
1005,E3042800307201,チンチンアメ,和歌山県串本町有田,,1,,,1,,,,,33.49215326,135.7319404,
1006,E3042800326201,串本西小学校（体育館）,和歌山県串本町有田411,,,,1,,,,,1,33.48986,135.735718,
1007,E3042800327201,大山町営住宅Ｂ,和歌山県串本町有田478-4,,,,,1,,,,,33.49173944,135.73635,
1008,E3042800328201,大山町営住宅Ａ,和歌山県串本町有田478-9,,,,,1,,,,,33.49168129,135.7358993,
1009,E3042800329201,正覚寺,和歌山県串本町有田520,,,,1,,,,,1,33.48918043,135.736409,
1010,E3042800330201,有田公民館,和歌山県串本町有田630,1,1,,1,,,,,1,33.48652,135.7369888,
1011,E3042800331201,旧稲村環境管理センター,和歌山県串本町有田883,,,,,1,,,,1,33.481869137617,135.73888995184,
1012,E3042800414201,佐々木山,和歌山県串本町有田（佐々木山）,,,,,1,,,,,33.48600616,135.7343651,
1013,E3042800415201,次右衛門谷,和歌山県串本町有田（次右衛門谷）,,,,,1,,,,,33.48796555,135.7340857,
1014,E3042800416201,出水の谷,和歌山県串本町有田（出水の谷）,,,,,1,,,,,33.48695912,135.7338823,
1015,E3042800417201,正覚寺柿山,和歌山県串本町有田（正覚寺柿山）,,1,,,1,,,,,33.48938846,135.736366,
1016,E3042800418201,天理の丘,和歌山県串本町有田（天理の丘）,,,,,1,,,,,33.4869768,135.7387528,
1017,E3042800419201,天理の丘南,和歌山県串本町有田（天理の丘南）,,,,,1,,,,,33.4864379,135.7384796,
1018,E3042800420201,風吹山登山口,和歌山県串本町有田（風吹山登山口）,,,,,1,,,,,33.49306813,135.739236,
1019,E3042800421201,和助の山Ａ,和歌山県串本町有田（和助の山Ａ）,,,,,1,,,,,33.48641553,135.7397027,
1020,E3042800422201,和助の山Ｂ,和歌山県串本町有田（和助の山Ｂ）,,,,,1,,,,,33.48679135,135.7399227,
1021,E3042800423201,和田地,和歌山県串本町有田（和田地）,,,,,1,,,,,33.4894511,135.7334371,
1022,E3042800332201,宝生寺,和歌山県串本町有田上94,,,,,1,,,,,33.49362287,135.7322998,
1023,E3042800333201,里川集会所,和歌山県串本町里川636,1,,,1,1,,,,1,33.5428655,135.6573632,
1024,E3042800334203,安指平見,和歌山県串本町和深,,1,,,1,,,,,33.493783,135.668311,
1025,E3042800334208,鉄道法面,和歌山県串本町和深,,1,,,1,,,,,33.49326507,135.6687048,
1026,E3042800334207,中嶋,和歌山県串本町和深,,,,,1,,,,,33.50377306,135.6575629,
1027,E3042800334206,上野,和歌山県串本町和深,,,,,1,,,,,33.50386253,135.6556747,
1028,E3042800334205,九ノ平見,和歌山県串本町和深,,1,,,1,,,,,33.491634,135.671841,
1029,E3042800334204,金崎ガード裏山,和歌山県串本町和深,,1,,,1,,,,,33.49168362,135.6729964,
1030,E3042800334209,不動さん,和歌山県串本町和深,,1,,,1,,,,,33.49315994,135.6705502,
1031,E3042800334202,安指大橋の西,和歌山県串本町和深,,,,,1,,,,,33.49189612,135.6685815,
1032,E3042800334201,あらの坂,和歌山県串本町和深,,,,,1,,,,,33.49579489,135.6693432,
1033,E3042800346201,小河口多目的集会所,和歌山県串本町和深1170,1,,,1,1,,,,1,33.509004,135.658008,
1034,E3042800347201,東地花卉集荷施設,和歌山県串本町和深1851,,1,,1,1,,,,1,33.4986727,135.6577669,
1035,E3042800350201,赤瀬公民館,和歌山県串本町和深2876,1,1,,1,1,,,,1,33.48976562,135.675851,
1036,E3042800436201,ＪＲ田子駅,和歌山県串本町和深2954,,,,,1,,,,,33.49033827,135.6777017,
1037,E3042800351201,西地花卉集荷施設,和歌山県串本町和深535-4,,1,,1,1,,,,1,33.50232824,135.65038,
1038,E3042800352201,和深総合センター,和歌山県串本町和深689,1,1,,1,1,,,,1,33.5019044,135.6517562,
1039,E3042800353201,和深前地コミュニティセンター,和歌山県串本町和深697-2,,1,,1,1,,,,1,33.500622,135.651825,
1040,E3042800354201,ＪＲ和深駅付近,和歌山県串本町和深800,,1,,,1,,,,,33.501147,135.654982,
1041,E3042800355201,和深公民館,和歌山県串本町和深910,1,,,1,,,,,1,33.502523,135.656882,
1042,E3042800356201,上品寺,和歌山県串本町和深929,,,,1,1,,,,1,33.5032287,135.6558534,
1043,E3042800357201,旧和深中学校,和歌山県串本町和深978,,,,1,1,,,,1,33.504982983567,135.6568592467,
1044,E3042800396201,民宿えびす付近,和歌山県串本町和深（民宿えびす付近）,,,,,1,,,,,33.49882563,135.6608782,
1045,E3042800397201,和深屯所付近,和歌山県串本町和深（和深屯所付近）,,1,,,1,,,,,33.50181829,135.6584749,
1046,E3042800398201,和田谷,和歌山県串本町和深（和田谷）,,,,,1,,,,,33.503372,135.658042,
1047,E3042800349201,安指会館,和歌山県串本町和深２７２０－５先,,,,1,,,,,,33.49212876,135.6696114,
1048,E3042800358205,西地坂道,和歌山県串本町鬮野川,,,,,1,,,,,33.48666363,135.7907823,
1049,E3042800358208,六勝寺跡,和歌山県串本町鬮野川,,,,,1,,,,,33.48869146599,135.7930365582,
1050,E3042800358207,大乗郷,和歌山県串本町鬮野川,,,,,1,,,,,33.482874817478,135.77701224138,
1051,E3042800358206,西地墓地上,和歌山県串本町鬮野川,,,,,1,,,,,33.4849881,135.7894009,
1052,E3042800358204,坂地うどん店駐車場付近,和歌山県串本町鬮野川,,1,,,1,,,,,33.48918442096,135.79262338442,
1053,E3042800358203,橋杭集会所上,和歌山県串本町鬮野川,,,,,1,,,,,33.487723843682,135.79138349074,
1054,E3042800358202,阿部付近,和歌山県串本町鬮野川,,,,,1,,,,,33.481261237607,135.77963505113,
1055,E3042800358201,ＪＲトンネル上,和歌山県串本町鬮野川,,,,,1,,,,,33.489765082424,135.79439846893,
1056,E3042800368201,徳泉寺,和歌山県串本町鬮野川214,,,,1,1,,,,1,33.4962276,135.7859418,
1057,E3042800367201,橋杭集会所,和歌山県串本町鬮野川１４５５番地内1,1,,,1,,,,,,33.487602,135.7917442,
1058,E3042400001201,明神中学校,和歌山県古座川町一雨16,1,1,,1,1,1,1,,1,33.537239432328,135.75741962025,
1059,E3042400002201,一雨集会所,和歌山県古座川町一雨187,,,,1,1,1,,,1,33.5359861,135.7439052,
1060,E3042400003201,七川総合センター,和歌山県古座川町下露351-2,1,1,,1,1,1,,,1,33.619763,135.709536,
1061,E3042400004201,旧七川小学校,和歌山県古座川町下露441,1,1,,1,1,1,1,,1,33.6204627,135.7100131,
1062,E3042400005201,月野瀬集会所,和歌山県古座川町月野瀬520,1,1,,1,1,1,1,,1,33.5416442,135.7963749,
1063,E3042400006201,ぼたん荘,和歌山県古座川町月野瀬881-1,1,1,,1,1,1,1,,1,33.535897,135.789462,
1064,E3042400007201,長徳寺,和歌山県古座川町高瀬362,,,,1,1,1,,,1,33.5351033,135.7775183,
1065,E3042400008201,古座中学校校舎,和歌山県古座川町高池139,1,1,,1,1,1,1,,1,33.525045051007,135.82315419318,
1066,E3042400009201,古座川町津波避難総合センター,和歌山県古座川町高池261-1,1,,,1,1,1,,,1,33.526371,135.819982,
1067,E3042400010201,上部集会所,和歌山県古座川町高池657-1,1,1,,1,1,1,1,,1,33.531817072245,135.8155629609,
1068,E3042400011201,中央公民館,和歌山県古座川町高池777,1,1,,1,1,1,1,,1,33.534304,135.816072,
1069,E3042400012201,七川総合集会所,和歌山県古座川町佐田627,1,1,,1,1,1,1,,1,33.593489,135.6974514,
1070,E3042400013201,三尾川小学校,和歌山県古座川町三尾川935,1,1,,1,1,1,1,,1,33.5579331,135.6865767,
1071,E3042400014201,三尾川生活改善センター,和歌山県古座川町三尾川943,1,1,,1,1,1,1,,1,33.5572936,135.6864926,
1072,E3042400015201,山手集会所,和歌山県古座川町山手315,1,1,,1,1,1,1,,1,33.5777456,135.7550136,
1073,E3042400016201,潤野集会所,和歌山県古座川町潤野549,1,1,,1,1,1,1,,1,33.536699354055,135.76302288678,
1074,E3042400017201,清雲寺,和歌山県古座川町小森川175,1,1,,1,1,1,1,,1,33.6443041,135.7842871,
1075,E3042400018201,椎平集会所,和歌山県古座川町小川152-1,1,1,,1,1,1,1,,1,33.5883875,135.7627903,
1076,E3042400019201,宝音寺,和歌山県古座川町小川554,1,1,,1,1,1,1,,1,33.5935133,135.7706622,
1077,E3042400020201,長集会所,和歌山県古座川町小川730,,,,1,1,1,,,1,33.5979358,135.7665206,
1078,E3042400021201,小川総合センター,和歌山県古座川町小川774-1,1,1,,1,1,1,1,,1,33.601915906979,135.76581174709,
1079,E3042400022201,松根集会所,和歌山県古座川町松根545,1,1,,1,1,1,1,,1,33.6653109,135.715476,
1080,E3042400023201,永泉寺,和歌山県古座川町松根546,,,,1,1,1,,,1,33.6660479,135.714786,
1081,E3042400024201,真砂区民倶楽部,和歌山県古座川町真砂128,,,,1,1,1,,,1,33.5837055,135.6891182,
1082,E3042400025201,成川集会所,和歌山県古座川町成川690,,,,1,1,1,,,1,33.6443522,135.7153678,
1083,E3042400026201,西赤木集会所,和歌山県古座川町西赤木93,,,,1,1,1,,,1,33.6234956,135.7781827,
1084,E3042400027201,西川生活改善センター,和歌山県古座川町西川621-1,1,1,,1,1,1,1,,1,33.6378453,135.7086575,
1085,E3042400028201,古座川町保健福祉センター,和歌山県古座川町川口254-1,1,1,,1,1,1,1,,1,33.542417122075,135.77565741701,
1086,E3042400029201,相瀬集会所,和歌山県古座川町相瀬227,1,1,,1,1,1,1,,1,33.5484799,135.7272016,
1087,E3042400030201,田野々集会所,和歌山県古座川町蔵土38,,,,1,1,1,,,1,33.5572951,135.6902646,
1088,E3042400031201,住吉神社社務所,和歌山県古座川町蔵土450,,,,1,1,1,,,1,33.5500038,135.6989345,
1089,E3042400032201,松の前集会所,和歌山県古座川町大川476-12,1,1,,1,1,1,1,,1,33.569205,135.678912,
1090,E3042400034201,端郷倶楽部,和歌山県古座川町大川68,1,1,,1,1,1,1,,1,33.559570301085,135.68897133944,
1091,E3042400035201,大柳集会所,和歌山県古座川町大柳380,1,1,,1,1,1,1,,1,33.5345771,135.7506624,
1092,E3042400036201,池野山集会所,和歌山県古座川町池野山355-2,1,1,,1,1,1,1,,1,33.5392075,135.8226941,
1093,E3042400037201,中崎集会所,和歌山県古座川町中崎242-2,1,1,,1,1,1,1,,1,33.5649991,135.7730847,
1094,E3042400038201,清源寺,和歌山県古座川町長追260-2,1,1,,1,1,1,1,,1,33.575391068961,135.67565316716,
1095,E3042400039201,長追集会所,和歌山県古座川町長追265,,,,1,1,1,,,1,33.575328497165,135.67637199918,
1096,E3042400040201,直見集会所,和歌山県古座川町直見487,,,,1,1,1,,,1,33.5522007,135.7785517,
1097,E3042400041201,鶴川集会所,和歌山県古座川町鶴川106-2,1,1,,1,1,1,1,,1,33.5295931,135.7454834,
1098,E3042400042201,添野川集会所,和歌山県古座川町添野川818,1,1,,1,1,1,1,,1,33.616082957657,135.67322271053,
1099,E3042400043201,田川集会所,和歌山県古座川町田川413,1,1,,1,1,1,1,,1,33.628555269155,135.78377267595,
1100,E3042400044201,放光寺,和歌山県古座川町洞尾198,,,,1,1,1,,,1,33.5547033,135.7166276,
1101,E3042400045201,寿福寺,和歌山県古座川町南平294,,,,1,1,1,,,1,33.5319632,135.6874766,
1102,E3042400046201,楠集会所,和歌山県古座川町楠189,1,1,,1,1,1,1,,1,33.572949995045,135.82288495303,
1103,E3042400047201,旧七川小学校平井分校,和歌山県古座川町平井469,1,1,,1,1,1,1,,1,33.643202488326,135.68953112258,
1104,E3042400048201,峯集会所,和歌山県古座川町峯75,1,1,,1,1,1,1,,1,33.533385766919,135.71240005508,
1105,E3042400049201,立合集会所,和歌山県古座川町立合127,1,1,,1,1,1,1,,1,33.5375401,135.7287836,
1106,E3020500001201,日高看護専門学校,和歌山県御坊市薗116-2,,,,,1,,,,,33.896404,135.154042,「津波」では２階以上に避難
1107,E3020500002201,西日本電信電話㈱御坊別館ビル,和歌山県御坊市薗210-1,,,,,1,,,,,33.890232,135.155151,「津波」では４階に避難
1108,E3020500003201,御坊小学校,和歌山県御坊市薗226,1,1,,1,1,1,1,,1,33.8919485,135.154961,「津波」では３階以上に避難
1109,E3020500004201,ジョーシン電気御坊店,和歌山県御坊市薗336-1,,,,,1,,,,,33.890985,135.151511,「津波」では３階以上に避難
1110,E3038100001201,Ｊｏｓｈｉｎ御坊店,和歌山県御坊市薗336-1,,,,,1,,,,,33.891157305556,135.15117768328,
1111,E3020500005202,御坊市役所,和歌山県御坊市薗350,1,,,1,1,1,1,,1,33.891263,135.152046,
1112,E3020500005201,福祉センター,和歌山県御坊市薗350,1,1,,1,1,1,1,,1,33.8908522,135.152788,
1113,E3020500006201,御坊商工会館,和歌山県御坊市薗350-28,1,1,,,1,,1,,,33.890629,135.152825,「津波」では３階以上に避難
1114,E3020500007201,御坊市中央公民館,和歌山県御坊市薗378-1,1,1,,1,1,1,1,,1,33.8907543,135.153446,「津波」では３階以上に避難
1115,E3020500008201,新町地区津波避難タワー,和歌山県御坊市薗678,,,,,1,,,,,33.886173294397,135.15482557005,「津波」では２階以上に避難
1116,E3020500009201,勤労青少年ホーム,和歌山県御坊市薗76,1,1,,1,1,1,1,,1,33.8937888,135.152608,「津波」では２階以上に避難
1117,E3020500010201,薗地区津波避難タワー,和歌山県御坊市薗980-2,,,,,1,,,,,33.8871581,135.161616,「津波」では２階以上に避難
1118,E3020500083201,観音山,和歌山県御坊市塩屋町南塩屋,,,,,1,,,,,33.858677624891,135.16364132053,
1119,E3020500083202,須佐神社,和歌山県御坊市塩屋町南塩屋,,,,,1,,,,,33.868496,135.178965,
1120,E3020500011201,御坊総合運動公園駐車場,和歌山県御坊市塩屋町南塩屋1122,,,,,1,,,,,33.8621418,135.167753,
1121,E3020500012201,塩屋小学校,和歌山県御坊市塩屋町南塩屋17,1,1,,1,,1,1,,1,33.8683579,135.163273,
1122,E3020500014201,森岡会館,和歌山県御坊市塩屋町南塩屋1915-2,1,1,,1,1,1,1,,1,33.8675786,135.176826,
1123,E3020500015201,関西電力㈱社宅前駐車場,和歌山県御坊市塩屋町南塩屋243,,,,,1,,,,,33.86584,135.163264,
1124,E3020500084203,塩屋王子神社,和歌山県御坊市塩屋町北塩屋,,,,,1,,,,,33.869817,135.162086,
1125,E3020500084201,北塩屋　上の芝　高台,和歌山県御坊市塩屋町北塩屋,,,,,1,,,,,33.8751559,135.159775,
1126,E3020500084202,北塩屋　六豆山,和歌山県御坊市塩屋町北塩屋,,,,,1,,,,,33.870164,135.164326,
1127,E3020500018201,日高博愛園しおや,和歌山県御坊市塩屋町北塩屋1246,1,1,,1,1,1,1,,1,33.873316215096,135.16211138358,
1128,E3020500020201,猪野々会館,和歌山県御坊市塩屋町北塩屋1973-8,1,1,,1,1,1,1,,1,33.8710998,135.180807,
1129,E3020500021201,河南中学校,和歌山県御坊市塩屋町北塩屋300,1,,,1,1,1,1,,1,33.8783656,135.167466,
1130,E3020500024201,岩内会館,和歌山県御坊市岩内139,1,1,,1,1,1,1,,1,33.8886893,135.170283,
1131,E3020500025201,熊野会館,和歌山県御坊市熊野988,1,,,1,1,1,1,,1,33.8885244,135.181447,
1132,E3020500026201,御坊中学校,和歌山県御坊市島10,1,1,,1,1,1,1,,1,33.8984943,135.159354,「津波」では２階以上に避難
1133,E3020500081201,博愛園デイサービスセンター春日,和歌山県御坊市島221-2,1,,,1,1,1,1,,1,33.891605,135.159393,
1134,E3020500027201,わかば保育園,和歌山県御坊市島333,,,,1,,1,,,1,33.8877201,135.160072,
1135,E3020500028201,日高川ハイツ　あじさい棟,和歌山県御坊市島352,,,,,1,,,,,33.888818,135.161828,「津波」では３階以上に避難
1136,E3020500028202,日高川ハイツ　にじ棟,和歌山県御坊市島352,,,,,1,,,,,33.889057,135.161548,「津波」では３階以上に避難
1137,E3020500028203,日高川ハイツ　バラ棟,和歌山県御坊市島352,,,,,1,,,,,33.889272,135.162208,「津波」では３階以上に避難
1138,E3020500029201,薗会館,和歌山県御坊市島358-1,1,1,,1,,1,1,,1,33.8882362,135.160947,
1139,E3020500030201,日高川ハイツ　ゆり棟,和歌山県御坊市島366,,,,,1,,,,,33.888045,135.16213,「津波」では３階以上に避難
1140,E3020500031201,市立武道館,和歌山県御坊市島426-1,,,,1,,1,,,1,33.8907323,135.163346,
1141,E3020500032201,つばさ保育園,和歌山県御坊市島430-2,1,1,,1,,1,1,,1,33.891274,135.161615,
1142,E3020500033201,日高高等学校,和歌山県御坊市島45,1,1,,1,1,1,1,,1,33.8963634,135.157826,「津波」では北側４階建て校舎に避難
1143,E3020500034203,グリーンハイツ　秋桜棟,和歌山県御坊市島454,,,,,1,,,,,33.892661,135.164199,「津波」では３階以上に避難
1144,E3020500034201,グリーンハイツ　カトレア棟,和歌山県御坊市島454,,,,,1,,,,,33.893197,135.164446,「津波」では３階以上に避難
1145,E3020500034202,グリーンハイツ　すみれ棟,和歌山県御坊市島454,,,,,1,,,,,33.892775,135.164619,「津波」では３階以上に避難
1146,E3020500035201,グリーンハイツ　すずらん棟,和歌山県御坊市島462-1,,,,,1,,,,,33.893582,135.164544,「津波」では３階以上に避難
1147,E3020500036201,島会館,和歌山県御坊市島486-1,1,1,,1,,1,1,,1,33.8913026,135.161957,
1148,E3020500037201,グリーンハイツ　さくら棟,和歌山県御坊市島614-2,,,,,1,,,,,33.894144,135.164328,「津波」では３階以上に避難
1149,E3020500038201,丁畑集会所,和歌山県御坊市島618-2,1,1,,1,,1,1,,1,33.8945139,135.164944,
1150,E3020500039201,税務署御坊寮,和歌山県御坊市島84-2,,,,,1,,,,,33.8946111,135.158133,「津波」では３階以上に避難
1151,E3020500082201,丸山　西山,和歌山県御坊市湯川町丸山,,,,,1,,,,,33.913666,135.15,
1152,E3020500082202,丸山　宮山,和歌山県御坊市湯川町丸山,,,,,1,,,,,33.908241,135.153069,
1153,E3038100002201,オークワロマンシティ,和歌山県御坊市湯川町財部181,,,,,1,,,,,33.897578282023,135.14876369517,
1154,E3020500042201,オークワ　ロマンシティ御坊店,和歌山県御坊市湯川町財部181,,,,,1,,,,,33.897732,135.149438,「津波」では２階以上に避難
1155,E3020500043201,財部会館,和歌山県御坊市湯川町財部485,1,1,,1,1,1,1,,1,33.9015079,135.152816,「津波」では２階以上に避難
1156,E3020500044201,きのくに信用金庫御坊営業部,和歌山県御坊市湯川町財部701,,,,,1,,,,,33.897696342894,135.15405327699,「津波」では２階以上に避難
1157,E3020500045201,湯川幼稚園,和歌山県御坊市湯川町財部831-1,,,,1,1,1,,,1,33.900224,135.159997,
1158,E3020500046201,湯川小学校,和歌山県御坊市湯川町小松原179,1,1,,1,1,1,1,,1,33.9037471,135.163068,
1159,E3020500047201,湯川コミュニティセンター,和歌山県御坊市湯川町小松原317-1,1,1,,1,1,1,1,,1,33.904001,135.162524,
1160,E3020500048201,紀央館高等学校,和歌山県御坊市湯川町小松原43-1,1,1,,1,1,1,1,,1,33.906169,135.161464,「津波」では４階以上に避難
1161,E3020500049201,湯川中学校,和歌山県御坊市湯川町小松原50,1,1,,1,1,1,1,,1,33.9067569,135.163509,「津波」ではグラウンドに避難
1162,E3020500050201,小松原西会館,和歌山県御坊市湯川町小松原589-15,,,,1,,1,,,1,33.9034159,135.148417,
1163,E3020500051201,上富安集会場,和歌山県御坊市湯川町富安1028,1,1,,1,1,1,1,,1,33.9272367,135.162286,
1164,E3020500052201,下富安集会場,和歌山県御坊市湯川町富安1481,1,1,,1,1,1,1,,1,33.9192713,135.162364,
1165,E3020500053201,西富安集会所,和歌山県御坊市湯川町富安1659-2,,,,1,,1,,,1,33.9162835,135.151988,
1166,E3020500054201,しらゆり保育園,和歌山県御坊市湯川町富安1913-7,,,,1,,1,,,1,33.9158701,135.152255,
1167,E3020500054202,湯川文化会館,和歌山県御坊市湯川町富安1913-7,1,1,,1,1,1,1,,1,33.915848,135.152267,「津波」では２階以上に避難
1168,E3020500055201,鳳生寺,和歌山県御坊市湯川町富安2133,,,,,1,,,,,33.9132716,135.161447,
1169,E3020500086201,吉田八幡神社,和歌山県御坊市藤田町吉田,,,,,1,,,,,33.913158,135.16959,
1170,E3020500056201,ヨシダエルシス（株）社屋屋上,和歌山県御坊市藤田町吉田155,,,,,1,,,,,33.906138446992,135.17095651488,
1171,E3020500058201,藤田会館,和歌山県御坊市藤田町吉田286-1,1,1,,1,1,1,1,,1,33.9041628,135.1678647,
1172,E3020500061201,藤田小学校,和歌山県御坊市藤田町藤井2047-1,1,1,,1,1,1,1,,1,33.907873,135.173905,
1173,E3020500062201,藤田コミュニティセンター,和歌山県御坊市藤田町藤井2119-1,1,1,,1,1,1,1,,1,33.9057601,135.173073,
1174,E3020500063201,名屋地区津波避難タワー,和歌山県御坊市名屋町1-14-3,,,,,1,,,,,33.882880671211,135.15713590454,「津波」では２階以上に避難
1175,E3020500064201,名田中学校,和歌山県御坊市名田町上野1348-15,1,1,,1,1,1,1,,1,33.8345009,135.182704,
1176,E3020500065201,上野会館,和歌山県御坊市名田町上野1569-3,1,1,,1,1,1,1,,1,33.8296759,135.181437,
1177,E3020500066201,楠井会館,和歌山県御坊市名田町楠井1940-2,1,1,,1,1,1,1,,1,33.8215501,135.192133,
1178,E3020500067201,名田幼稚園,和歌山県御坊市名田町野島1-3,,,,1,1,,,,1,33.832697,135.178424,
1179,E3020500068201,野島会館,和歌山県御坊市名田町野島1747,1,1,,1,1,1,1,,1,33.8425104,135.171898,
1180,E3020500069201,名田小学校,和歌山県御坊市名田町野島326,1,1,,1,1,1,1,,1,33.8334517,135.179538,
1181,E3020500070201,祓井戸会館,和歌山県御坊市名田町野島3403,1,1,,1,1,1,1,,1,33.8554734,135.164759,「津波」では２階以上に避難
1182,E3020500071201,加尾会館,和歌山県御坊市名田町野島358,1,1,,1,1,1,1,,1,33.8360885,135.178027,
1183,E3020500072201,国立和歌山高専,和歌山県御坊市名田町野島77,1,1,,1,1,1,1,,1,33.8342513,135.177669,
1184,E3020500085201,明神川　春日山,和歌山県御坊市明神川,,,,,1,,,,,33.873817,135.195806,
1185,E3020500074201,明神川会館,和歌山県御坊市明神川615-3,1,1,,1,1,1,1,,1,33.8720322,135.199764,
1186,E3020500075201,野口会館,和歌山県御坊市野口1185-2,1,1,,1,1,1,1,,1,33.9026153,135.18274,
1187,E3020500077201,野口コミュニティセンター,和歌山県御坊市野口254,1,1,,1,1,1,1,,1,33.8984963,135.184075,
1188,E3020500078201,野口小学校,和歌山県御坊市野口756-1,1,1,,1,1,1,1,,1,33.895603759599,135.18004320122,
1189,E3020500079201,古森区集会所,和歌山県御坊市野口841-2,1,1,,1,1,1,1,,1,33.894039,135.176035,
1190,E3036200015201,広川町役場３階,和歌山県広川町大字広1500,,,,,1,,,,1,34.029988148276,135.17305458529,
1191,E3036200016201,広東避難施設,和歌山県広川町大字広159-1,1,1,,1,1,,1,,1,34.0269107036,135.17866141678,
1192,E3036200024201,広小学校,和歌山県広川町大字広631,1,,,1,1,,1,,1,34.023324890373,135.17617210418,
1193,E3036200026201,津波防災教育センター３階,和歌山県広川町大字広671,,,,,1,,,,1,34.025883395277,135.17311887494,
1194,E3036200027201,花王有田研修所グラウンド,和歌山県広川町大字山本1724-10,,,,,1,,,,,34.023813057,135.15448157931,
1195,E3036200028201,広川町風力発電所（広川明神山風力発電所西空き地）,和歌山県広川町大字山本1959-2,,,,,1,,,,1,34.016257700073,135.15334635713,
1196,E3036200029201,山本区集会所,和歌山県広川町大字山本510-6,1,,,1,1,,1,,1,34.013760713359,135.1680442722,
1197,E3036200030201,池ノ上区集会場,和歌山県広川町大字山本924-17,1,,,1,1,,1,,1,34.013803222677,135.16637652854,
1198,E3036200031201,広川ビーチ駅前広場,和歌山県広川町大字山本969,,,,,1,,,,,34.013042858047,135.16389818622,
1199,E3036200032201,南広小学校,和歌山県広川町大字上中野1175,1,1,,1,1,,1,,1,34.012929894175,135.17572867015,
1200,E3036200034201,広八幡避難施設,和歌山県広川町大字上中野206-1,1,,,1,1,,1,,1,34.017701657304,135.17528858976,
1201,E3036200035201,男山焼会館,和歌山県広川町大字上中野88-2,,,,1,1,,,,1,34.015668024335,135.17818988305,
1202,E3036200044201,唐尾避難施設,和歌山県広川町大字唐尾1024-1,1,,,1,1,,1,,1,34.002680463593,135.14643178378,
1203,E3036200047201,善照寺,和歌山県広川町大字唐尾255,,,,,1,,,,,34.004064717355,135.14755612498,
1204,E3036200048201,東中避難タワー,和歌山県広川町大字東中128-1,1,1,,1,1,,1,,,34.019044230521,135.18517074055,
1205,E3036200052201,名島避難施設,和歌山県広川町大字名島292-1,,,,1,1,,1,,1,34.02353,135.184027,
1206,E3036200055201,たちばな支援学校（第２駐車場）,和歌山県広川町大字和田18,1,,,1,1,,1,,1,34.024344066924,135.16428171557,
1207,E3036200056201,たちばな支援学校,和歌山県広川町大字和田21-3,1,,,1,1,,1,,1,34.024490076205,135.16588664805,
1208,E3034400001201,湯川集会所,和歌山県高野町高野山大字湯川406,,1,,1,,1,,,,34.1864642760565,135.531508366355,
1209,E3034400002201,花坂多目的集会所,和歌山県高野町大字花坂651,1,1,,1,,1,1,,1,34.2168569384166,135.530348573033,
1210,E3034400003201,老人憩いの家,和歌山県高野町大字高野山17-59,1,1,,1,,1,1,,,34.2159398001993,135.607020526895,
1211,E3034400004201,桜団地公園,和歌山県高野町大字高野山20-135,1,1,,1,,1,1,,,34.2172172,135.611077,
1212,E3034400005201,高野山高校体育館,和歌山県高野町大字高野山212,1,1,,1,,1,1,,,34.2169362,135.577526,
1213,E3034400006201,高野山多目的集会所,和歌山県高野町大字高野山233,1,1,,1,,1,1,,,34.213104998385,135.575320580526,
1214,E3034400007201,高野山中学校運動場,和歌山県高野町大字高野山26-2,1,1,,1,,1,1,,1,34.2214206,135.590416,
1215,E3034400009201,高野山大師教会大講堂・研修道場,和歌山県高野町大字高野山347,1,1,,1,,1,1,,,34.2123062,135.582332,
1216,E3034400009202,高野山大学松下講堂黎明館,和歌山県高野町大字高野山347,1,1,,1,,1,1,,,34.212587,135.585466,
1217,E3034400010201,高野山小学校運動場,和歌山県高野町大字高野山376,1,1,,1,,1,1,,1,34.2114127,135.584787,
1218,E3034400011201,高野山大学体育館・武道場・学生ホール,和歌山県高野町大字高野山385,1,1,,1,,1,1,,,34.2118535,135.584805,
1219,E3034400013201,高野町屋内ゲートボール場,和歌山県高野町大字高野山44-24,1,1,,1,,1,1,,,34.2202015,135.593356,
1220,E3034400014201,高野山森林公園ちびっこ野球場,和歌山県高野町大字高野山45,1,1,,1,,1,1,,,34.2201856,135.59397,
1221,E3034400015201,高野山森林公園駐車場,和歌山県高野町大字高野山45-10,1,1,,1,,1,1,,,34.2204682,135.597289,
1222,E3034400017201,花坂小学校運動場,和歌山県高野町大字高野山651,1,1,,1,,1,,,,34.2165746,135.530567,
1223,E3034400019201,神谷集会所,和歌山県高野町大字細川457,1,1,,1,,1,1,,,34.2456438691083,135.572778318169,
1224,E3034400027201,細川団地集会所,和歌山県高野町大字細川689,,1,,1,,1,,,,34.234561,135.554243,
