NO,共通ID,施設・場所名,住所,洪水,崖崩れ、土石流及び地滑り,高潮,地震,津波,大規模な火事,内水氾濫,火山現象,指定避難所との住所同一,緯度,経度,備考
1,E3550200001201,阿武町ふれあいセンター,山口県阿武町大字宇田2224,1,1,1,1,1,1,1,1,1,34.5665132826083,131.54642970042,
2,E3550200003201,阿武小中学校屋内運動場,山口県阿武町大字奈古2964-1,1,1,1,1,1,1,1,1,1,34.5052991866705,131.473534897945,
3,E3550200004201,山口県立萩高等学校奈古分校　屋内運動場,山口県阿武町大字奈古2968-1,1,1,1,1,1,1,1,1,1,34.504187090359,131.473697626214,
4,E3550200005201,阿武町町民センター,山口県阿武町大字奈古3078-1,1,1,1,1,1,1,1,1,1,34.5059776465458,131.47529012271,
5,E3550200006201,阿武町体育センター,山口県阿武町大字奈古3193-1,1,1,1,1,1,1,1,1,1,34.5057838205167,131.4757639101,
6,E3550200007201,阿武町のうそんセンター,山口県阿武町大字福田下1365,1,1,1,1,1,1,1,1,1,34.5170594949054,131.597692613836,
7,E3520200001201,鵜の島ふれあいセンター,山口県宇部市鵜の島町7-6,,1,,,1,,,,1,33.96207269,131.2380178,
8,E3520200002201,恩田運動公園,山口県宇部市恩田町4,,,,1,1,,,,,33.94418904,131.2699819,
9,E3520200003201,俵田翁記念体育館,山口県宇部市恩田町4-1-1,1,,1,1,1,,1,,1,33.946801034516,131.272248853639,
10,E3520200004201,常盤ふれあいセンター,山口県宇部市亀浦1-1-50,1,1,1,1,1,,1,,1,33.94453301,131.2884175,
11,E3520200005201,三嶋会館,山口県宇部市居能町2-8-22,1,1,,,1,,1,,,33.96689908,131.2296519,
12,E3520200007201,厚南市民センター,山口県宇部市厚南中央3-1-2,,1,,1,1,,,,1,33.99414271,131.2178462,
13,E3520200008201,隣保館厚南会館　（厚南ふれあいセンター）,山口県宇部市厚南北1-2-24,,1,,1,1,,,,1,34.00079544,131.2188504,
14,E3520200009201,葉月ヶ丘自治会集会所,山口県宇部市厚南北4-10-14,1,1,1,1,1,,1,,,34.0035906,131.2132178,
15,E3520200010201,迫条自治会館,山口県宇部市厚南北4-19-17,1,1,1,,1,,1,,,34.00462939,131.2145241,
16,E3520200011201,黒石小学校,山口県宇部市黒石北3-2-35,,1,,1,1,1,,,1,33.98457818,131.2095459,
17,E3520200012201,黒石ふれあいセンター,山口県宇部市黒石北3-2-37-12,,1,,1,1,,,,1,33.98413782,131.2077327,
18,E3520200013201,恩田小学校,山口県宇部市笹山町1-4-1,1,,1,1,1,1,1,,1,33.94220199,131.2626705,
19,E3520200015201,鵜ノ島小学校,山口県宇部市小松原町2-10-25,,1,,1,1,1,,,1,33.96361869,131.2397806,
20,E3520200016201,西岐波小学校,山口県宇部市床波3-4-10,1,1,1,1,1,1,1,,1,33.9566991,131.3117462,
21,E3520200018201,白土自治会館,山口県宇部市床波4-8-40-6,1,1,1,1,1,,1,,,33.95754194,131.3166655,
22,E3520200019201,西岐波ふれあいセンター,山口県宇部市床波6-5-23,1,1,1,1,1,,1,,1,33.95483777,131.3122927,
23,E3520200020201,見初ふれあいセンター,山口県宇部市昭和町1-3-6,1,,,,1,,1,,1,33.9426816,131.2545116,
24,E3520200021201,岩鼻公園,山口県宇部市松崎町,,,,1,1,,,,,33.98115839,131.2247872,
25,E3520200022201,松崎会館,山口県宇部市松崎町3-5,1,1,1,,1,,1,,,33.98276607,131.2250376,
26,E3520200024201,神原ふれあいセンター,山口県宇部市松山町1-5-16,1,,,1,1,,1,,1,33.94715975,131.2538927,
27,E3520200025201,見初小学校,山口県宇部市松山町2-4-42,1,,,1,1,1,1,,1,33.94293972,131.25574,
28,E3520200026201,岬ふれあいセンター・岬小学校,山口県宇部市松山町5-8-10,1,,,1,1,1,1,,1,33.93544667,131.2595112,
29,E3520200027201,上宇部中学校,山口県宇部市沼2-4-8,1,1,1,1,1,1,1,,1,33.96074913,131.2655032,
30,E3520200028201,善福寺,山口県宇部市上条3-8-8,1,1,,,1,,1,,,33.97262853,131.2347445,
31,E3520200029201,藤山小学校,山口県宇部市上条4-4-1,1,1,1,1,1,1,1,,1,33.97458188,131.2320633,
32,E3520200030201,浄円寺,山口県宇部市上町1-5-12,1,1,,,1,,1,,,33.95897354,131.23927,
33,E3520200031201,常盤中学校,山口県宇部市上野中町3-40,1,,1,1,1,1,1,,1,33.95196724,131.2739502,
34,E3520200032201,信行寺,山口県宇部市常盤町1-6-13,1,,,1,1,,1,,,33.95067578,131.2486411,
35,E3520200033201,中央公園,山口県宇部市神原町1,,,,1,1,1,,,,33.94876286,131.2582685,
36,E3520200034201,神原小学校,山口県宇部市神原町1-1-1,1,,,1,1,1,1,,1,33.95167894,131.2560463,
37,E3520200035201,西宇部町自治会館,山口県宇部市西宇部南4-4-6,,1,,1,1,,,,,34.00269193,131.2227156,
38,E3520200036201,西宇部ふれあいセンター,山口県宇部市西宇部北3-9-15,,1,1,1,1,,,,1,34.0052208,131.2203289,
39,E3520200037201,西ヶ丘自治会館,山口県宇部市西宇部北7-12-17,1,,1,1,1,,1,,,34.00500921,131.2255289,
40,E3520200038201,琴芝ふれあいセンター,山口県宇部市西梶返2-10-1,1,,1,,1,,1,,1,33.95286684,131.2632661,
41,E3520200039201,新川小学校,山口県宇部市西小串1-4-25,1,1,,1,1,1,1,,1,33.96311567,131.248251,
42,E3520200040201,宇部典礼会館,山口県宇部市西平原2-9-33,,1,,1,,,,,,33.97632782,131.222603,
43,E3520200122201,楠総合センター,山口県宇部市船木442-11,1,1,1,1,,,1,,1,34.0458218502666,131.2267711967478,
44,E3520200041201,恩田ふれあいセンター,山口県宇部市草江1-6-7,1,,1,,1,,1,,1,33.93949022,131.2717579,
45,E3520200043201,寿福寺,山口県宇部市大字奥万倉1636,1,1,1,,,,1,,,34.13037876,131.2418091,
46,E3520200044201,宇部西リハビリテーション病院,山口県宇部市大字沖ノ旦797,,1,1,1,1,,,,,33.99578709,131.2255592,
47,E3520200045201,常盤公園,山口県宇部市大字沖宇部,,,,1,1,1,,,,33.94758009,131.2889506,
48,E3520200046201,厚東川中学校,山口県宇部市大字吉見1184,,1,1,1,1,1,,,1,34.04166792,131.2647709,
49,E3520200047201,立熊ふれあい会館,山口県宇部市大字吉見152-2,1,1,1,1,1,,1,,,34.05465058,131.2672106,
50,E3520200048201,中村農業構造改善センター,山口県宇部市大字吉見1727-5,1,1,1,1,1,,1,,,34.03911243,131.2585622,
51,E3520200049201,温見自治会集会所,山口県宇部市大字吉見2608-1,,1,1,1,1,,,,,34.02808933,131.2544577,
52,E3520200051201,広瀬公会堂,山口県宇部市大字広瀬563-1,,1,1,,1,,,,,34.00109216,131.2390016,
53,E3520200052201,原ふれあいセンター,山口県宇部市大字妻崎開作1990,,1,1,1,1,,,,1,33.97142332,131.2023057,
54,E3520200053201,春日町自治会館,山口県宇部市大字際波247-3,1,,1,1,1,,1,,,34.01287807,131.2188987,
55,E3520200054201,西宇部小学校,山口県宇部市大字際波527-1,1,1,1,1,1,1,1,,1,34.00956514,131.2317505,
56,E3520200055201,上山中集会所,山口県宇部市大字山中341-1,1,1,1,1,,,1,,,34.05705157,131.3183821,
57,E3520200056201,二俣瀬ふれあいセンター,山口県宇部市大字車地173,1,1,1,1,,,1,,1,34.05660498,131.2917043,
58,E3520200057201,二俣瀬小学校,山口県宇部市大字車地36,1,1,1,1,,1,1,,1,34.05814944,131.2924239,
59,E3520200058201,新川４区自治会集会所,山口県宇部市大字小串154-11,1,1,1,1,1,,1,,,33.96838219,131.2479986,
60,E3520200059201,桃山中学校,山口県宇部市大字小串671,1,1,1,1,1,1,1,,1,33.97170059,131.2504696,
61,E3520200061201,アクトビレッジおの,山口県宇部市大字小野7025,1,1,1,1,,1,1,,,34.10401146,131.3089474,
62,E3520200062201,小野ふれあいセンター,山口県宇部市大字小野8294-4,1,1,1,1,,,1,,1,34.11658779,131.3203401,
63,E3520200063201,小野小学校,山口県宇部市大字小野8317-2,1,1,1,1,,1,1,,1,34.11554411,131.3204099,
64,E3520200064201,ひらき台集会所,山口県宇部市大字上宇部150-117,1,1,1,1,1,,1,,,33.97240408,131.2789001,
65,E3520200065201,琴崎八幡宮,山口県宇部市大字上宇部571-1,1,1,1,,1,,1,,,33.97181741,131.2704323,
66,E3520200066201,吉田公会堂,山口県宇部市大字西岐波1021-2,1,1,1,,1,,1,,,33.95742247,131.3215077,
67,E3520200067201,常盤小学校,山口県宇部市大字西岐波1337-12,1,1,1,1,1,1,1,,1,33.94760359,131.2936156,
68,E3520200068202,柳ヶ瀬コミュニティ広場,山口県宇部市大字西岐波1382-1,,,,1,1,,,,,33.96357503,131.3196619,
69,E3520200068201,柳ヶ瀬自治会館,山口県宇部市大字西岐波1382-1,1,1,1,1,1,,1,,,33.96358091,131.3198656,
70,E3520200123201,南方公園,山口県宇部市大字西岐波2467,,,,1,1,1,,,,33.96621395,131.3095302,
71,E3520200071201,南方八幡宮,山口県宇部市大字西岐波2473-1,1,1,1,1,1,,1,,,33.96566539,131.3102263,
72,E3520200073201,西岐波団地集会所,山口県宇部市大字西岐波3916,1,1,1,1,1,,1,,,33.95801755,131.3026887,
73,E3520200074201,川上中学校,山口県宇部市大字西岐波6531,1,1,1,1,1,1,1,,1,33.97710604,131.2851486,
74,E3520200075201,宇部興産中央病院第２駐車場,山口県宇部市大字西岐波750,,,,1,1,,,,,33.96726352,131.3316437,
75,E3520200077201,万倉ふれあいセンター,山口県宇部市大字西万倉1672,,1,1,1,,,,,1,34.07118534,131.2427796,
76,E3520200078201,万倉小学校,山口県宇部市大字西万倉1761-1,1,1,1,1,,1,1,,1,34.07248488,131.2397956,
77,E3520200079201,川上ふれあいセンター,山口県宇部市大字川上81-1,1,1,1,1,1,,1,,1,33.97647044,131.2793283,
78,E3520200080201,船木ふれあいセンター,山口県宇部市大字船木179-1,,1,1,1,,,,,1,34.0452011,131.2248672,
79,E3520200082201,船木小学校,山口県宇部市大字船木4483,1,1,1,1,,1,1,,1,34.04630167,131.2164366,
80,E3520200083201,北在集会所,山口県宇部市大字船木4577-3,,1,1,,,,,,,34.04794967,131.2211288,
81,E3520200084201,西山集会所,山口県宇部市大字船木4625-4,,1,1,,,,,,,34.05068762,131.2249697,
82,E3520200085201,厚東ふれあいセンター,山口県宇部市大字棚井68-2,1,1,1,1,1,,1,,1,34.0242474,131.2489478,
83,E3520200086201,厚東小学校,山口県宇部市大字棚井7-1,1,,1,1,1,1,1,,1,34.02707786,131.248746,
84,E3520200087201,浄念寺,山口県宇部市大字棚井744,,1,1,,1,,,,,34.01752199,131.2408455,
85,E3520200088201,東桃山集会所,山口県宇部市大字中宇部2000-5,1,1,1,1,1,,1,,,33.97477719,131.2489735,
86,E3520200089201,岐波自治会館,山口県宇部市大字東岐波1450-2,1,1,,,1,,1,,,33.98572165,131.3496324,
87,E3520200090201,前田集会所,山口県宇部市大字東岐波1777,1,1,1,1,1,,1,,,33.99537377,131.3452033,
88,E3520200091201,東岐波中学校,山口県宇部市大字東岐波3828,1,1,1,1,1,1,1,,1,33.978174850715,131.337435440851,
89,E3520200092201,東岐波ふれあいセンター,山口県宇部市大字東岐波3829,1,1,1,1,1,,1,,1,33.98096366,131.3395485,
90,E3520200093201,東岐波小学校,山口県宇部市大字東岐波3853,1,1,1,1,1,1,1,,1,33.98088467,131.3389637,
91,E3520200094201,丸尾自治会館,山口県宇部市大字東岐波4327-30,1,1,1,1,1,,1,,,33.96677495,131.3504455,
92,E3520200095201,丸尾原自治会館,山口県宇部市大字東岐波5063-11,1,1,1,1,1,,1,,,33.96942993,131.3369215,
93,E3520200096201,吉部ふれあいセンター,山口県宇部市大字東吉部3330-7,1,1,1,1,,,1,,1,34.12506289,131.2826067,
94,E3520200097201,吉部小学校,山口県宇部市大字東吉部3425-1,1,1,1,1,,1,1,,1,34.12481347,131.2818825,
95,E3520200098201,黒石公園,山口県宇部市大字東須恵,,,,1,1,,,,,33.98504285,131.200857,
96,E3520200099201,若山自治会集会所,山口県宇部市大字東須恵1129-14,1,1,1,1,1,,1,,,33.97263182,131.1884263,
97,E3520200101201,厚南小学校,山口県宇部市大字東須恵234,1,1,1,1,1,1,1,,1,33.99449854,131.2080271,
98,E3520200102201,岡田屋公会堂,山口県宇部市大字東須恵2388-2,1,1,1,1,1,,1,,,33.97770767,131.1967197,
99,E3520200103201,原小学校,山口県宇部市大字東須恵4267,1,1,1,1,1,1,1,,1,33.965883,131.2031679,
100,E3520200104201,黒石中学校,山口県宇部市大字東須恵476-2,1,1,1,1,1,1,1,,1,33.98512302,131.1975489,
101,E3520200105201,光陽台自治会館,山口県宇部市大字東須恵726,1,1,1,1,1,,1,,,33.97882127,131.1965694,
102,E3520200106201,神元集会所,山口県宇部市大字東万倉433-3,1,1,1,1,,,1,,,34.05429003,131.2371842,
103,E3520200107201,末信自治会集会所,山口県宇部市大字末信57-1,1,1,1,,1,,1,,,34.00983866,131.2454699,
104,E3520200108201,天理教厚東分教会,山口県宇部市大字木田634,1,1,1,1,,,1,,,34.0544197,131.2850433,
105,E3520200109201,上宇部小学校,山口県宇部市大小路3-2-17,1,1,1,1,1,1,1,,1,33.96681588,131.2692566,
106,E3520200110201,隣保館上宇部会館　（上宇部ふれあいセンター）,山口県宇部市中村2-6-15,1,1,1,1,1,,1,,1,33.96291954,131.2626803,
107,E3520200112201,新川ふれあいセンター,山口県宇部市朝日町8-20,,1,,,1,,,,1,33.95864891,131.2446692,
108,E3520200114201,神原中学校,山口県宇部市東梶返4-8-1,1,,,1,1,1,1,,1,33.94981474,131.2634125,
109,E3520200115201,琴芝小学校,山口県宇部市東琴芝2-3-48,1,,,1,1,1,1,,1,33.95436227,131.2564348,
110,E3520200116201,小羽山小学校,山口県宇部市東小羽山町1-4-13,1,1,1,1,1,1,1,,1,33.97875304,131.2633657,
111,E3520200117201,平原会館,山口県宇部市東平原2-14-8,1,1,1,,1,,1,,,33.9778244,131.2280615,
112,E3520200118201,宇部フロンティア大学,山口県宇部市文京台2-1-1,1,1,1,1,1,,1,,,33.98076754,131.2338665,
113,E3520200120201,藤山ふれあいセンター,山口県宇部市文京町11-13,,1,,1,,,,,1,33.97471577,131.2276066,
114,E3520200121201,小羽山ふれあいセンター,山口県宇部市北小羽山町2-6-50,1,1,1,,1,,1,,1,33.97849272,131.2595185,
115,E3520100001201,火の山公園,山口県下関市みもすそ川町,1,1,1,1,1,,,,,33.973583,130.95992,
116,E3520100002201,川中公民館分館,山口県下関市綾羅木本町3-1-20,1,1,1,,1,,,,1,34.003422,130.924716,
117,E3520100003201,綾羅木１号公園,山口県下関市綾羅木本町7,1,1,1,1,1,,,,,34.005582,130.917778,
118,E3520100004201,川中武道館,山口県下関市綾羅木本町7-10-8,1,1,1,,1,,,,1,34.00655,130.91727,
119,E3520100006201,安岡小学校,山口県下関市安岡町3-5-5,1,1,1,1,1,,,,1,34.028727,130.919935,
120,E3520100007201,安岡地区公園,山口県下関市安岡町4,1,1,1,1,1,,,,,34.032605,130.917005,
121,E3520100008201,安岡中学校,山口県下関市安岡町4-2-1,1,1,1,1,1,,,,1,34.033111,130.919044,
122,E3520100009201,脇之浦町民館,山口県下関市安岡本町3-14-1,1,1,,,,,,,1,34.026028,130.908524,
123,E3520100010201,西部公民館,山口県下関市伊崎町1-4-30,1,1,,,1,,,,1,33.953532,130.919784,
124,E3520100011201,川中中学校,山口県下関市伊倉新町4-6-1,1,1,,1,1,,,,1,34.00469056,130.934344,
125,E3520100012201,川中公民館,山口県下関市伊倉町2-1-1,1,1,1,1,1,,,,1,34.003494,130.931609,
126,E3520100013201,川中小学校,山口県下関市伊倉本町19-1,1,1,1,1,1,,,,1,34.00370284,130.9351787,
127,E3520100014201,住吉公園,山口県下関市一の宮住吉1,1,,1,1,1,,,,,33.999305,130.958062,
128,E3520100015201,一の宮小学校,山口県下関市一の宮住吉1-8-1,1,,1,1,1,,,,1,34.00266084,130.9571454,
129,E3520100016201,王司湯田１号公園,山口県下関市員光町2,1,1,1,1,1,,,,,34.053235,131.00022,
130,E3520100017201,吉見中学校,山口県下関市永田本町1-3-10,1,1,,1,1,,,,1,34.07388753,130.8956078,
131,E3520100018201,水産大学校,山口県下関市永田本町2-7-1,1,,1,1,1,,,,1,34.07021214,130.8903481,
132,E3520100019201,王喜小学校,山口県下関市王喜本町2-12-30,1,1,,1,1,,,,1,34.06342266,131.0544235,
133,E3520100020201,王喜公民館,山口県下関市王喜本町2-15-10,1,1,,,1,,,,1,34.064016,131.053223,
134,E3520100021201,木屋川ラブリバーパーク,山口県下関市王喜本町4,,1,,,,,,,,34.071393,131.049652,
135,E3520100022201,王司公民館,山口県下関市王司神田1-9-1,1,1,1,1,1,,,,1,34.046119,131.015079,
136,E3520100023201,王司小学校,山口県下関市王司神田6-9-1,,1,,1,1,,,,1,34.05020499,131.013354,
137,E3520100024201,関西小学校,山口県下関市関西町12-1,1,1,1,1,1,,,,1,33.95804669,130.9268998,
138,E3520100025201,名陵中学校,山口県下関市丸山町1-13-3,1,1,1,1,1,,,,1,33.95828431,130.9367836,
139,E3520100026201,日和山公園,山口県下関市丸山町5,1,1,1,1,1,,,,,33.954625,130.931078,
140,E3520100027201,貴船公園,山口県下関市貴船町3,1,1,1,1,1,,,,,33.968315,130.941539,
141,E3520100029201,菊川ふれあい会館,山口県下関市菊川町大字下岡枝117,1,1,1,1,1,,,,1,34.120764,131.030822,
142,E3520100030201,菊川体育館（菊川ベルちゃん体育館）,山口県下関市菊川町大字下岡枝1477-1,,1,1,1,1,,,,1,34.12219101,131.0305988,
143,E3520100031201,菊川総合支所,山口県下関市菊川町大字下岡枝1480-1,1,1,1,1,1,,,,1,34.1216581,131.0305935,
144,E3520100032201,菊川運動公園,山口県下関市菊川町大字下岡枝56-1,,1,1,1,1,,,,,34.12331489,131.0309825,
145,E3520100033201,菊川中学校,山口県下関市菊川町大字下岡枝字上室屋1-2,1,1,1,1,1,,,,1,34.1230786,131.0268975,
146,E3520100034201,菊川老人憩の家,山口県下関市菊川町大字下岡枝字西所光508-1,1,1,1,,1,,,,1,34.13073189,131.0343528,
147,E3520100035201,岡枝小学校,山口県下関市菊川町大字吉賀字金蔵寺2494,1,,1,1,1,,,,1,34.13432232,131.0200136,
148,E3520100037201,豊東小学校,山口県下関市菊川町大字上大野字上ノ原10020-1,1,1,1,1,1,,,,1,34.11561465,131.0490516,
149,E3520100038201,田部高等学校,山口県下関市菊川町大字田部1074,1,1,1,1,1,,,,1,34.11838831,131.0309379,
150,E3520100039201,楢崎公民館,山口県下関市菊川町大字楢崎790-1,1,1,1,1,1,,,,1,34.132722,131.00086,
151,E3520100040201,楢崎小学校,山口県下関市菊川町大字楢崎字殿屋敷215,1,,1,1,1,,,,1,34.13540501,130.9946329,
152,E3520100041201,吉見近隣公園,山口県下関市吉見里町1,1,,1,1,1,,,,,34.073306,130.898549,
153,E3520100042201,吉見小学校,山口県下関市吉見里町1-8-1,1,1,1,1,1,,,,1,34.072389,130.9011019,
154,E3520100043201,吉見体育館,山口県下関市吉見里町1-9-1,1,,1,1,1,,,,1,34.07247,130.899156,
155,E3520100044201,金比羅公園,山口県下関市金比羅町,1,,1,1,1,,,,,33.969162,130.915815,
156,E3520100045201,複合福祉施設フロイデ金比羅,山口県下関市金比羅町10-1,1,1,1,1,1,,,,1,33.969655,130.919388,
157,E3520100046201,熊野小学校,山口県下関市熊野西町10-1,1,1,1,1,1,,,,1,33.99547,130.941229,
158,E3520100047201,川中西小学校,山口県下関市古屋町2-9-1,1,1,1,1,1,,,,1,34.00056653,130.9193886,
159,E3520100048201,下関南高等学校,山口県下関市後田町1-8-1,1,1,1,1,1,,,,1,33.96884984,130.9312929,
160,E3520100049201,下関西高等学校,山口県下関市後田町4-10-1,1,1,1,1,1,,,,1,33.97264836,130.9295616,
161,E3520100050201,下関商業高等学校,山口県下関市後田町4-11-1,1,1,1,1,1,,,,1,33.973194,130.92742,
162,E3520100051201,戦場ヶ原公園,山口県下関市後田町5,1,,1,1,1,,,,,33.975718,130.931538,
163,E3520100052201,西の尾団地集会所,山口県下関市後田町5-2-5,1,1,1,1,1,,,,1,33.971203,130.9305,
164,E3520100053201,向山小学校,山口県下関市向山町14-1,1,1,1,1,1,,,,1,33.9676699,130.926583,
165,E3520100054201,下関運動公園,山口県下関市向洋町1,1,1,1,1,1,,,,,33.96613412,130.9316974,
166,E3520100055201,向洋中学校,山口県下関市向洋町1-14-1,1,1,1,1,1,,,,1,33.96502495,130.9301011,
167,E3520100056201,垢田公会堂,山口県下関市垢田町1-11-7,1,1,1,1,1,,,,1,33.99297,130.920748,
168,E3520100057201,幸町公園,山口県下関市幸町21,1,1,1,1,1,,,,,33.962951,130.944815,
169,E3520100058201,勤労福祉会館,山口県下関市幸町8-16,1,1,1,,1,,,,1,33.960751,130.942372,
170,E3520100059201,生涯学習プラザ,山口県下関市細江町3-1-1,1,1,,1,1,,,,1,33.951386,130.930245,
171,E3520100060201,学校法人河野学園,山口県下関市桜山町1-1,1,1,1,1,1,,,,1,33.96225396,130.9221979,
172,E3520100061201,三河公園,山口県下関市三河町15,1,1,1,1,1,,,,,33.985913,130.942158,
173,E3520100062201,山の田小学校,山口県下関市山の田中央町13-1,1,1,1,1,1,,,,1,33.98744535,130.9263827,
174,E3520100063201,北部公民館,山口県下関市山の田東町4-13,1,1,1,1,1,,,,1,33.986017,130.928292,
175,E3520100064201,山の田中学校,山口県下関市山の田本町8-1,1,1,1,1,1,,,,1,33.98950499,130.9272736,
176,E3520100065201,勝山小学校,山口県下関市秋根上町2-2-1,1,1,1,1,1,,,,1,34.00964843,130.9607473,
177,E3520100066201,勝山中学校,山口県下関市秋根上町2-5-1,1,1,1,1,1,,,,1,34.01070493,130.958324,
178,E3520100067201,秋根記念公園,山口県下関市秋根西町1,1,1,1,1,1,,,,,34.009468,130.94776,
179,E3520100068201,勝山公民館,山口県下関市秋根南町2-4-33,1,1,1,1,1,,,,1,34.00823979,130.9535623,
180,E3520100069201,秋根こども公園,山口県下関市秋根本町2,1,1,1,1,1,,,,,34.011896,130.951803,
181,E3520100070201,勝谷北公園,山口県下関市勝谷新町3,1,1,1,1,1,,,,,34.00663,130.971407,
182,E3520100071201,小月武道館,山口県下関市小月駅前1-7-1,,1,,,,,,,1,34.068728,131.031327,
183,E3520100072201,小月宮の尾公園,山口県下関市小月京泊,1,1,1,1,1,,,,,34.07164374,131.0425434,
184,E3520100073201,小月公園,山口県下関市小月公園町7,1,1,1,1,1,,,,,34.074256,131.030977,
185,E3520100074201,小月小学校,山口県下関市小月西の台6-1,1,1,1,1,1,,,,1,34.07092734,131.0394613,
186,E3520100075201,小月公民館,山口県下関市小月本町1-7-7,1,1,,1,1,,,,1,34.071428,131.033963,
187,E3520100076201,桜山近隣公園,山口県下関市上新地町2,1,,1,1,1,,,,,33.962191,130.920341,
188,E3520100077201,桜山小学校,山口県下関市上新地町2-5-10,1,1,1,1,1,,,,1,33.96057222,130.920062,
189,E3520100078201,文洋中学校,山口県下関市上新地町5-6-1,1,1,1,1,1,,,,1,33.95744635,130.913567,
190,E3520100079201,文関小学校,山口県下関市上田中町1-14-1,1,,1,1,1,,,,1,33.96660829,130.9384289,
191,E3520100080201,日新中学校,山口県下関市上田中町1-15-1,1,,1,1,1,,,,1,33.96768053,130.9371457,
192,E3520100245201,株式会社ミカド交設（ミカド卓球パーク）,山口県下関市上田中町5-4-6,1,1,1,1,1,,,,1,33.960846,130.9351,
193,E3520100081201,垢田小学校,山口県下関市新垢田西町1-1-1,1,1,1,1,1,,,,1,33.98932444,130.9132256,
194,E3520100082201,新垢田南公園,山口県下関市新垢田南町3,1,1,1,1,1,,,,,33.986055,130.915813,
195,E3520100083201,東部中学校,山口県下関市清末陣屋5-10,1,1,1,1,1,,,,1,34.065593,131.021966,
196,E3520100084201,清末公民館,山口県下関市清末陣屋5-20,1,1,1,,1,,,,1,34.064018,131.021468,
197,E3520100085201,清末小学校,山口県下関市清末西町1-6-1,1,1,1,1,1,,,,1,34.063518,131.018587,
198,E3520100086201,清末公園,山口県下関市清末中町1-5,1,1,1,1,1,,,,,34.05842169,131.0240704,
199,E3520100087201,旧神田小学校（グラウンド）,山口県下関市西神田町5-1,1,,1,1,1,,,,,33.96024713,130.9233163,
200,E3520100088201,本行寺,山口県下関市赤間町3-12,1,1,1,,1,,,,1,33.95971934,130.9424699,
201,E3520100089201,千鳥ヶ丘２号公園,山口県下関市千鳥ヶ丘町,1,,1,1,1,,,,,34.033331,131.006518,
202,E3520100090201,西部高等産業技術学校,山口県下関市千鳥ヶ丘町21-3,1,,1,1,1,,,,1,34.031208,131.006864,
203,E3520100091201,川中東部公園,山口県下関市川中豊町4,1,1,1,1,1,,,,,33.997827,130.939772,
204,E3520100092201,すみれ保育園,山口県下関市前田1-9-1,1,1,1,1,1,,,,1,33.974267,130.969882,
205,E3520100093201,下関市立大学,山口県下関市大学町2-1-1,1,1,1,1,1,,,,1,33.98797444,130.9335138,
206,E3520100094201,権現山公園,山口県下関市大学町3,1,1,1,1,1,,,,,33.990247,130.937849,
207,E3520100095201,市立考古博物館,山口県下関市大字綾羅木字岡454,1,1,1,1,1,,,,1,34.011417,130.92612,
208,E3520100096201,綾羅木郷遺跡公園,山口県下関市大字綾羅木字若宮,1,1,1,1,1,,,,,34.012371,130.924705,
209,E3520100097201,蓋井島保健福祉館,山口県下関市大字蓋井島71,1,,1,1,,,,,1,34.100094,130.787207,
210,E3520100098201,蓋井小学校,山口県下関市大字蓋井島字田町126-2,1,,1,1,1,,,,1,34.10175175,130.7876302,
211,E3520100099201,吉見公民館,山口県下関市大字吉見下1533,1,1,1,,1,,,,1,34.071075,130.902857,
212,E3520100100201,長慶寺,山口県下関市大字吉田1023,,1,,,1,,,,1,34.089746,131.073901,
213,E3520100101201,吉田小学校,山口県下関市大字吉田字高田1044-2,,1,,1,1,,,,1,34.08826429,131.071629,
214,E3520100102201,吉田公民館,山口県下関市大字吉田地方2499,1,1,1,,1,,,,1,34.091233,131.073089,
215,E3520100103201,吉母公民館,山口県下関市大字吉母401-24,1,1,1,,1,,,,1,34.088557,130.879943,
216,E3520100104201,旧吉母小学校,山口県下関市大字吉母字塩谷287,1,1,1,1,1,,,,1,34.08946936,130.8789457,
217,E3520100105201,垢田中学校,山口県下関市大字垢田字笹原1127-6,1,,1,1,1,,,,1,33.99793232,130.9149669,
218,E3520100106201,垢田体育館,山口県下関市大字垢田字石交1339-1,1,1,1,1,1,,,,1,33.994664,130.918212,
219,E3520100107201,小野町上方公会堂,山口県下関市大字小野字上方,1,1,1,1,1,,,,1,34.038001,130.958951,
220,E3520100108201,内日公民館,山口県下関市大字内日下1146-5,1,1,1,,1,,,,1,34.099865,130.970784,
221,E3520100109201,うつい小中学校,山口県下関市大字内日下字坂本1031,1,,1,1,1,,,,1,34.10139025,130.9698104,
222,E3520100110201,旧内日中学校,山口県下関市大字内日下字福寿庵1196-2,1,,1,1,1,,,,1,34.10264626,130.9686399,
223,E3520100246201,内日二町町民館,山口県下関市大字内日上1602-1,1,1,1,,1,,,,1,34.086198,130.958979,
224,E3520100111201,下関北運動公園,山口県下関市大字冨任,1,1,1,1,1,,,,,34.01940961,130.9355309,
225,E3520100112201,県立下関武道館（柔道場）,山口県下関市大字冨任198-17,1,1,1,1,1,,,,1,34.018601,130.93611,
226,E3520100113201,船員宿舎,山口県下関市大字六連島字空方137-2,1,,1,,1,,,,1,33.974754,130.865246,
227,E3520100114201,大和町漁港町内会事務所,山口県下関市大和町1-5-10,1,1,,,1,,,,1,33.948009,130.919774,
228,E3520100115201,下関市民会館,山口県下関市竹崎町4-5-1,1,1,,1,1,,,,1,33.948756,130.925355,
229,E3520100116201,下関市武道館,山口県下関市中之町1-23,1,1,,,1,,,,1,33.957615,130.944666,
230,E3520100117201,長府中学校,山口県下関市長府逢坂町3-1,1,,1,1,1,,,,1,33.99781876,130.9819406,
231,E3520100118201,豊浦小学校,山口県下関市長府亀の甲2-2-1,1,1,,1,1,,,,1,34.00295416,130.9886012,
232,E3520100119201,長府武道館,山口県下関市長府宮の内町3-8,1,1,1,,1,,,,1,33.999476,130.986384,
233,E3520100120201,関見台公園,山口県下関市長府宮崎町,1,,1,1,1,,,,,33.989435,130.994006,
234,E3520100121201,豊浦高等学校,山口県下関市長府宮崎町1-1,1,1,,1,1,,,,1,33.99088276,130.9922284,
235,E3520100122201,長府運動場,山口県下関市長府江下町,1,1,,1,1,,,,,34.011845,130.996286,
236,E3520100123201,長府体育館,山口県下関市長府江下町3-15,1,1,,1,1,,,,1,34.011387,130.996099,
237,E3520100124202,掛州公園,山口県下関市長府才川2,1,,,1,1,,,,,34.024542,131.005221,
238,E3520100124201,陽向台公園,山口県下関市長府才川2,1,,1,1,1,,,,,34.02274857,131.0004474,
239,E3520100125201,長府小学校,山口県下関市長府松小田北町14-1,1,,1,1,1,,,,1,34.02117445,130.9962757,
240,E3520100126201,長府第三保育園,山口県下関市長府松小田本町1-38,1,,,,1,,,,1,34.020975,131.001902,
241,E3520100127201,長府東公民館,山口県下関市長府松小田本町4-15,1,1,,1,1,,,,1,34.019102,130.999769,
242,E3520100128201,扇町運動広場,山口県下関市長府扇町,1,1,,1,1,,,,,34.016835,131.013583,
243,E3520100129201,下関市長府扇町第１運動場,山口県下関市長府扇町4,1,1,,1,1,,,,,34.019204,131.008291,
244,E3520100130201,長府第二保育園,山口県下関市長府中六波町12-26,1,1,1,,1,,,,1,34.013221,130.99143,
245,E3520100131201,長府公民館,山口県下関市長府土居の内町1-6,1,1,,1,1,,,,1,33.998861,130.990789,
246,E3520100132201,長成中学校,山口県下関市長府日の出町4-1,1,,1,1,1,,,,1,34.01572034,130.9934803,
247,E3520100133201,さつきヶ丘児童公園,山口県下関市長府満珠町,1,1,1,1,1,,,,,34.014827,130.98649,
248,E3520100134201,茶山集会所（憩の家隣）,山口県下関市長門町1-1,1,1,1,1,1,,,,1,33.953454,130.926572,
249,E3520100135201,王司観音第２公園,山口県下関市東観音町21,1,1,1,1,1,,,,,34.048057,131.006227,
250,E3520100136201,下関市民センター,山口県下関市東神田町9-1,1,1,1,1,1,,,,1,33.961123,130.927131,
251,E3520100137201,大坪ふれあい会館,山口県下関市藤附町2-4,1,1,1,1,1,,,,1,33.966697,130.921619,
252,E3520100138201,下関市市民広場,山口県下関市南部町1-1,1,1,,1,1,,,,,33.95796784,130.941871,
253,E3520100139201,旧王江小学校,山口県下関市入江町9-1,1,,1,1,1,,,,1,33.95475708,130.9355752,
254,E3520100140201,乃木浜総合公園,山口県下関市乃木浜2,,1,,1,,,,,,34.04405797,131.0262477,
255,E3520100141201,幡生宮の下近隣公園,山口県下関市幡生宮の下町,,1,1,1,1,,,,,33.981634,130.930874,
256,E3520100142201,幡生保育園,山口県下関市幡生宮の下町25-13,1,1,1,,1,,,,1,33.984751,130.931799,
257,E3520100143201,下関南総合支援学校,山口県下関市幡生町1-1-22,1,1,1,1,1,,,,1,33.97617754,130.9373795,
258,E3520100144201,生野小学校,山口県下関市幡生本町7-14,1,1,1,1,1,,,,1,33.97757032,130.9279878,
259,E3520100145201,えのき公園,山口県下関市稗田中町5,1,1,1,1,1,,,,,33.99614,130.927527,
260,E3520100146201,京野第２公園,山口県下関市彦島塩浜町3,1,1,1,1,1,,,,,33.917417,130.909519,
261,E3520100147201,角倉町民館,山口県下関市彦島角倉町3-3-28,1,1,,1,1,,,,1,33.926291,130.9166,
262,E3520100148201,角倉小学校,山口県下関市彦島角倉町3-5-5,1,,1,1,1,,,,1,33.92463234,130.9152107,
263,E3520100149201,向井小学校,山口県下関市彦島向井町2-20-1,1,1,1,1,1,,,,1,33.9171521,130.9176493,
264,E3520100150201,彦島武道館,山口県下関市彦島江の浦町1-1-1,1,1,,,1,,,,1,33.937629,130.915122,
265,E3520100151201,彦島公民館,山口県下関市彦島江の浦町1-3-1,1,1,1,1,1,,,,1,33.937097,130.914452,
266,E3520100152201,彦島中学校,山口県下関市彦島江の浦町2-25-1,1,1,1,1,1,,,,1,33.93333315,130.9111551,
267,E3520100153201,江浦小学校,山口県下関市彦島江の浦町3-4-1,1,1,,1,1,,,,1,33.93064572,130.9155176,
268,E3520100154201,山中町民館,山口県下関市彦島山中町2-4-8,1,1,1,1,1,,,,1,33.922672,130.920722,
269,E3520100155201,西山町自治会館,山口県下関市彦島西山町1-9-29,1,1,1,1,1,,,,1,33.94337,130.887585,
270,E3520100156201,フロイデ彦島,山口県下関市彦島西山町3-12-1,1,,1,1,1,,,,1,33.944657,130.879873,
271,E3520100157201,玄洋公民館,山口県下関市彦島西山町4-1-28,1,1,,1,1,,,,1,33.94664431,130.8829309,
272,E3520100158201,彦島南公園,山口県下関市彦島弟子待町3,1,1,1,1,1,,,,,33.91757809,130.9231514,
273,E3520100159201,特別養護老人ホームアイユウの苑,山口県下関市彦島迫町3-17-2,1,,1,1,1,,,,1,33.9384028,130.900274,
274,E3520100160201,彦島地区公園,山口県下関市彦島迫町4,1,,1,1,1,,,,,33.938968,130.904654,
275,E3520100161201,彦島体育館,山口県下関市彦島迫町4-16-1,1,,1,1,1,,,,1,33.938495,130.905303,
276,E3520100162201,西山小学校,山口県下関市彦島迫町5-13-21,1,1,1,1,1,,,,1,33.94259286,130.8960559,
277,E3520100163201,福浦第２公園,山口県下関市彦島福浦町1,1,,1,1,1,,,,,33.927699,130.904745,
278,E3520100164201,玄洋中学校,山口県下関市彦島本村町2-8-1,1,1,1,1,1,,,,1,33.94301925,130.9060707,
279,E3520100165201,本村小学校,山口県下関市彦島本村町3-16-1,1,1,1,1,1,,,,1,33.9452928,130.9105685,
280,E3520100166201,本村公会堂,山口県下関市彦島本村町5-4-7,1,1,,,1,,,,1,33.942123,130.911066,
281,E3520100167201,老の山公園,山口県下関市彦島老の山公園,1,,1,1,1,,,,,33.946305,130.904249,
282,E3520100168201,老町公会堂,山口県下関市彦島老町1-10-24,1,,,,1,,,,1,33.946453,130.912932,
283,E3520100169201,下関中等教育学校,山口県下関市彦島老町2-21-1,1,1,1,1,1,,,,1,33.947997,130.906287,
284,E3520100170201,下関工科高等学校,山口県下関市富任町4-1-1,1,1,1,1,1,,,,1,34.02277542,130.9209992,
285,E3520100247201,安岡地区複合施設,山口県下関市富任町5-10-1,1,1,1,1,1,,,,1,34.024145,130.923429,
286,E3520100171201,武久永命寺公園,山口県下関市武久町1,1,1,1,1,1,,,,,33.981211,130.921968,
287,E3520100172201,伝武館,山口県下関市武久町1-57-10,1,1,1,,1,,,,1,33.981338,130.923566,
288,E3520100173201,宇賀ふれあいセンター,山口県下関市豊浦町大字宇賀字ふけ4940,1,,1,1,1,,,,1,34.22026,130.932712,
289,E3520100174201,宇賀小学校,山口県下関市豊浦町大字宇賀字ふけ4961,1,,1,1,1,,,,1,34.22066186,130.931506,
290,E3520100175201,大河内交流センター,山口県下関市豊浦町大字宇賀字下ノ屋敷5367-1,1,,1,1,1,,,,1,34.217477,130.946269,
291,E3520100176201,双葉保育園,山口県下関市豊浦町大字宇賀字川嶋12984-1,1,1,1,1,1,,,,1,34.207245,130.934646,
292,E3520100177201,宇賀児童館,山口県下関市豊浦町大字宇賀字中園7925-1,1,,1,1,,,,,1,34.212031,130.93141,
293,E3520100178201,誠意小学校,山口県下関市豊浦町大字黒井字才舛2200,1,1,1,1,1,,,,1,34.1277988,130.9135452,
294,E3520100179201,豊洋運動公園,山口県下関市豊浦町大字黒井字新川,1,1,1,1,1,,,,,34.12765,130.903361,
295,E3520100180201,豊洋中学校,山口県下関市豊浦町大字黒井字馬神10724-1,1,1,1,1,1,,,,1,34.128171,130.904597,
296,E3520100181201,黒井公民館,山口県下関市豊浦町大字黒井字平田2351,1,1,1,1,1,,,,1,34.127359,130.909688,
297,E3520100182201,室津公民館,山口県下関市豊浦町大字室津下681-3,1,1,1,1,,,,,1,34.133225,130.886279,
298,E3520100183201,室津小学校,山口県下関市豊浦町大字室津下字新田152-1,1,1,1,1,1,,,,1,34.13088061,130.892747,
299,E3520100184201,豊浦夢が丘スポーツセンター,山口県下関市豊浦町大字小串10140,1,1,1,1,1,,,,1,34.17241714,130.9345193,
300,E3520100186201,夢ヶ丘公園,山口県下関市豊浦町大字小串字外無田,1,,1,1,1,,,,,34.17292794,130.9368735,
301,E3520100187201,豊浦総合支援学校,山口県下関市豊浦町大字小串字石堂7-136,1,1,1,1,1,,,,1,34.16708293,130.9250389,
302,E3520100188201,小串公民館,山口県下関市豊浦町大字小串字先中2207-1,1,1,,,,,,,1,34.17598,130.929146,
303,E3520100190201,小串小学校,山口県下関市豊浦町大字小串字谷田ケ浴617,1,,1,1,1,,,,,34.1756319,130.9338026,
304,E3520100191201,夢が丘中学校,山口県下関市豊浦町大字小串字夢が丘10145,1,1,1,1,1,,,,,34.172292,130.933314,
305,E3520100192201,川棚小学校,山口県下関市豊浦町大字川棚字後楽3650-1,,1,1,1,1,,,,1,34.15144859,130.9319725,
306,E3520100193201,とんがりぼうし豊浦（自然活用総合管理センター）,山口県下関市豊浦町大字川棚字前坪5262-1,1,1,1,1,1,,,,1,34.140195,130.937417,
307,E3520100194201,小野ふれあいセンター,山口県下関市豊浦町大字川棚字中台1486-1,1,,1,1,1,,,,1,34.182469,130.963869,
308,E3520100195201,リフレッシュパーク豊浦,山口県下関市豊浦町大字川棚字長見,1,1,1,1,1,,,,,34.13416433,130.9329373,
309,E3520100196201,川棚温泉交流センター,山口県下関市豊浦町大字川棚字湯町5180,1,1,1,1,1,,,,1,34.137718,130.939656,
310,E3520100197201,川棚公民館,山口県下関市豊浦町大字川棚字林崎6167-2,1,1,1,,1,,,,1,34.14515074,130.9241286,
311,E3520100198201,豊浦多世代交流センター,山口県下関市豊浦町豊洋台1-447-290,1,1,1,1,1,,,,1,34.113596,130.910752,
312,E3520100199201,豊田下公民館,山口県下関市豊田町大字手洗285-1,,1,1,1,1,,,,1,34.180365,131.067115,
313,E3520100200201,豊田下小学校,山口県下関市豊田町大字手洗字貴布祢303,,1,1,1,1,,,,1,34.18015204,131.0660204,
314,E3520100201202,三豊公民館,山口県下関市豊田町大字地吉122,1,,1,1,1,,,,1,34.240172,131.126837,
315,E3520100201201,旧三豊小学校,山口県下関市豊田町大字地吉122,1,,1,1,1,,,,1,34.23996765,131.1271878,
316,E3520100202201,殿居公民館,山口県下関市豊田町大字殿居1039-2,1,1,1,1,1,,,,1,34.260422,131.030668,
317,E3520100203201,旧殿居小学校,山口県下関市豊田町大字殿居1040-1,1,1,1,1,1,,,,,34.25991717,131.030498,
318,E3520100204201,とのい夢夢ハウス,山口県下関市豊田町大字殿居1094-1,1,1,1,1,1,,,,1,34.258767,131.030382,
319,E3520100205201,豊田総合支所,山口県下関市豊田町大字殿敷1918-1,1,1,1,1,1,,,,1,34.20401533,131.0763036,
320,E3520100206201,山口農業高等学校西市分校,山口県下関市豊田町大字殿敷834-5,1,1,1,1,1,,,,1,34.19821674,131.0841297,
321,E3520100207201,豊田農業公園（多目的利用施設）,山口県下関市豊田町大字八道1088-1,1,1,1,1,1,,,,1,34.234891,131.034418,
322,E3520100208201,豊田中公民館,山口県下関市豊田町大字八道2544-1,1,1,1,1,1,,,,1,34.21392,131.054725,
323,E3520100209202,豊田農業公園（総合営農指導拠点施設）,山口県下関市豊田町大字八道601-3,1,1,1,1,1,,,,1,34.235065,131.032133,
324,E3520100209201,豊田農業公園みのりの丘,山口県下関市豊田町大字八道601-3,1,1,1,1,1,,,,1,34.23470959,131.0322298,
325,E3520100210201,下関市豊田農村勤労福祉センター,山口県下関市豊田町大字浮石2528-1,1,1,1,1,1,,,,1,34.243268,131.044389,
326,E3520100211201,旧豊田中小学校,山口県下関市豊田町大字浮石字久下1159-1,1,,1,1,1,,,,1,34.22972795,131.0558369,
327,E3520100212201,旧殿居小学校維新分校（清流館）,山口県下関市豊田町大字杢路子1441-2,1,,1,1,1,,,,1,34.214228,131.009839,
328,E3520100213201,豊田生涯学習センター,山口県下関市豊田町大字矢田149-1,1,,1,1,1,,,,1,34.203042,131.073115,
329,E3520100214201,西市公民館,山口県下関市豊田町大字矢田153-1,1,,1,1,1,,,,1,34.20276,131.073596,
330,E3520100215201,西市小学校,山口県下関市豊田町大字矢田字今熊132,1,,1,1,1,,,,1,34.20422487,131.0744287,
331,E3520100216201,豊田中学校,山口県下関市豊田町大字矢田字鎮守434,,1,1,1,1,,,,1,34.19733138,131.0742373,
332,E3520100217201,阿川ほうせんぐり海浜公園,山口県下関市豊北町大字阿川,1,1,,,,,,,,34.341345,130.92967,
333,E3520100218201,阿川公民館,山口県下関市豊北町大字阿川字下宅野3752,1,1,,1,1,,,,1,34.340097,130.925,
334,E3520100219201,旧阿川小学校,山口県下関市豊北町大字阿川字下宅野3755-1,1,1,,1,1,,,,1,34.339813,130.924652,
335,E3520100220201,粟野公民館,山口県下関市豊北町大字粟野字妙見3333-2,,,1,1,1,,,,1,34.340109,130.979931,
336,E3520100221201,旧粟野小学校,山口県下関市豊北町大字粟野字妙見3349,,1,1,1,1,,,,1,34.33958179,130.9801324,
337,E3520100222201,角島開発総合センター,山口県下関市豊北町大字角島字宮ノ脇1413-1,1,1,1,1,1,,,,1,34.355686,130.86736,
338,E3520100223201,旧角島小学校（グラウンド）,山口県下関市豊北町大字角島字正ノ田1768,1,1,1,1,1,,,,,34.35409449,130.8607893,
339,E3520100224201,豊北生涯学習センター,山口県下関市豊北町大字神田1199-1,1,1,1,1,1,,,,1,34.315974,130.891974,
340,E3520100225201,旧神田小学校,山口県下関市豊北町大字神田字北東法永浴2519-1,1,1,,1,,,,,1,34.33319349,130.895127,
341,E3520100226201,旧神玉小学校,山口県下関市豊北町大字神田上字野中2704-1,1,,1,1,1,,,,1,34.28602928,130.8943349,
342,E3520100227201,神玉公民館,山口県下関市豊北町大字神田上字野中2709,1,,1,1,1,,,,1,34.285041,130.894396,
343,E3520100228201,豊北総合支所,山口県下関市豊北町大字滝部3140-1,1,1,1,1,1,,,,1,34.290275,130.949202,
344,E3520100229201,豊北総合運動公園,山口県下関市豊北町大字滝部字角石2914,1,,1,1,1,,,,1,34.295265,130.944892,
345,E3520100230201,豊北体育センター,山口県下関市豊北町大字滝部字宮ノ臺3158-1,1,1,1,1,1,,,,1,34.289896,130.94694,
346,E3520100231201,豊北中学校,山口県下関市豊北町大字滝部字幸神1244-36,1,,1,1,1,,,,1,34.29807463,130.9496505,
347,E3520100232201,豊北小学校,山口県下関市豊北町大字滝部字常安1200,1,1,1,1,1,,,,1,34.29371346,130.9546745,
348,E3520100233201,滝部公民館,山口県下関市豊北町大字滝部字清願3397-12,1,1,1,1,1,,,,1,34.288536,130.948496,
349,E3520100234201,下関北高等学校,山口県下関市豊北町大字滝部字中久森1003,1,1,1,1,1,,,,1,34.29224131,130.9567474,
350,E3520100235201,田耕農林漁家婦人活動促進センター,山口県下関市豊北町大字田耕字柿畑4332-2,1,1,1,1,1,,,,1,34.270212,130.987206,
351,E3520100236201,旧田耕小学校（グラウンド）,山口県下関市豊北町大字田耕字尾振り松4351,1,1,1,1,1,,,,,34.27098552,130.9872229,
352,E3520100237201,旧二見小学校（グラウンド）,山口県下関市豊北町大字北宇賀字五本松3087-3,1,,1,1,1,,,,,34.25443583,130.9171811,
353,E3520100238201,二見集会所,山口県下関市豊北町大字北宇賀字上峠西平3585-1,1,,,,,,,,1,34.24865474,130.9102557,
354,E3520100239201,養治小学校,山口県下関市本町2-6-1,1,1,1,1,1,,,,1,33.96519592,130.9484393,
355,E3520100240201,一里山公園,山口県下関市椋野町1,1,,1,1,1,,,,,33.974049,130.941923,
356,E3520100241201,椋野町民館,山口県下関市椋野町2-13-4,1,1,1,,1,,,,1,33.976198,130.947686,
357,E3520100242201,名陵小学校,山口県下関市名池町10-1,1,,1,1,1,,,,1,33.95869538,130.9372572,
358,E3520100243201,木屋川近隣公園,山口県下関市木屋川1,1,1,1,1,1,,,,,34.075103,131.070048,
359,E3520100244201,木屋川中学校,山口県下関市木屋川南町2-660,1,1,,1,1,,,,1,34.07359127,131.0566895,
360,E3520700002201,旗岡第一集会所,山口県下松市旗岡1-7-1,1,,1,1,1,,,,1,34.0101041811722,131.87591873673,
361,E3520700003201,豊井公民館,山口県下松市琴平町2-8-7,1,1,1,1,1,,1,,1,34.0028511,131.8750048,
362,E3520700004201,下松中学校,山口県下松市古川町2-1-1,1,1,1,1,1,,1,,1,34.00876545,131.8701663,
363,E3520700005201,中村総合福祉センター,山口県下松市瑞穂町4-3-12,1,1,1,1,1,,1,,1,34.02415578,131.8498532,
364,E3520700006201,中村小学校運動場,山口県下松市清瀬町2-6-1,,,,,,1,,,1,34.0294571,131.8554245,
365,E3520700006202,中村小学校,山口県下松市清瀬町2-6-1,1,1,1,1,1,,1,,1,34.02994724,131.8549774,
366,E3520700007201,下松市地域交流センター,山口県下松市生野屋南1-11-1,1,1,1,1,1,,,,1,34.031545048144,131.876708093916,
367,E3520700008201,老人福祉会館「玉鶴」,山口県下松市西市2-10-15,1,1,1,,1,,1,,1,34.01212114,131.8591388,
368,E3520700009201,下松市市民体育館,山口県下松市西柳1-1-1,1,1,1,1,1,,1,,1,34.0157791,131.8669777,
369,E3520700010201,米川公民館,山口県下松市大字下谷167-1,1,,1,,1,,,,1,34.07993251,131.8763302,
370,E3520700011201,米川公民館グラウンド,山口県下松市大字下谷441-2,,,,,,1,,,,34.08609725,131.8796168,
371,E3520700012201,下松スポーツ公園体育館（トラックワンアリーナ）,山口県下松市大字河内10140,1,1,1,1,1,,,,1,34.02543449,131.8871072,
372,E3520700012203,下松スポーツ公園総合グラウンド,山口県下松市大字河内10140,,,,,,1,,,1,34.02504239,131.8851386,
373,E3520700014201,久保公民館,山口県下松市大字河内583-1,1,1,1,1,1,,,,1,34.02776674,131.9024201,
374,E3520700015201,元江の浦駐車場・児童遊園,山口県下松市大字笠戸島10172-2,,,,,,1,,,,33.9535509909615,131.851056282013,
375,E3520700016202,深浦公民館,山口県下松市大字笠戸島1117-1,1,,,1,1,,,,1,33.94489828,131.8262101,
376,E3520700016201,深浦公民館第１多目的広場,山口県下松市大字笠戸島1117-1,,,,,,1,,,1,33.94481521,131.8258828,
377,E3520700017201,国民宿舎　大城,山口県下松市大字笠戸島14-1,1,1,1,1,1,,,,1,33.96791728,131.8447396,
378,E3520700018201,笠戸公民館多目的広場,山口県下松市大字笠戸島209,,,,,,1,,,1,33.9768260450121,131.866642705501,
379,E3520700018202,笠戸公民館,山口県下松市大字笠戸島209,1,1,1,1,1,,,,1,33.9769150153061,131.867002121509,
380,E3520700019201,笠戸島公民館,山口県下松市大字笠戸島698,1,,,1,1,,,,1,33.95270869,131.8505006,
381,E3520700020201,久保中学校運動場,山口県下松市大字山田122,,,,,,1,,,,34.03051968,131.9001375,
382,E3520700021201,下松市駅南市民交流センター（きらぼし館）,山口県下松市大字西豊井1247,1,1,1,1,1,,1,,1,34.00840998,131.8671399,
383,E3520700022201,下松公園,山口県下松市大字西豊井457,,,,,,1,,,,34.01333593,131.8754118,
384,E3520700023201,下松小学校,山口県下松市大字西豊井698,1,1,1,1,1,,1,,1,34.01284618,131.8713896,
385,E3520700024201,豊井小学校,山口県下松市大字東豊井1134,1,,1,1,1,,1,,1,33.99993426,131.8783957,
386,E3520700025201,恋ヶ浜緑地公園（恋ヶ浜クナイパーク）,山口県下松市大字東豊井551-1,,,,,,1,,,,33.99302521,131.8788461,
387,E3520700027201,市民運動場,山口県下松市大字末武下620-1,,,,,,1,,,,34.01135642,131.8576988,
388,E3520700028201,花岡公民館,山口県下松市大字末武上1280-1,1,1,1,1,1,,,,1,34.03568033,131.8742784,
389,E3520700029201,華陵高校運動場,山口県下松市大字末武上217-2,,,,,,1,,,,34.04047884,131.8763032,
390,E3520700030201,花岡小学校,山口県下松市大字末武上255-1,1,1,1,1,1,,,,1,34.0382059,131.8737825,
391,E3520700031201,下松中央公民館（ほしらんどくだまつ）,山口県下松市大手町2-3-1,1,1,1,1,1,,1,,1,34.01387669,131.8678823,
392,E3520700032202,下松市文化会館（スターピアくだまつ）,山口県下松市中央町21-1,1,1,1,1,1,,1,,1,34.01802808,131.8640669,
393,E3520700032201,下松市保健センター,山口県下松市中央町21-1,1,1,1,1,1,,1,,1,34.01776018,131.8640178,
394,E3520700041201,星プラザ,山口県下松市中央町21-3,,,,,1,,,,,34.018552,131.863229,
395,E3520700041202,ゆめタウン下松,山口県下松市中央町21-3,1,,1,,1,,,,,34.01844492,131.8630361,
396,E3520700034201,末武公民館,山口県下松市潮音町1-1-2,1,1,1,,1,,1,,1,34.01839532,131.8566614,
397,E3520700035201,下松市勤労者総合福祉センター,山口県下松市潮音町2-16-8,1,1,1,1,1,,1,,1,34.0159424716746,131.852000021113,
398,E3520700036202,東陽小学校,山口県下松市東陽4-17-1,1,1,1,1,1,,,,1,34.03578234,131.9135389,
399,E3520700036201,東陽小学校運動場,山口県下松市東陽4-17-1,,,,,,1,,,1,34.03522814,131.9127933,
400,E3520700037201,あおば保育園（ふれあいサロン）,山口県下松市楠木町1-11-11,1,1,1,1,1,,1,,1,34.020581011601,131.86379834474,
401,E3520700038201,末武中学校,山口県下松市美里町1-8-1,1,1,1,1,1,,1,,1,34.02511046,131.8655458,
402,E3520700039201,下松工業高校運動場,山口県下松市美里町4-13,,,,,,1,,,,34.01964469,131.8567708,
403,E3520700040201,下松工業高等学校,山口県下松市美里町4-13-1,1,1,1,1,1,,1,,1,34.02017158,131.857657,
404,E3520800001201,旭会館,山口県岩国市旭町2-12-27,,1,,,,,,,,34.16189857,132.2299653,
405,E3520800002201,サンライフ岩国,山口県岩国市横山2-7-28,,1,1,1,1,,,,,34.17164338,132.1780165,
406,E3520800003201,教育センター,山口県岩国市横山3-1-11,,1,1,1,1,,,,,34.17229581,132.1779414,
407,E3520800004201,桜の園,山口県岩国市下342-1,,1,1,1,1,,,,,34.16051433,132.0934578,
408,E3520800005201,北河内公民館,山口県岩国市下446-2,,,1,,1,,,,,34.16290326,132.0907,
409,E3520800006201,岩国西中学校,山口県岩国市角77-1,,1,1,1,1,,,,,34.16694153,132.1054602,
410,E3520800007201,すばる,山口県岩国市関戸299-2,1,,1,1,1,,,,,34.18703663,132.1729983,
411,E3520800008201,岩国国際観光ホテル,山口県岩国市岩国1-1-7,1,,1,1,1,,,,,34.16800307,132.1804911,
412,E3520800009201,岩国小学校,山口県岩国市岩国3-1-18,,1,1,1,1,,,,,34.16444755,132.1856964,
413,E3520800011201,岩国工業高校体育館,山口県岩国市錦見2-4-85,1,,1,1,1,,,,,34.16837237,132.1931045,
414,E3520800012201,岩国中学校,山口県岩国市錦見2-5-80,,,1,1,1,,,,,34.16750751,132.1923333,
415,E3520800013201,顕真幼稚園,山口県岩国市錦見5-7-28,,1,1,1,1,,,,,34.16179386,132.189752,
416,E3520800014201,岩国自動車学校,山口県岩国市錦見7-1-40,,1,1,1,1,,,,,34.1605156,132.1833643,
417,E3520800015201,宇佐小学校（廃校）,山口県岩国市錦町宇佐1243,1,,1,,1,,,,,34.42437183,132.0571446,
418,E3520800016201,高根２１世紀センター,山口県岩国市錦町宇佐郷1050-1,1,,1,1,1,,,,,34.375754,132.022748,
419,E3520800017201,錦ふるさとセンター,山口県岩国市錦町広瀬1125,1,1,1,1,1,,,,1,34.26213195,131.9522279,
420,E3520800018201,深須小学校（廃校）,山口県岩国市錦町須川3319,1,1,1,1,1,,,,,34.32877396,131.9920338,
421,E3520800019201,錦大野集会所,山口県岩国市錦町大野247-1,1,,1,1,1,,,,,34.31406418,131.9409438,
422,E3520800137201,ピュアラインにしき,山口県岩国市錦町府谷117,,1,1,1,1,,,,,34.278585,131.969565,
423,E3520800020201,府谷集会所,山口県岩国市錦町府谷2496-1,1,,1,,1,,,,,34.28436133,131.9970581,
424,E3520800022201,玖珂野口コミュニティセンター,山口県岩国市玖珂町1052-3,1,,1,1,1,,,,,34.09852731,132.091383,
425,E3520800023201,高森高校体育館,山口県岩国市玖珂町1253,1,,1,1,1,,,,,34.09337303,132.057152,
426,E3520800024201,玖珂東部コミュニティセンター,山口県岩国市玖珂町1610,1,,1,1,1,,,,,34.10622395,132.1028739,
427,E3520800025201,玖珂柳井田コミュニティセンター,山口県岩国市玖珂町3627-9,1,,1,1,1,,,,,34.08289576,132.1005318,
428,E3520800026201,玖珂総合公園管理棟,山口県岩国市玖珂町3800-1,1,1,1,1,1,,,,,34.07897865,132.0993189,
429,E3520800027201,玖珂大田コミュニティセンター,山口県岩国市玖珂町4124-1,1,1,1,1,1,,,,,34.08770367,132.0853197,
430,E3520800028201,総合センター奏,山口県岩国市玖珂町4933-2,1,1,1,1,1,,,,,34.091234278891,132.08357964744,
431,E3520800029201,玖珂小学校,山口県岩国市玖珂町527-2,1,1,1,1,1,,,,1,34.09580591,132.0805233,
432,E3520800030201,玖珂こどもの館,山口県岩国市玖珂町5330,1,1,1,1,1,,,,1,34.09349729,132.0800914,
433,E3520800031201,玖珂北部コミュニティセンター,山口県岩国市玖珂町627-2,1,1,1,1,1,,,,,34.10241386,132.0803852,
434,E3520800032201,玖珂中学校,山口県岩国市玖珂町6345,1,1,1,1,1,,,,,34.0985044,132.076059,
435,E3520800033201,こども館にっこり,山口県岩国市桂町2-6-1,,1,,1,,,,,,34.17295494,132.2345836,
436,E3520800135201,株式会社ミヤベ本社,山口県岩国市元町1-8-10,1,1,,1,,,,,,34.168867,132.225756,
437,E3520800034201,御庄小学校,山口県岩国市御庄1362,,1,1,1,1,,,,,34.16250037,132.1473676,
438,E3520800035201,ベルコ東山口,山口県岩国市御庄4-110-8,,1,1,1,1,,,,,34.17010556,132.1576258,
439,E3520800036201,杭名小学校,山口県岩国市杭名18-2,,,1,1,1,,,,,34.17280016,132.1090792,
440,E3520800037201,白崎八幡宮（メモリアルコート）,山口県岩国市今津町6-12-23,1,,1,1,1,,,,,34.15984051,132.2093391,
441,E3520800134201,山口県岩国総合庁舎,山口県岩国市三笠町1-1-1,,1,,1,,,,,,34.166976,132.225121,
442,E3520800038201,東小中学校,山口県岩国市三笠町2-1-9,,1,,1,,,,,,34.16776687,132.2270012,
443,E3520800039201,岩国市民文化会舘,山口県岩国市山手町1-15-3,,1,,1,,,,,,34.1672854,132.2183397,
444,E3520800040201,麻里布小学校,山口県岩国市山手町1-7-41,,1,,1,,,,,,34.16931782,132.2155645,
445,E3520800041201,麻里布中学校,山口県岩国市室の木町2-7-11,1,,,1,1,,,,,34.17393677,132.2125983,
446,E3520800042201,保健センター,山口県岩国市室の木町3-1-11,1,,,1,1,,,,,34.17197374,132.2094105,
447,E3520800043201,医師会病院,山口県岩国市室の木町3-6-12,1,,,1,1,,,,,34.1712248,132.2058726,
448,E3520800044201,川下小学校,山口県岩国市車町1-1-43,,1,,1,1,,,,,34.15796877,132.2137153,
449,E3520800045201,法寿寺本堂・法寿幼稚園,山口県岩国市車町1-9-22,,1,,1,,,,,,34.15772248,132.2181111,
450,E3520800046201,車供用会館,山口県岩国市車町3-3-34,,1,,1,,,,,,34.15460541,132.2217166,
451,E3520800136201,株式会社ミヤベ機材センター,山口県岩国市守内60-1,,,1,1,1,,,,,34.172914,132.136105,
452,E3520800047201,高森小学校,山口県岩国市周東町下久原1176,,1,1,1,1,,,,,34.09096149,132.0523479,
453,E3520800048201,周東中央公民館,山口県岩国市周東町下久原1208-1,,1,1,1,1,,,,,34.09320454,132.0518586,
454,E3520800049201,川上小学校,山口県岩国市周東町下久原3032,,1,1,1,1,,,,,34.10870045,132.0472314,
455,E3520800050201,周東米川公民館,山口県岩国市周東町下須通378,1,,1,,1,,,,,34.09118566,132.012709,
456,E3520800051201,周東川越健康増進センター,山口県岩国市周東町三瀬川482-1,1,1,1,1,1,,,,,34.137139,131.979446,
457,E3520800052201,周東南総合センター,山口県岩国市周東町上久原1075-2,1,1,1,1,1,,,,,34.07839571,132.0647261,
458,E3520800053201,修成小学校,山口県岩国市周東町西長野1141,1,,1,1,1,,,,,34.09046052,132.0072371,
459,E3520800054201,旧祖生東小学校体育館,山口県岩国市周東町祖生1480,1,1,1,1,1,,,,1,34.062288,132.1329438,
460,E3520800055201,周東祖生公民館,山口県岩国市周東町祖生4541-1,,,1,,1,,,,,34.07156919,132.1164816,
461,E3520800056201,そお小学校,山口県岩国市周東町祖生5856,1,1,1,1,1,,,,,34.07430166,132.1049774,
462,E3520800057201,周東中田公民館,山口県岩国市周東町中山2,1,1,1,,1,,,,,34.02908825,132.0526391,
463,E3520800058201,周東体育センター・周東勤労青少年ホーム,山口県岩国市周東町用田137-8,1,1,1,1,1,,,,1,34.08049089,132.0493237,
464,E3520800059201,周東川越交流センター,山口県岩国市周東町獺越10825-13,1,1,1,1,1,,,,,34.112999,132.003002,
465,E3520800060201,周北小学校（休校）,山口県岩国市周東町獺越2161,1,,1,1,1,,,,,34.12439692,132.0048785,
466,E3520800061201,小瀬供用会館,山口県岩国市小瀬285-2,,1,1,1,1,,,,,34.20822385,132.1927851,
467,E3520800062201,小瀬小学校,山口県岩国市小瀬288-1,,,1,1,1,,,,,34.20904609,132.1931389,
468,E3520800133201,日本製紙岩国工場錦陽館,山口県岩国市昭和町2-18,1,1,,1,,,,,,34.174827,132.231774,
469,E3520800063201,ＨＯＴＥＬ　ＡＺ　山口岩国店,山口県岩国市新港町2-6-30,1,1,,1,1,,,,,34.183066559438,132.23135131113,
470,E3520800064201,一文字終末処理場,山口県岩国市新港町2-7-145,1,1,,1,1,,,,,34.183157,132.232915,
471,E3520800065201,装港小学校,山口県岩国市新港町4-16-30,1,,,1,1,,,,,34.19242604,132.2299013,
472,E3520800066201,中洋小学校,山口県岩国市青木町2-33-1,1,,1,1,1,,,,,34.0994948,132.2020536,
473,E3520800067201,岩国高校体育館,山口県岩国市川西4-6-1,1,1,1,1,1,,,,,34.15576028,132.1783957,
474,E3520800068201,装港供用会館,山口県岩国市装束町1-1-43,1,,,,1,,,,,34.19305622,132.2300812,
475,E3520800069201,藤河小学校,山口県岩国市多田1365-2,1,,1,1,1,,,,,34.18568255,132.1601984,
476,E3520800070201,藤河公民館,山口県岩国市多田2-117-1,,1,1,1,1,,,,,34.18064733,132.1669539,
477,E3520800071201,いしい記念病院,山口県岩国市多田3-102-1,,1,1,1,1,,,,,34.18160145,132.1666857,
478,E3520800072201,ティエラ一番館,山口県岩国市多田3-104-2,,1,1,1,1,,,,,34.18091437,132.1689001,
479,E3520800073201,川下供用会館,山口県岩国市中津町2-1-3,,1,,1,,,,,,34.15624064,132.2166945,
480,E3520800074201,漁業協同組合,山口県岩国市中津町2-15-25,,1,,1,,,,,,34.15440702,132.2189132,
481,E3520800075201,川下中学校,山口県岩国市中津町2-22-25,,1,,1,,,,,,34.15220945,132.2169186,
482,E3520800076201,柱島供用会館,山口県岩国市柱島132-7,1,,,1,,,,,,34.02196894,132.4213602,
483,E3520800077201,柱野小学校,山口県岩国市柱野1092-3,1,1,1,1,1,,,,,34.13175119,132.1488798,
484,E3520800078201,つづの里,山口県岩国市通津1117-297,1,1,1,1,1,,,,,34.08027505,132.2034279,
485,E3520800079201,通津公民館,山口県岩国市通津2571-5,1,1,,1,1,,,,,34.07154217,132.2071804,
486,E3520800080201,通津小学校,山口県岩国市通津2720,1,1,1,1,1,,,,,34.07405798,132.2043361,
487,E3520800081201,天尾小学校（休校）,山口県岩国市天尾262,1,,1,1,1,,,,,34.17292438,132.0650038,
488,E3520800082201,デリカウィング,山口県岩国市田原266-3,,,1,1,1,,,,,34.1715903,132.1434097,
489,E3520800083201,南河内公民館,山口県岩国市土生39-3,1,1,1,,1,,,,,34.15221749,132.1034344,
490,E3520800084201,河内小学校,山口県岩国市土生82,1,1,1,1,1,,,,,34.1523574,132.1022235,
491,E3520800085201,灘供用会館,山口県岩国市藤生町1-10-14,1,1,,,1,,,,,34.11488846,132.1996595,
492,E3520800086201,灘中学校,山口県岩国市藤生町2-25-1,1,,1,1,1,,,,,34.10899254,132.1972528,
493,E3520800087201,岩国総合高校体育館,山口県岩国市藤生町4-41-1,1,,1,1,1,,,,,34.11326443,132.1920873,
494,E3520800088201,老人福祉センター,山口県岩国市南岩国町2-65-38,1,,1,1,1,,,,,34.14433651,132.1964669,
495,E3520800089201,中央図書館,山口県岩国市南岩国町4-52-1,1,1,1,1,1,,,,,34.13411881,132.1952872,
496,E3520800090201,灘小学校,山口県岩国市南岩国町5-60-1,1,,1,1,1,,,,,34.12129872,132.1983669,
497,E3520800091201,専念寺本堂・川下幼稚園,山口県岩国市楠町3-2-30,,1,,1,1,,,,,34.1567659,132.211642,
498,E3520800092201,万行寺本堂・保育園,山口県岩国市楠町3-7-21,,1,,1,1,,,,,34.15549706,132.2105736,
499,E3520800093201,帝人岩国事業所体育館,山口県岩国市日の出町2-1,1,1,,1,,,,,,34.16872493,132.2320113,
500,E3520800095201,愛宕小学校,山口県岩国市尾津町1-1-11,1,1,,1,1,,,,,34.14544027,132.2133239,
501,E3520800096201,高水高校体育館,山口県岩国市尾津町2-24-18,1,,1,1,1,,,,,34.13800861,132.2043645,
502,E3520800097201,地方卸売市場,山口県岩国市尾津町5-11-1,1,1,,1,,,,,,34.129044,132.219489,
503,E3520800098201,なんわ荘,山口県岩国市尾津町5-7-30,1,1,,1,,,,,,34.13198787,132.2102898,
504,E3520800099201,美川林業センター,山口県岩国市美川町根笠598,1,,1,,1,,,,,34.19812301,131.9934854,
505,E3520800100201,美川コミュニティセンター,山口県岩国市美川町四馬神1057,,,1,1,1,,,,1,34.24203728,131.9864115,
506,E3520800132201,美川体育館,山口県岩国市美川町四馬神1310-4,,,1,1,1,,,,,34.2366859,131.9863386,
507,E3520800101201,美川小学校（休校）,山口県岩国市美川町南桑2365,,,1,1,1,,,,,34.20930028,132.0247895,
508,E3520800102201,美川基幹集落センター,山口県岩国市美川町南桑2420,,,1,1,1,,,,,34.20965349,132.022543,
509,E3520800103201,美和阿賀ふれあいセンター,山口県岩国市美和町阿賀1039,1,,1,1,1,,,,,34.2794083,132.069245,
510,E3520800104201,下畑交流館,山口県岩国市美和町下畑2004-2,1,1,1,1,1,,,,,34.2424409571582,132.063496639434,
511,E3520800105201,北門ふるさと交流館,山口県岩国市美和町釜ヶ原378-3,1,1,1,1,1,,,,,34.28470364,132.1361232,
512,E3520800106201,美和東部コミュニティセンター,山口県岩国市美和町黒沢122-4,1,1,1,1,1,,,,,34.23768309,132.1281378,
513,E3520800107201,美和東小学校（廃校）,山口県岩国市美和町佐坂241,1,,1,1,1,,,,,34.22995659,132.1119329,
514,E3520800108201,ハーモニーみわ,山口県岩国市美和町渋前1751,1,,1,1,1,,,,1,34.22173544,132.0867737,
515,E3520800109201,美和西部ふれあいセンター,山口県岩国市美和町渋前449,1,1,1,1,1,,,,1,34.226973,132.103504,
516,E3520800110201,美和農林業者トレーニングセンター,山口県岩国市美和町生見559,1,,1,1,1,,,,,34.2231529,132.0799011,
517,E3520800111201,美和小学校,山口県岩国市美和町生見739-1,1,1,1,1,1,,,,,34.22654356,132.0778196,
518,E3520800112201,総合体育館,山口県岩国市平田1-40-1,1,1,1,1,1,,,,1,34.15549381,132.1865389,
519,E3520800113201,平田供用会館・住民ホール,山口県岩国市平田3-22-18,,1,1,1,1,,,,,34.14219881,132.1863351,
520,E3520800114201,平田小学校,山口県岩国市平田3-5-1,1,1,1,1,1,,,,,34.14430557,132.1843716,
521,E3520800115201,岩国商業高校体育館,山口県岩国市平田5-52-10,1,1,1,1,1,,,,,34.14570003,132.1960253,
522,E3520800116201,平田中学校,山口県岩国市平田6-10-33,1,1,1,1,1,,,,,34.13916678,132.1846124,
523,E3520800117201,波野集落センター,山口県岩国市本郷町波野388,1,,1,1,1,,,,,34.258764071802,132.03345793004,
524,E3520800118201,本郷ふるさと交流館,山口県岩国市本郷町本郷2082-1,1,1,1,1,1,,,,,34.29399526,132.0410523,
525,E3520800119201,本郷保健センター,山口県岩国市本郷町本郷2100-1,1,1,1,1,1,,,,1,34.29465413,132.0405374,
526,E3520800120201,ＮＴＴ岩国電話交換所,山口県岩国市麻里布町3-7-9,,1,,1,,,,,,34.168951,132.221478,
527,E3520800121201,福祉会館,山口県岩国市麻里布町7-1-2,,1,,,,,,,,34.171441,132.219127,
528,E3520800122201,愛宕供用会館,山口県岩国市門前町2-35-2,,1,,1,1,,,,,34.1458929,132.2122909,
529,E3520800138201,由西小学校,山口県岩国市由宇町3300-1,1,,1,1,1,,,,,34.03653264,132.1763715,
530,E3520800124201,由宇老人福祉センター,山口県岩国市由宇町802,1,,1,,1,,,,1,34.02961068,132.1661083,
531,E3520800125201,神東小学校,山口県岩国市由宇町神東448-1,1,,1,1,1,,,,,34.0028522,132.211993,
532,E3520800126201,神東婦人の家・神東農家研修センター,山口県岩国市由宇町神東451-5,1,1,1,,1,,,,,34.00139206,132.2111026,
533,E3520800127201,由宇文化会館,山口県岩国市由宇町中央1-1-15,,1,,1,,,,,1,34.04676904,132.2116361,
534,E3520800128201,由宇小学校,山口県岩国市由宇町中央2-10-1,,,,1,1,,,,,34.04435097,132.2087347,
535,E3520800129201,由宇文化スポーツセンター,山口県岩国市由宇町南沖1-13-1,1,1,,1,1,,,,,34.04017336,132.214756,
536,E3520800130201,由宇中学校,山口県岩国市由宇町北5-2-1,,,1,1,1,,,,,34.04652102,132.2001436,
537,E3520800131201,室の木東供用会館,山口県岩国市立石町4-7-60,1,1,,1,1,,,,,34.17917429,132.2257819,
538,E3521000001201,塩田小学校体育館,山口県光市塩田1927-6,1,,,1,,1,1,,1,33.99845914,132.0346778,
539,E3521000001202,塩田小学校校庭,山口県光市塩田1927-6,1,,,1,,1,1,,1,33.99831,132.034714,
540,E3521000002202,大和中学校校庭,山口県光市塩田3333-1,1,1,,1,,1,1,,1,33.98723174,132.013417,
541,E3521000002201,大和中学校武道場・体育館,山口県光市塩田3333-1,1,1,,1,,1,1,,1,33.987089254931,132.01280960626,
542,E3521000003202,浅江中学校武道場・体育館,山口県光市花園2-1-1,1,1,,1,,1,1,,1,33.97540049,131.9280877,計画規模の洪水に対応
543,E3521000003201,浅江中学校校庭,山口県光市花園2-1-1,1,1,,1,,1,1,,1,33.97491559,131.9287958,計画規模の洪水に対応
544,E3521000004201,花園町公園,山口県光市花園2-30-1,1,1,,1,,1,1,,,33.97443079,131.9275075,計画規模の洪水に対応
545,E3521000005201,丸山町公園,山口県光市丸山町5,1,,1,1,1,1,1,,,33.98629052,131.9268638,想定最大規模と計画規模の洪水に対応
546,E3521000006201,岩狩公園,山口県光市岩狩1-1-193,1,,1,1,1,1,1,,,33.99268835,131.9526808,想定最大規模と計画規模の洪水に対応
547,E3521000007201,岩田小学校体育館,山口県光市岩田193-2,1,1,,1,,1,1,,1,33.98407249,131.9899952,
548,E3521000007202,岩田小学校校庭,山口県光市岩田193-2,1,1,,1,,1,1,,1,33.98377001,131.9910466,
549,E3521000008201,丸久岩田店駐車場,山口県光市岩田2299,1,,,1,,1,1,,,33.98550395,131.9936459,
550,E3521000009201,大和コミュニティセンター,山口県光市岩田2483-1,1,1,,1,,1,1,,1,33.981657618266,131.9984351506,
551,E3521000010201,大和総合運動公園,山口県光市岩田849,1,1,,1,,1,1,,1,33.98719313,131.9979695,
552,E3521000010202,大和スポーツセンター,山口県光市岩田849,1,1,,1,,1,1,,1,33.98824729,131.9985757,
553,E3521000011201,牛島憩いの家,山口県光市牛島708-4,,,,1,,1,1,,1,33.858893182029,132.00728018617,
554,E3521000012202,牛島コミュニティセンター,山口県光市牛島763-9,,,,,,1,1,,1,33.8593616,132.0064117,
555,E3521000012201,牛島コミュニティセンター（２階）,山口県光市牛島763-9,,,1,,1,,,,1,33.85927697,132.0064331,
556,E3521000013201,浅江小学校体育館,山口県光市光ケ丘2-10,1,1,1,1,1,1,1,,1,33.97700997,131.9215633,想定最大規模と計画規模の洪水に対応
557,E3521000013202,浅江小学校校庭,山口県光市光ケ丘2-10,1,1,1,1,1,1,1,,1,33.97686762,131.9222499,想定最大規模と計画規模の洪水に対応
558,E3521000076201,大蔵池公園,山口県光市光ケ丘2400-2,1,1,1,1,1,1,1,,,33.979382,131.9223,想定最大規模と計画規模の洪水に対応
559,E3521000015201,光テクノキャンパス研修センター,山口県光市光ケ丘3-17,1,1,1,1,1,1,1,,1,33.97985879,131.9200885,想定最大規模と計画規模の洪水に対応
560,E3521000016201,光スポーツ公園（屋外）,山口県光市光井110,1,1,1,1,1,1,1,,1,33.9607424,131.9650721,
561,E3521000017201,光市総合体育館,山口県光市光井1941-1,1,,1,1,1,1,1,,1,33.95907024,131.9631904,
562,E3521000018201,光市総合福祉センター,山口県光市光井2-2-1,1,1,,1,,1,1,,1,33.95334394,131.9534387,
563,E3521000018202,光市総合福祉センター（２階）,山口県光市光井2-2-1,,,1,,,,,,1,33.953186,131.953581,
564,E3521000019201,光井小学校体育館,山口県光市光井4-23-1,1,1,1,1,1,1,1,,1,33.95699032,131.9551706,
565,E3521000019202,光井小学校校庭,山口県光市光井4-23-1,1,,1,1,1,1,1,,1,33.95661656,131.9553798,
566,E3521000020201,光井コミュニティセンター,山口県光市光井4-28-1,1,1,1,1,1,1,1,,1,33.95501732,131.9538409,
567,E3521000021201,情熱食堂光井店駐車場,山口県光市光井4-30-1,1,1,1,1,,1,1,,,33.954070653902,131.9545076127,
568,E3521000021202,メガガイア光ツインパークⅡ駐車場,山口県光市光井4-30-1,1,1,1,1,,1,1,,,33.954281,131.954339,
569,E3521000022201,アルク光井店駐車場,山口県光市光井4-33-1,1,1,1,1,1,1,1,,,33.95455541,131.9553547,
570,E3521000023201,浴公園,山口県光市光井5-1155-2,1,1,1,1,1,1,1,,,33.96279062,131.9589232,
571,E3521000024201,光井中学校武道場・体育館,山口県光市光井7-18-1,1,,1,1,1,1,1,,1,33.958662269951,131.95391650016,
572,E3521000024202,光井中学校校庭,山口県光市光井7-18-1,1,1,1,1,1,1,1,,1,33.95766722,131.9534296,
573,E3521000025201,長尾台公園,山口県光市光井7-631-28,1,1,1,1,1,1,1,,,33.95894413,131.9516253,
574,E3521000026201,文化センター,山口県光市光井9-18-2,1,1,1,,1,1,1,,1,33.9627906,131.9449486,
575,E3521000027201,光市教育委員会,山口県光市光井9-18-3,1,1,1,1,1,1,1,,1,33.9625307,131.9461209,
576,E3521000028201,スポーツ館,山口県光市光井9-18-4,1,1,1,,1,1,1,,1,33.96221889,131.9457945,
577,E3521000029201,三井小学校体育館,山口県光市三井5-9-1,1,1,1,1,1,1,1,,1,33.99048497,131.9514021,想定最大規模と計画規模の洪水に対応
578,E3521000029202,三井小学校校庭,山口県光市三井5-9-1,1,1,1,1,1,1,1,,1,33.99005353,131.9518742,計画規模の洪水に対応
579,E3521000030201,やよい幼稚園,山口県光市三井5-9-2,1,1,1,1,1,1,1,,1,33.99023913,131.9528594,計画規模の洪水に対応
580,E3521000031201,三島コミュニティセンター,山口県光市三井6-3-1,1,1,1,1,1,1,1,,1,33.98958339,131.957507,計画規模の洪水に対応
581,E3521000032202,三輪小学校校庭,山口県光市三輪264-1,1,1,,1,,1,1,,1,33.97698148,131.9968976,
582,E3521000032201,三輪小学校体育館,山口県光市三輪264-1,1,1,,1,,1,1,,1,33.97717276,131.9974502,
583,E3521000033201,室積市場公園,山口県光市室積1-3400-7,1,1,,1,,1,1,,,33.9308766,131.9727105,
584,E3521000034201,室積コミュニティセンター,山口県光市室積1-6-1,1,1,1,1,1,1,1,,1,33.93113517,131.9723453,
585,E3521000035202,室積小学校校庭,山口県光市室積6-4-1,1,1,,1,,1,1,,1,33.92692157,131.9673167,
586,E3521000035201,室積小学校体育館,山口県光市室積6-4-1,1,1,,1,,1,1,,1,33.92790838,131.9682226,
587,E3521000036201,池原公園,山口県光市室積8-3951-1,1,1,,1,,1,1,,,33.92343611,131.9653599,
588,E3521000037201,沖田児童遊園地,山口県光市室積沖田6,1,,1,1,1,1,1,,,33.93431097,131.9755815,
589,E3521000038201,サン・アビリティーズ光,山口県光市室積沖田6-1,1,,1,1,1,1,1,,1,33.93432776,131.9760468,
590,E3521000039202,東部憩いの家,山口県光市室積新開1-1-1,1,1,1,,,1,1,,1,33.94026968,131.9674164,
591,E3521000039201,東部憩いの家（２、３階）,山口県光市室積新開1-1-1,,,,,1,,,,1,33.94018,131.967479,
592,E3521000040202,室積中学校校庭,山口県光市室積新開2-4-1,1,,1,1,1,1,1,,1,33.94198643,131.9688944,
593,E3521000040201,室積中学校武道場・体育館,山口県光市室積新開2-4-1,1,,1,1,1,1,1,,1,33.942269621789,131.96800266312,
594,E3521000041201,伊保木コミュニティセンター,山口県光市室積村858,1,1,1,1,1,1,1,,1,33.91240543,132.0075959,
595,E3521000043201,周防コミュニティセンター,山口県光市小周防1522-1,1,1,,,1,1,1,,1,34.016725091998,131.97669982976,想定最大規模と計画規模の洪水に対応
596,E3521000044202,周防小学校校庭,山口県光市小周防1587,1,1,,1,1,1,1,,1,34.01787696,131.9772407,計画規模の洪水に対応
597,E3521000044201,周防小学校体育館,山口県光市小周防1587,1,1,,1,1,1,1,,1,34.0175835,131.9765058,計画規模の洪水に対応
598,E3521000046201,周防多目的集会所,山口県光市小周防2297-1,,1,,1,1,1,1,,1,34.02314522,131.9732784,
599,E3521000047202,上島田小学校校庭,山口県光市上島田3-9-1,1,,1,1,1,1,1,,1,33.98651239,131.9607978,想定最大規模と計画規模の洪水に対応
600,E3521000047201,上島田小学校体育館,山口県光市上島田3-9-1,1,,1,1,1,1,1,,1,33.98651239,131.9612752,想定最大規模と計画規模の洪水に対応
601,E3521000048201,農村婦人の家,山口県光市上島田4-8-6,1,,1,1,1,,1,,1,33.98977448,131.9607714,計画規模の洪水に対応
602,E3521000049201,千坊台一丁目公園,山口県光市千坊台1-380,1,1,1,1,1,1,1,,,33.94765565,131.9663475,
603,E3521000050201,千坊台二丁目公園,山口県光市千坊台2-226,1,,1,1,1,1,1,,,33.94650555,131.9687643,
604,E3521000052201,浅江コミュニティセンター（２階）,山口県光市浅江3-18-11,1,,1,,,,,,1,33.9726711,131.9241042,想定最大規模の洪水に対応
605,E3521000052202,浅江コミュニティセンター,山口県光市浅江3-18-11,1,1,,,,1,1,,1,33.972667237444,131.92400787529,計画規模の洪水に対応
606,E3521000053201,マルキュウ浅江店駐車場,山口県光市浅江3-22-10,1,1,,1,,1,1,,,33.972833,131.923072,計画規模の洪水に対応
607,E3521000051201,浅江東保育園（２階）,山口県光市浅江302-1,1,,,,,,,,1,33.986966810443,131.93312396921,想定最大規模の洪水に対応
608,E3521000051202,浅江東保育園,山口県光市浅江302-1,1,,1,1,1,1,1,,1,33.987020186263,131.93309714712,計画規模の洪水に対応
609,E3521000054201,浅江公園,山口県光市浅江5-4083-12,1,1,,1,,1,1,,,33.9703917,131.9252153,計画規模の洪水に対応
610,E3521000055201,勤労者体育センター,山口県光市浅江7-14-1,1,1,,1,,1,1,,1,33.9663095,131.9210832,計画規模の洪水に対応
611,E3521000056201,わかば公園,山口県光市浅江7-4,1,1,,1,,1,1,,,33.96743709,131.9195883,計画規模の洪水に対応
612,E3521000057202,わかば児童館,山口県光市浅江7-4-17,1,1,,,,,1,,1,33.96673756,131.9242181,計画規模の洪水に対応
613,E3521000057201,わかば児童館（２階）,山口県光市浅江7-4-17,1,,1,,,,,,1,33.966750111783,131.92415363869,想定最大規模の洪水に対応
614,E3521000058202,浅江南保育園,山口県光市浅江7-4-23,1,1,,1,,,1,,1,33.966985221163,131.92401779043,計画規模の洪水に対応
615,E3521000058204,あさえふれあいセンター,山口県光市浅江7-4-23,1,1,,,,,1,,1,33.96710683,131.9237353,計画規模の洪水に対応
616,E3521000058203,あさえふれあいセンター（２階）,山口県光市浅江7-4-23,1,,1,,,,,,1,33.967051910938,131.92370917035,想定最大規模の洪水に対応
617,E3521000058201,浅江南保育園（２階）,山口県光市浅江7-4-23,1,,,,,,,,1,33.966923231293,131.92403978457,想定最大規模の洪水に対応
618,E3521000059202,束荷小学校校庭,山口県光市束荷1301,,1,,1,,1,1,,1,34.00864509,132.0061508,
619,E3521000059201,束荷小学校体育館,山口県光市束荷1301,1,1,,1,,1,1,,1,34.00924541,132.0062527,
620,E3521000060201,冠山総合公園,山口県光市大字室積村6288,1,,1,1,1,1,1,,,33.95119784,131.9597952,
621,E3521000061201,イオン光店駐車場,山口県光市大字浅江字木園1756-1,1,1,,1,1,1,1,,,33.97930158,131.9270385,計画規模の洪水に対応
622,E3521000062201,上島田運動広場,山口県光市大字島田1278,1,1,1,1,1,1,1,,,33.98372949,131.9586584,想定最大規模と計画規模の洪水に対応
623,E3521000063201,西部憩いの家,山口県光市中村町31-1,1,1,1,1,1,1,1,,1,33.9752042,131.9206004,想定最大規模の洪水に対応
624,E3521000064201,島田中学校武道場・体育館,山口県光市中島田2-7-1,1,,1,1,1,1,1,,1,33.982841063897,131.95213480024,想定最大規模と計画規模の洪水に対応
625,E3521000064202,島田中学校校庭,山口県光市中島田2-7-1,1,,1,1,1,1,1,,1,33.98281601,131.9512456,想定最大規模と計画規模の洪水に対応
626,E3521000065201,中島田コミュニティセンター,山口県光市中島田2-8-16,1,,1,,1,1,1,,1,33.98240437,131.9500537,想定最大規模と計画規模の洪水に対応
627,E3521000066201,アルク光店駐車場,山口県光市島田1-12-20,1,1,,1,,1,1,,,33.9696131,131.9349175,計画規模の洪水に対応
628,E3521000067201,新町公園,山口県光市島田4-13,1,1,,1,,1,1,,,33.97449452,131.9347527,計画規模の洪水に対応
629,E3521000068202,島田コミュニティセンター,山口県光市島田4-13-15,1,1,1,,1,1,1,,1,33.97481743,131.9336631,想定最大規模と計画規模の洪水に対応
630,E3521000068201,光市民ホール,山口県光市島田4-13-15,1,1,,,1,1,1,,1,33.97496423,131.934264,計画規模の洪水に対応
631,E3521000069201,地域づくり支援センター（２階）,山口県光市島田4-14-3,1,,1,,,,,,1,33.97486825251,131.93265519434,想定最大規模の洪水に対応
632,E3521000069202,地域づくり支援センター,山口県光市島田4-14-3,1,1,,1,1,1,1,,1,33.97496188,131.9326889,計画規模の洪水に対応
633,E3521000070202,島田小学校校庭,山口県光市島田5-15-1,1,,1,1,1,1,1,,1,33.97683662,131.9391473,想定最大規模と計画規模の洪水に対応
634,E3521000070201,島田小学校体育館,山口県光市島田5-15-1,1,1,1,1,1,1,1,,1,33.97669426,131.9385572,想定最大規模と計画規模の洪水に対応
635,E3521000071201,虹ヶ丘一丁目公園,山口県光市虹ケ丘1-5-3,1,1,1,1,1,1,1,,,33.97560466,131.9183491,想定最大規模と計画規模の洪水に対応
636,E3521000072201,虹ケ丘公園,山口県光市虹ケ丘2-720-11,1,,1,1,1,1,1,,,33.97527994,131.9118484,想定最大規模と計画規模の洪水に対応
637,E3521000073201,虹ケ浜北公園,山口県光市虹ケ浜1-1,1,1,,1,,1,1,,,33.97412379,131.9190347,想定最大規模と計画規模の洪水に対応
638,E3521000074201,宝町公園,山口県光市宝町16,1,1,1,1,1,1,1,,,33.98745181,131.9292996,計画規模の洪水に対応
639,E3521000075201,周防の森ロッジ,山口県光市立野1705-1,1,,,1,1,1,1,,1,34.00578889,131.9656212,想定最大規模と計画規模の洪水に対応
640,E3520300001201,井関小学校校舎,山口県山口市阿知須1639,1,1,1,1,1,,,,1,34.01423588,131.3400471,
641,E3520300001202,井関小学校体育館,山口県山口市阿知須1639,1,1,1,1,1,,,,1,34.01423737,131.3413775,
642,E3520300002201,阿知須健康福祉センター,山口県山口市阿知須2740,1,1,,1,1,,,,1,34.013627,131.359543,
643,E3520300003201,阿知須地域交流センター,山口県山口市阿知須2743,1,1,1,1,1,,,,1,34.01307539,131.359098,「洪水」では2階以上に避難
644,E3520300004201,阿知須体育センター体育館,山口県山口市阿知須2751,1,1,1,1,1,,,,1,34.01306957,131.3599536,
645,E3520300005202,阿知須小学校体育館,山口県山口市阿知須4251,1,1,1,1,1,,,,1,34.01162499,131.3588231,「洪水」「高潮」では2階以上に避難
646,E3520300005201,阿知須小学校校舎,山口県山口市阿知須4251,1,1,1,1,1,,,,1,34.011404,131.359247,「洪水」「高潮」では2階以上に避難
647,E3520300007202,阿知須中学校体育館,山口県山口市阿知須5094-3,1,1,1,1,1,,,,1,34.01348824,131.3531213,
648,E3520300007201,阿知須中学校校舎,山口県山口市阿知須5094-3,1,1,1,1,1,,,,1,34.01339042,131.3538133,「洪水」では2階以上に避難
649,E3520300008201,十種ヶ峰青少年自然の家体育館,山口県山口市阿東嘉年下1883-2,1,1,1,1,1,,,,1,34.45137017,131.6939191,
650,E3520300009201,嘉年基幹集落センター　（阿東地域交流センター嘉年分館）,山口県山口市阿東嘉年下28-1,1,1,1,1,1,,,,1,34.46456752,131.6740686,
651,E3520300010201,山口市嘉年体育館,山口県山口市阿東嘉年上3436,,1,1,1,1,,,,1,34.4664316,131.6731902,
652,E3520300011201,篠目体育館,山口県山口市阿東篠目379,1,1,1,1,1,,,,1,34.28361951,131.563496,
653,E3520300012201,阿東地域交流センター生雲分館,山口県山口市阿東生雲中188-2,1,1,1,1,1,,,,1,34.38174465,131.6019158,
654,E3520300013201,生雲小学校校舎,山口県山口市阿東生雲中319,1,1,1,1,1,,,,1,34.385025,131.599976,
655,E3520300013202,生雲小学校体育館,山口県山口市阿東生雲中319,1,1,1,1,1,,,,1,34.38531733,131.5999899,
656,E3520300014201,阿東三谷ふれあいセンター,山口県山口市阿東生雲東分1221,1,,1,,1,,,,1,34.33829832,131.6216765,「洪水」では2階以上に避難
657,E3520300158201,阿東地域交流センター篠生分館,山口県山口市阿東生雲東分74-6,1,1,1,1,1,,,,1,34.3043002791442,131.577243230222,
658,E3520300016201,蔵目喜ふれあいセンター,山口県山口市阿東蔵目喜1878,,,1,1,1,,,,1,34.387337723396,131.5665171428,
659,E3520300017202,さくら小学校体育館,山口県山口市阿東地福下1234-1,1,,1,1,1,,,,1,34.35903948,131.6617711,
660,E3520300017201,さくら小学校校舎,山口県山口市阿東地福下1234-1,1,,1,1,1,,,,1,34.358516,131.661355,
661,E3520300018201,阿東地域交流センター地福分館　阿東老人福祉センター,山口県山口市阿東地福上1697,1,1,1,1,1,,,,1,34.36183088,131.6689636,
662,E3520300019201,阿東中学校校舎,山口県山口市阿東地福上1874,1,,1,1,1,,,,1,34.36046,131.665641,
663,E3520300019202,阿東中学校体育館,山口県山口市阿東地福上1874,1,,1,1,1,,,,1,34.3606249,131.665289,
664,E3520300020201,亀山体育館,山口県山口市阿東徳佐上1485-1,,1,1,1,1,,,,1,34.41815541,131.7480231,
665,E3520300022201,阿東東中学校校舎,山口県山口市阿東徳佐中3288-1,1,1,1,1,1,,,,1,34.395787,131.725283,
666,E3520300022202,阿東東中学校体育館,山口県山口市阿東徳佐中3288-1,1,1,1,1,1,,,,1,34.39603881,131.7247239,
667,E3520300023201,徳佐小学校,山口県山口市阿東徳佐中3292,1,1,1,1,1,,,,1,34.396464,131.724371,
668,E3520300024201,阿東保健センター２階,山口県山口市阿東徳佐中3382,1,1,1,1,1,,,,1,34.39609887,131.7210135,
669,E3520300025201,阿東地域交流センター,山口県山口市阿東徳佐中3425-1,1,1,1,1,1,,,,1,34.39853027,131.7214241,
670,E3520300026201,山口保育園,山口県山口市旭通り1-6-19,1,1,1,1,1,,,,1,34.168749,131.471236,
671,E3520300027201,鴻南中学校校舎,山口県山口市維新公園4-7-1,1,1,1,1,1,,,,1,34.1542658,131.4345012,
672,E3520300027202,鴻南中学校体育館,山口県山口市維新公園4-7-1,1,1,1,1,1,,,,1,34.15359103,131.4342866,
673,E3520300028201,小鯖幼稚園,山口県山口市下小鯖2519,1,1,1,1,1,,,,1,34.12736899,131.5245274,
674,E3520300028202,小鯖小学校校舎,山口県山口市下小鯖2519,1,,1,1,1,,,,1,34.128281,131.524992,
675,E3520300028203,小鯖小学校体育館,山口県山口市下小鯖2519,1,1,1,1,1,,,,1,34.12778863,131.525151,
676,E3520300028204,小鯖地域交流センター,山口県山口市下小鯖2519,1,1,1,1,1,,,,1,34.12730904,131.5243624,
677,E3520300029201,山口ふるさと伝承総合センター,山口県山口市下竪小路12,1,1,1,1,1,,,,1,34.18354188,131.4781653,
678,E3520300030201,嘉泉荘,山口県山口市嘉川1439-1,1,1,1,,1,,,,1,34.07768603,131.3771333,
679,E3520300031201,川西中学校校舎,山口県山口市嘉川4352-2,1,1,1,1,1,,,,1,34.067858,131.367672,
680,E3520300031202,川西中学校体育館,山口県山口市嘉川4352-2,1,1,1,1,1,,,,1,34.06816139,131.3675807,
681,E3520300032201,嘉川地域交流センター,山口県山口市嘉川4651-1,1,1,1,1,1,,,,1,34.06769101,131.3696488,
682,E3520300033201,嘉川小学校校舎,山口県山口市嘉川4986,1,1,1,1,1,,,,1,34.076217,131.375861,
683,E3520300033202,嘉川小学校体育館,山口県山口市嘉川4986,1,1,1,1,1,,,,1,34.07579076,131.3754567,
684,E3520300034201,山口大学体育館・武道館,山口県山口市吉田1677-1,1,1,1,1,1,,,,1,34.14814295,131.4661283,
685,E3520300035201,吉敷地域交流センター,山口県山口市吉敷佐畑1-4-1,1,1,1,1,1,,,,1,34.166343,131.432643,
686,E3520300036202,良城小学校体育館,山口県山口市吉敷佐畑3-3-3,1,1,1,1,1,,,,1,34.1661975,131.4293788,
687,E3520300036201,良城小学校校舎,山口県山口市吉敷佐畑3-3-3,1,1,1,1,1,,,,1,34.165813,131.429907,
688,E3520300037201,吉敷幼稚園,山口県山口市吉敷佐畑4-6-1,1,,1,1,1,,,,1,34.16825958,131.4296946,
689,E3520300038201,山口県立山口中央高等学校アリーナ,山口県山口市宮島町6-1,1,1,1,1,1,,,,1,34.16647213,131.4790774,「洪水」では2階以上に避難
690,E3520300039201,宮野幼稚園,山口県山口市宮野下3000-1,1,1,1,1,1,,,,1,34.19918623,131.5051875,
691,E3520300040202,宮野小学校体育館,山口県山口市宮野下3017,1,1,1,1,1,,,,1,34.2001245371489,131.506008385492,
692,E3520300040201,宮野小学校校舎,山口県山口市宮野下3017,1,1,1,1,1,,,,1,34.19967975,131.5061358,
693,E3520300041201,宮野地域交流センター,山口県山口市宮野下3054,1,1,1,1,1,,,,1,34.20000667,131.5076891,
694,E3520300042201,山口ふれあい館,山口県山口市宮野上1222,1,,1,1,1,,,,1,34.21952277,131.5129284,
695,E3520300043201,山口市スポーツの森,山口県山口市宮野上237,1,1,1,1,1,,,,1,34.20758392,131.5067201,
696,E3520300044201,社会福祉法人ふしの学園地域交流　スペース・デイサービス・和室,山口県山口市宮野上3346,1,1,1,,1,,,,1,34.193692,131.517591,
697,E3520300045201,湯田小学校校舎,山口県山口市元町2-26,1,1,1,1,1,,,,1,34.170007,131.458194,
698,E3520300045202,湯田小学校体育館,山口県山口市元町2-26,1,1,1,1,1,,,,1,34.16977025,131.4584977,
699,E3520300046201,大殿中学校校舎,山口県山口市古熊1-4-1,1,,1,1,1,,,,1,34.177024,131.484769,
700,E3520300046202,大殿中学校体育館,山口県山口市古熊1-4-1,1,1,1,1,1,,,,1,34.17707561,131.483954,
701,E3520300047202,興進小学校体育館,山口県山口市江崎2284,1,1,1,1,1,,,,1,34.05784158,131.3698901,
702,E3520300047201,興進小学校校舎,山口県山口市江崎2284,1,1,1,1,1,,,,1,34.057593,131.369944,
703,E3520300048201,平川幼稚園,山口県山口市黒川1210-1,,1,1,1,1,,,,1,34.14160614,131.456976,
704,E3520300049202,平川中学校体育館,山口県山口市黒川1231-1,1,1,1,1,1,,,,1,34.13942763,131.4567553,
705,E3520300049201,平川中学校校舎,山口県山口市黒川1231-1,1,1,1,1,1,,,,1,34.13947,131.457314,
706,E3520300050201,山口県立西京高等学校体育館,山口県山口市黒川2580-1,1,1,1,1,1,,,,1,34.13591454,131.444677,
707,E3520300051201,佐山地域交流センター,山口県山口市佐山2726-1,1,1,1,1,1,,,,1,34.03646712,131.3593507,
708,E3520300052202,佐山小学校体育館,山口県山口市佐山2731,1,1,1,1,1,,,,1,34.03603917,131.3605407,
709,E3520300052201,佐山小学校校舎,山口県山口市佐山2731,1,1,1,1,1,,,,1,34.03668,131.360395,
710,E3520300053201,公立大学法山口県立大学体育館,山口県山口市桜畠3-2-1,1,1,1,,1,,,,1,34.19464294,131.4978001,
711,E3520300054202,宮野中学校体育館,山口県山口市桜畠4-9-1,1,1,1,1,1,,,,1,34.19752938,131.5017135,
712,E3520300054201,宮野中学校校舎,山口県山口市桜畠4-9-1,1,,1,1,1,,,,1,34.19764663,131.5013788,
713,E3520300055201,山口隣保館　別館,山口県山口市三和町13-19,,1,1,1,1,,,,1,34.16638929,131.4688487,
714,E3520300056201,山口隣保館,山口県山口市三和町3-1,1,1,1,1,1,,,,1,34.16855575,131.4706153,
715,E3520300057201,山口第二保育園,山口県山口市三和町9-2,1,1,1,1,1,,,,1,34.168138,131.469264,
716,E3520300058201,三の宮保育園,山口県山口市芝崎町9-73,1,1,1,,1,,,,1,34.18822889,131.4891687,
717,E3520300059201,大海総合センター,山口県山口市秋穂東1130-5,1,1,,1,1,,,,1,34.02982874,131.4650186,「高潮」では2階以上に避難
718,E3520300060201,大海小学校校舎,山口県山口市秋穂東2299,1,1,1,1,1,,,,1,34.021382,131.463124,「高潮」では2階以上に避難
719,E3520300060202,大海小学校体育館,山口県山口市秋穂東2299,1,1,,1,1,,,,1,34.02190927,131.4632263,「高潮」では2階以上に避難
720,E3520300061201,秋穂デイサービスセンター,山口県山口市秋穂東3993,1,1,1,1,1,,,,1,34.01480475,131.4441315,
721,E3520300062201,大海なかよし学級,山口県山口市秋穂東439,1,1,,1,1,,,,1,34.019108,131.464827,
722,E3520300063201,秋穂中学校校舎,山口県山口市秋穂東615-1,1,1,1,1,1,,,,1,34.014463,131.44106,
723,E3520300063202,秋穂中学校体育館,山口県山口市秋穂東615-1,1,1,1,1,1,,,,1,34.01465667,131.4404046,
724,E3520300064201,秋穂コミュニティセンター,山口県山口市秋穂東6527-2,1,,1,,1,,,,1,34.01309223,131.4379464,
725,E3520300065201,秋穂保健センター,山口県山口市秋穂東6570,1,1,1,1,1,,,,1,34.01497198,131.4375471,
726,E3520300066202,秋穂小学校体育館,山口県山口市秋穂東6771,1,1,,1,1,,,,1,34.01748825,131.4358639,
727,E3520300066201,秋穂小学校校舎,山口県山口市秋穂東6771,1,1,1,1,1,,,,1,34.017176,131.435352,「高潮」では2階以上に避難
728,E3520300067201,秋穂地域交流センター,山口県山口市秋穂東6823-1,1,1,,1,1,,,,1,34.01914775,131.4332391,
729,E3520300068201,秋穂荘,山口県山口市秋穂東768-13,1,1,1,1,1,,,,1,33.99341052,131.4358496,
730,E3520300069201,潮寿荘,山口県山口市秋穂二島438-1,1,1,1,1,1,,,,1,34.011125,131.408402,
731,E3520300070201,二島小学校校舎,山口県山口市秋穂二島552-1,1,1,1,1,1,,,,1,34.038169,131.420225,
732,E3520300070202,二島小学校体育館,山口県山口市秋穂二島552-1,1,1,1,1,1,,,,1,34.0380035,131.4207395,
733,E3520300071201,二島中学校校舎,山口県山口市秋穂二島561,1,1,1,1,1,,,,1,34.040814,131.424436,
734,E3520300071202,二島中学校体育館,山口県山口市秋穂二島561,1,1,1,1,1,,,,1,34.04117054,131.4250849,
735,E3520300072201,二島地域交流センター,山口県山口市秋穂二島5990,1,1,1,1,1,,,,1,34.03752377,131.4229383,
736,E3520300073201,旧二島幼稚園,山口県山口市秋穂二島6174,1,1,1,1,1,,,,1,34.03782909,131.4214429,
737,E3520300074201,山口学芸大学体育館,山口県山口市小郡みらい町1-7-1,1,,1,1,1,,,,1,34.12116682,131.4022793,
738,E3520300075201,上郷小学校校舎,山口県山口市小郡みらい町2-14-1,1,1,1,1,1,,,,1,34.12157702,131.3980719,
739,E3520300075202,上郷小学校体育館,山口県山口市小郡みらい町2-14-1,1,,1,1,1,,,,1,34.12144824,131.3990214,
740,E3520300076201,小郡ふれあいセンター,山口県山口市小郡下郷1440-1,,1,1,1,1,,,,1,34.10204596,131.401537,
741,E3520300077201,小郡小学校校舎,山口県山口市小郡下郷254-3,1,1,1,1,1,,,,1,34.10644653,131.4001034,「洪水」では3階以上に避難
742,E3520300077202,小郡小学校体育館,山口県山口市小郡下郷254-3,,1,1,1,1,,,,1,34.10648428,131.4007579,
743,E3520300078201,山口県鴻城高等学校体育館,山口県山口市小郡下郷258-2,,1,,1,1,,,,1,34.10896232,131.401172,
744,E3520300157201,小郡体育館,山口県山口市小郡下郷308-1,,1,,1,1,,,,1,34.106368,131.397036,
745,E3520300079201,小郡地域交流センター,山口県山口市小郡下郷609-1,1,1,1,1,1,,,,1,34.1030557703525,131.392646266711,「洪水」では2階以上に避難
746,E3520300080201,小郡保健福祉センター,山口県山口市小郡下郷609-5,1,1,1,1,1,,,,1,34.10211022,131.3932391,「洪水」では2階以上に避難
747,E3520300081201,小郡中学校校舎,山口県山口市小郡下郷879-1,1,1,1,1,1,,,,1,34.10605983,131.3978062,「洪水」では3階以上に避難
748,E3520300081202,小郡中学校体育館,山口県山口市小郡下郷879-1,,1,1,1,1,,,,1,34.10638556,131.3970123,
749,E3520300081203,小郡中学校武道場,山口県山口市小郡下郷879-1,,1,1,1,1,,,,1,34.106183690829,131.39737173181,
750,E3520300082201,山口県立山口農業高等学校体育館・武道場,山口県山口市小郡上郷10980-1,1,1,1,1,1,,,,1,34.13111682,131.4086051,
751,E3520300083201,小郡上郷児童館,山口県山口市小郡上郷2159,1,1,1,,1,,,,1,34.12823793,131.4108934,
752,E3520300084201,小郡上郷保育園,山口県山口市小郡新町1-18-27,,1,1,1,1,,,,1,34.1134642,131.3975194,
753,E3520300085201,小郡南小学校校舎,山口県山口市小郡緑町1-1,1,1,,1,1,,,,1,34.09056006,131.4000042,「洪水」では2階以上に避難
754,E3520300085202,小郡南小学校体育館,山口県山口市小郡緑町1-1,,1,,1,1,,,,1,34.09013357,131.400267,
755,E3520300086201,小郡南集会所,山口県山口市小郡緑町2-27,,1,1,,1,,,,1,34.09196178,131.4027896,
756,E3520300087201,ＫＤＤＩ維新ホール,山口県山口市小郡令和1-1-1,1,1,1,1,1,,,,1,34.092963569654,131.39410053571,「洪水」では2階以上に避難
757,E3520300088201,山口刑務所職員待機所,山口県山口市松美町5-25,1,1,1,1,1,,,,1,34.1651180364986,131.463572406381,
758,E3520300089201,山口刑務所鍛錬場,山口県山口市松美町5-6,1,1,1,1,1,,,,1,34.1652201251756,131.463792347523,
759,E3520300090201,ハートホーム南山口（青藍会）　地域交流スペース,山口県山口市深溝803-1,1,1,,1,1,,,,1,34.05148387,131.3672046,
760,E3520300091201,仁保地域交流センター,山口県山口市仁保中郷1041,1,1,1,1,1,,,,1,34.21192588,131.5589621,
761,E3520300092202,仁保小学校体育館,山口県山口市仁保中郷81,1,1,1,1,1,,,,1,34.21432222,131.5559578,
762,E3520300092201,仁保小学校校舎,山口県山口市仁保中郷81,1,1,1,1,1,,,,1,34.214521,131.555499,
763,E3520300093201,仁保幼稚園,山口県山口市仁保中郷82,1,1,1,1,1,,,,1,34.21336338,131.5557351,
764,E3520300094201,仁保中学校校舎,山口県山口市仁保中郷84,1,1,1,1,1,,,,1,34.215378,131.558337,
765,E3520300094202,仁保中学校体育館,山口県山口市仁保中郷84,1,1,1,1,1,,,,1,34.2151286016575,131.558785534077,
766,E3520300095201,大殿地域交流センター,山口県山口市大殿大路120-4,1,1,1,1,1,,,,1,34.183315,131.479809,
767,E3520300096202,大殿小学校体育館,山口県山口市大殿大路213,1,1,1,1,1,,,,1,34.18320535,131.4817017,
768,E3520300096201,大殿小学校校舎,山口県山口市大殿大路213,1,1,1,1,1,,,,1,34.18274,131.481089,
769,E3520300097201,やまぐちリフレッシュパーク,山口県山口市大内長野1107,1,,1,1,1,,,,1,34.15930781,131.5241537,
770,E3520300098202,大内中学校体育館,山口県山口市大内長野555,1,1,1,1,1,,,,1,34.1537412,131.520517,
771,E3520300098201,大内中学校校舎,山口県山口市大内長野555,1,1,1,1,1,,,,1,34.154276,131.520491,
772,E3520300099202,大内南小学校体育館,山口県山口市大内矢田南2-4-1,,1,1,1,1,,,,1,34.15054327,131.4966671,
773,E3520300099201,大内南小学校校舎,山口県山口市大内矢田南2-4-1,1,1,1,1,1,,,,1,34.15070308,131.4972196,「洪水」では2階以上に避難
774,E3520300100201,大内地域交流センター,山口県山口市大内矢田北1-10-11,1,1,1,1,1,,,,1,34.15967851,131.5027013,「洪水」では2階以上に避難
775,E3520300101201,大内幼稚園,山口県山口市大内矢田北1-11-24,,1,1,1,1,,,,1,34.15868241,131.5013627,
776,E3520300102202,大内小学校体育館,山口県山口市大内矢田北1-16-1,1,1,1,1,1,,,,1,34.15705898,131.4992978,
777,E3520300102201,大内小学校校舎,山口県山口市大内矢田北1-16-1,1,1,1,1,1,,,,1,34.1572432,131.4998959,
778,E3520300103201,山口情報芸術センター,山口県山口市中園町7-7,1,1,1,1,1,,,,1,34.16956715,131.4673052,
779,E3520300104201,山口市民会館,山口県山口市中央2-5-1,1,1,1,1,1,,,,1,34.17725664,131.4737147,
780,E3520300105201,山口みなみこども園,山口県山口市鋳銭司3922-1,1,1,1,1,1,,,,1,34.083238,131.453787,
781,E3520300106202,鋳銭司小学校体育館,山口県山口市鋳銭司4010,1,1,1,1,1,,,,1,34.08593979,131.4543877,
782,E3520300106201,鋳銭司小学校校舎,山口県山口市鋳銭司4010,1,1,1,1,1,,,,1,34.085827,131.453833,
783,E3520300107201,鋳銭司地域交流センター,山口県山口市鋳銭司5675-1,1,1,1,,1,,,,1,34.079327,131.446309,
784,E3520300108201,障害者支援施設なでしこ園地域交流スペース,山口県山口市朝倉町4-55,1,1,1,,1,,,,1,34.17645038,131.4528041,
785,E3520300159201,湯田温泉こんこんパーク,山口県山口市湯田温泉5-2-15,1,1,1,1,1,,,,1,34.167412,131.456972,
786,E3520300109201,山口勤労者総合福祉センター　（サンフレッシュ）,山口県山口市湯田温泉5-5-22,1,1,1,1,1,,,,1,34.16846527,131.4561702,
787,E3520300110201,湯田地域交流センター,山口県山口市湯田温泉5-5-50,1,1,1,1,1,,,,1,34.1680795,131.4566139,
788,E3520300111201,潟上中学校校舎,山口県山口市陶1912,1,1,1,1,1,,,,1,34.07918,131.432439,「高潮」では2階以上に避難
789,E3520300111202,潟上中学校体育館,山口県山口市陶1912,1,1,1,1,1,,,,1,34.0790913,131.4328548,「高潮」では2階以上に避難
790,E3520300112201,陶地域交流センター,山口県山口市陶2595,1,1,1,1,1,,,,1,34.08955774,131.4306773,
791,E3520300113201,西円寺幼稚園,山口県山口市陶2963-1,1,1,1,1,1,,,,1,34.09206,131.4294,
792,E3520300114202,陶小学校体育館,山口県山口市陶3544,1,1,1,1,1,,,,1,34.09054201,131.4296826,
793,E3520300114201,陶小学校校舎,山口県山口市陶3544,1,1,1,1,1,,,,1,34.09030655,131.4296826,
794,E3520300115201,陶隣保館,山口県山口市陶4713-1,1,,1,1,1,,,,1,34.09705824,131.4122845,
795,E3520300116201,社会福祉センターしらさぎ会館３階・４階,山口県山口市堂の前町1-5,1,1,1,,1,,,,1,34.18074126,131.4806983,
796,E3520300117201,やまぐちサッカー交流広場（引谷体育館）,山口県山口市徳地引谷1209-3,1,,1,1,1,,,,1,34.21714241,131.6105884,
797,E3520300118201,遠内集会所,山口県山口市徳地串2034,1,1,1,,1,,,,1,34.17285349,131.7219861,
798,E3520300119201,串生活改善センター,山口県山口市徳地串660-1,1,,1,,1,,,,1,34.18971415,131.7206721,
799,E3520300120201,旧串小学校校舎,山口県山口市徳地鯖河内1421,1,1,1,1,1,,,,1,34.19528035,131.7357136,
800,E3520300120202,旧串小学校体育館,山口県山口市徳地鯖河内1421,1,1,1,1,1,,,,1,34.19502743,131.7360945,
801,E3520300121201,徳地地域交流センター串分館,山口県山口市徳地鯖河内1629-1,1,,1,1,1,,,,1,34.19683918,131.7295684,
802,E3520300122201,三谷交流センター,山口県山口市徳地三谷1461,1,,1,1,1,,,,1,34.24634857,131.7135115,
803,E3520300123201,小古祖多目的集会所,山口県山口市徳地小古祖831,1,,1,,1,,,,1,34.20363927,131.668973,
804,E3520300124201,上村高齢者女性等活動促進センター,山口県山口市徳地上村534-1,,1,1,1,1,,,,1,34.14310897,131.7165271,
805,E3520300125202,国立山口徳地青少年自然の家　管理棟,山口県山口市徳地船路668,1,1,1,1,1,,,,1,34.2727824344199,131.665178732794,
806,E3520300125201,国立山口徳地青少年自然の家　宿泊棟,山口県山口市徳地船路668,1,1,1,1,1,,,,1,34.2715057287575,131.663961009904,
807,E3520300126202,やまぐちサッカー交流広場体育館,山口県山口市徳地船路890,,1,1,1,1,,,,1,34.2376307,131.6542463,
808,E3520300126201,やまぐちサッカー交流広場クラブハウス,山口県山口市徳地船路890,,1,1,1,1,,,,1,34.23729658,131.6541318,
809,E3520300127201,島地小学校校舎,山口県山口市徳地島地16,,,1,1,1,,,,1,34.15888428,131.7002727,「洪水」では2階以上に避難
810,E3520300127202,島地小学校体育館,山口県山口市徳地島地16,1,,1,1,1,,,,1,34.15848477,131.700482,
811,E3520300128201,旧島地中学校校舎,山口県山口市徳地島地43,1,,1,1,1,,,,1,34.15989192,131.7004605,「洪水」では2階以上に避難
812,E3520300129201,徳地地域交流センター島地分館,山口県山口市徳地島地96-2,,1,1,1,1,,,,1,34.160823,131.702288,
813,E3520300130201,藤木老人憩の家,山口県山口市徳地藤木142-2,1,,1,,1,,,,1,34.15630248,131.6871295,
814,E3520300131202,八坂小学校体育館,山口県山口市徳地八坂1226,,,1,1,1,,,,1,34.23813338,131.6580156,
815,E3520300131201,八坂小学校校舎,山口県山口市徳地八坂1226,1,,1,1,1,,,,1,34.23793825,131.6577796,「洪水」では2階以上に避難
816,E3520300132201,徳地地域交流センター八坂分館,山口県山口市徳地八坂975,,1,1,1,1,,,,1,34.23208675,131.6629366,
817,E3520300133201,徳地文化ホール,山口県山口市徳地堀1527-3,,1,1,1,1,,,,1,34.190337,131.660199,
818,E3520300135201,徳地体育館,山口県山口市徳地堀1537,,,1,1,1,,,,1,34.18908603,131.6614155,
819,E3520300136201,中央小学校校舎,山口県山口市徳地堀1551,1,,1,1,1,,,,1,34.19006024,131.6617115,「洪水」では2階以上に避難
820,E3520300136202,中央小学校体育館,山口県山口市徳地堀1551,,,1,1,1,,,,1,34.1904596,131.6611912,
821,E3520300156201,徳地地域交流センター,山口県山口市徳地堀1561-1,1,1,1,1,1,,,,1,34.190692,131.660372,「洪水」では2階以上に避難
822,E3520300137201,徳地中学校校舎,山口県山口市徳地堀1606-1,,1,1,1,1,,,,1,34.19131077,131.6589884,
823,E3520300137202,徳地中学校体育館,山口県山口市徳地堀1606-1,,1,1,1,1,,,,1,34.19126639,131.6585271,
824,E3520300139201,徳地地域交流センター柚野分館,山口県山口市徳地野谷349-2,1,,1,,1,,,,1,34.30385902,131.6860604,
825,E3520300140201,旧柚野木小学校校舎,山口県山口市徳地柚木2018,1,,1,1,1,,,,1,34.341434,131.722746,
826,E3520300140202,旧柚野木小学校体育館,山口県山口市徳地柚木2018,1,,1,1,1,,,,1,34.34139755,131.7231986,
827,E3520300141201,柚野地域活性化センター,山口県山口市徳地柚木2021,1,,1,1,1,,,,1,34.34192028,131.7225789,
828,E3520300142201,柚木老人憩の家,山口県山口市徳地柚木374-1,1,,1,,1,,,,1,34.3320725267404,131.704164930378,
829,E3520300143201,楠木保育園,山口県山口市楠木町1-44,1,1,1,,1,,,,1,34.170026,131.454599,
830,E3520300144201,湯田中学校校舎,山口県山口市楠木町7-1,1,1,1,1,1,,,,1,34.171729,131.452111,
831,E3520300144202,湯田中学校体育館,山口県山口市楠木町7-1,1,1,1,1,1,,,,1,34.17204841,131.4525362,
832,E3520300145202,白石小学校体育館,山口県山口市白石1-10-1,1,1,1,1,1,,,,1,34.17704657,131.4708435,
833,E3520300145201,白石小学校校舎,山口県山口市白石1-10-1,1,1,1,1,1,,,,1,34.177042,131.470328,
834,E3520300146201,白石中学校校舎,山口県山口市白石2-7-1,1,1,1,1,1,,,,1,34.1766175608954,131.469351269367,
835,E3520300146202,白石中学校体育館,山口県山口市白石2-7-1,1,1,1,1,1,,,,1,34.17652376,131.4697797,
836,E3520300147201,平川地域交流センター,山口県山口市平井1665,1,1,1,1,1,,,,1,34.1428434,131.4545766,「洪水」では2階以上に避難
837,E3520300148202,平川小学校体育館,山口県山口市平井1675-2,1,1,1,1,1,,,,1,34.14129573,131.4560835,
838,E3520300148201,平川小学校校舎,山口県山口市平井1675-2,1,1,1,1,1,,,,1,34.140496,131.456284,
839,E3520300149201,白石地域交流センター,山口県山口市本町1-1-25,1,1,1,1,1,,,,1,34.17406107,131.4735952,
840,E3520300150201,山口南総合センター,山口県山口市名田島1218-1,,1,,1,1,,,,1,34.08445803,131.4121576,
841,E3520300150202,名田島地域交流センター,山口県山口市名田島1218-1,1,1,,1,1,,,,1,34.08422259,131.4121165,「洪水」では2階以上に避難
842,E3520300151201,にこにこ学級,山口県山口市名田島1536-1,,1,,1,,,,,1,34.07634,131.415884,
843,E3520300152201,名田島小学校校舎,山口県山口市名田島1538-2,1,1,,1,,,,,1,34.076612,131.41501,「洪水」では2階以上に避難
844,E3520300152202,名田島小学校体育館,山口県山口市名田島1538-2,,1,,1,,,,,1,34.07664062,131.4154542,
845,E3520300153201,大歳地域交流センター,山口県山口市矢原1407-5,1,1,1,1,1,,,,1,34.14900389,131.4400312,「洪水」では2階以上に避難
846,E3520300154202,大歳小学校体育館,山口県山口市矢原1486,,1,1,1,1,,,,1,34.15067637,131.4395951,
847,E3520300154201,大歳小学校校舎,山口県山口市矢原1486,1,1,1,1,1,,,,1,34.15035895,131.4397087,「洪水」では2階以上に避難
848,E3521600001201,市民館,山口県山陽小野田市栄町9-25,1,1,1,1,,,1,1,1,33.991032,131.175548,
849,E3521600002202,有帆地域交流センター,山口県山陽小野田市新有帆町1-1,1,1,1,1,1,,1,1,1,34.016969965621,131.20259722125,
850,E3521600002201,有帆コミュニティ体育館,山口県山陽小野田市新有帆町1-1,1,1,1,1,1,,1,1,1,34.017307892522,131.20274742496,
851,E3521600003201,有帆児童館,山口県山陽小野田市新有帆町1-14,,1,1,1,1,,,1,,34.018158920967,131.20275946228,
852,E3521600004201,有帆小学校,山口県山陽小野田市新有帆町4-1,1,1,1,1,1,1,1,1,1,34.019043215368,131.20158905795,
853,E3521600005202,須恵コミュニティ体育館,山口県山陽小野田市須恵1-1-1,1,1,1,1,,,1,1,1,33.975084115375,131.17930968591,
854,E3521600005201,須恵健康公園,山口県山陽小野田市須恵1-1-1,,,,1,,1,,1,1,33.97504189239,131.18036201256,
855,E3521600006201,赤崎地域交流センター,山口県山陽小野田市赤崎1-1-1,1,1,1,1,,,1,1,1,33.964333217829,131.17351184641,
856,E3521600008201,山口東京理科大学（体育館）,山口県山陽小野田市大学通1-1-1,1,1,,1,,,1,1,,33.957506062378,131.18869761886,
857,E3521600009201,福正寺自治会館,山口県山陽小野田市大字鴨庄1102-4,1,,1,,1,,1,1,,34.07691123447,131.16771423024,
858,E3521600010201,厚狭地区複合施設,山口県山陽小野田市大字鴨庄94,1,1,1,1,1,,1,1,1,34.056351637331,131.16016091884,
859,E3521600011201,小野田中学校,山口県山陽小野田市大字丸河内1018,1,1,1,1,1,1,1,1,1,33.981086940163,131.18522762939,
860,E3521600062201,朝陽カントリークラブ,山口県山陽小野田市大字郡16-3,1,1,1,1,1,1,1,1,,34.039263,131.183004,
861,E3521600012201,不二輸送機ホール（文化会館）小ホール,山口県山陽小野田市大字郡1754,1,1,1,1,1,,1,1,,34.051262568441,131.1578446558,
862,E3521600013201,鳥越福祉会館,山口県山陽小野田市大字郡2839-3,,1,,1,,,,1,,34.030195017811,131.148945132,
863,E3521600014201,旧厚陽中学校体育館,山口県山陽小野田市大字郡3250,1,1,1,1,1,1,1,1,1,34.022282663918,131.14543024097,
864,E3521600015201,厚陽小・中学校,山口県山陽小野田市大字郡3492,1,1,,1,,1,1,1,1,34.019625806202,131.14153541682,
865,E3521600016201,西福寺,山口県山陽小野田市大字郡4737,1,,1,,1,,1,1,,34.008242390928,131.13341842352,
866,E3521600018201,妙徳寺,山口県山陽小野田市大字郡768,1,,1,,1,,1,1,,34.044011221282,131.16226029502,
867,E3521600064201,山陽グリーンゴルフコース,山口県山陽小野田市大字郡877-43,1,1,1,1,1,1,1,1,,34.03806,131.129973,
868,E3521600019201,清安寺,山口県山陽小野田市大字厚狭1501,1,1,1,1,1,,1,1,,34.064170703047,131.17771449937,
869,E3521600020201,森広会館,山口県山陽小野田市大字厚狭2696-2,1,,1,,1,,1,1,,34.088083510476,131.19905415476,
870,E3521600021201,川上会館,山口県山陽小野田市大字厚狭4411,1,,1,,1,,1,1,,34.101604464081,131.18087639392,
871,E3521600022201,厚狭小学校,山口県山陽小野田市大字厚狭897,1,1,1,1,1,1,1,1,1,34.056868662176,131.16931798041,
872,E3521600023201,厚狭高等学校北校舎（体育館）,山口県山陽小野田市大字厚狭字束ノ原1660,1,1,1,1,1,,1,,,34.0619,131.171779,
873,E3521600024201,江汐公園,山口県山陽小野田市大字高畑401-1,,,,1,1,1,,1,,34.033285466131,131.19292611751,
874,E3521600024202,江汐公園管理棟,山口県山陽小野田市大字高畑401-1,1,1,1,1,1,,1,1,,34.033804113382,131.1919086658,
875,E3521600025201,石丸総合館,山口県山陽小野田市大字山川345-2,1,1,1,,1,,1,1,,34.049923581277,131.14804301576,
876,E3521600026201,厚狭中学校,山口県山陽小野田市大字山川829,1,1,1,1,1,1,1,1,,34.060463559747,131.15051696504,
877,E3521600066201,厚狭中学校,山口県山陽小野田市大字山川841,1,1,1,1,1,1,1,1,1,34.060463559747,131.15051696504,
878,E3521600063201,プレジデントカントリー倶楽部山陽,山口県山陽小野田市大字山野井東2039-19,1,1,1,1,1,1,1,1,,34.071096,131.139698,
879,E3521600028201,安養寺,山口県山陽小野田市大字小野田1011,1,1,1,1,1,,1,1,,33.942924511403,131.17645922554,
880,E3521600029201,竜王山,山口県山陽小野田市大字小野田1261,,,,1,1,1,,1,,33.955975632938,131.16839521942,
881,E3521600030201,光安寺,山口県山陽小野田市大字小野田226-3,1,1,1,1,1,,1,1,,33.940361105709,131.17673817529,
882,E3521600031201,本山地域交流センター,山口県山陽小野田市大字小野田275-2,1,1,1,1,1,,1,1,1,33.94190827461,131.17394174009,
883,E3521600032201,本山コミュニティ体育館,山口県山陽小野田市大字小野田275-3,1,1,1,1,1,,1,1,1,33.942153043135,131.17319608599,
884,E3521600033201,竜王中学校,山口県山陽小野田市大字小野田3923,1,1,1,1,1,1,1,1,1,33.959263481402,131.18304474221,
885,E3521600034201,赤崎小学校,山口県山陽小野田市大字小野田4402,1,1,1,1,1,1,1,1,1,33.959229717051,131.17556386961,
886,E3521600035201,本山小学校,山口県山陽小野田市大字小野田482,1,1,1,1,1,1,1,1,1,33.948218855503,131.17255613269,
887,E3521600036201,須恵小学校,山口県山陽小野田市大字小野田5258,1,1,1,1,1,1,1,1,1,33.971985348527,131.1817278715,
888,E3521600068201,共英製鋼株式会社山口事業所,山口県山陽小野田市大字小野田6289-18,,,,,1,,,,,33.971915,131.172636,
889,E3521600037201,サンライフ山陽,山口県山陽小野田市大字埴生2156,1,1,1,1,1,,1,1,,34.044758680272,131.07656853327,
890,E3521600038201,長生園,山口県山陽小野田市大字埴生2156-2,1,1,1,,1,,1,1,,34.044211948506,131.07564048895,
891,E3521600039201,埴生地域交流センター,山口県山陽小野田市大字埴生275,1,1,1,1,1,1,1,1,1,34.039333,131.093758,
892,E3521600040201,埴生小・中学校,山口県山陽小野田市大字埴生283,1,1,1,1,1,1,1,1,1,34.040397344825,131.09362005392,
893,E3521600042201,高泊コミュニティ体育館,山口県山陽小野田市大字西高泊2274-1,1,1,,1,,,1,1,1,34.006006704549,131.15331869175,
894,E3521600042202,高泊地域交流センター,山口県山陽小野田市大字西高泊2274-1,1,1,,1,,,1,1,1,34.006346898571,131.15335713669,
895,E3521600043201,後潟上自治会館,山口県山陽小野田市大字西高泊3024-5,1,1,1,1,,,1,1,,34.01816,131.156838,
896,E3521600044201,高泊小学校,山口県山陽小野田市大字西高泊923,1,1,1,1,1,1,1,1,1,34.007143002448,131.16472627742,
897,E3521600045201,旧津布田小学校,山口県山陽小野田市大字津布田1028-1,1,1,1,1,1,1,1,1,1,34.020777228447,131.11243336778,
898,E3521600065201,厚狭ゴルフ倶楽部,山口県山陽小野田市大字津布田201,1,1,1,1,1,1,1,1,,34.036667,131.128882,
899,E3521600046201,森本集会所,山口県山陽小野田市大字津布田2280,1,1,1,,1,,1,1,,34.031190153533,131.10513068789,
900,E3521600047201,福田公会堂,山口県山陽小野田市大字福田629,1,,1,,1,,1,1,,34.065321902211,131.1019529584,
901,E3521600048201,別府八幡宮,山口県山陽小野田市大字有帆1377-2,1,1,1,1,1,,1,1,,34.025724784132,131.21088614206,
902,E3521600049201,覚天寺,山口県山陽小野田市大字有帆1867,1,1,1,1,1,,1,1,,34.033585,131.210255,
903,E3521600050201,有帆緑地管理棟,山口県山陽小野田市大字有帆359-7,1,1,1,1,1,,1,1,,34.01927,131.215194,
904,E3521600051201,小野田工業高等学校（体育館）,山口県山陽小野田市中央2-6-1,1,1,,1,,,1,1,,33.979140194346,131.17799586182,
905,E3521600052201,須恵地域交流センター,山口県山陽小野田市中央4-4-1,1,1,1,1,,,1,1,1,33.975838419474,131.17947911615,
906,E3521600053201,小野田小学校,山口県山陽小野田市中川3-2-1,1,1,1,1,,1,1,1,1,33.986960462396,131.17611726585,
907,E3521600054202,市民体育館,山口県山陽小野田市中川5-2-1,1,1,1,1,,,1,1,1,33.990888987013,131.17393129882,
908,E3521600054201,武道館（柔剣道場）,山口県山陽小野田市中川5-2-1,1,1,1,1,,,1,1,1,33.991087257124,131.17323627771,
909,E3521600055201,山陽小野田市役所,山口県山陽小野田市日の出1-1-1,1,1,1,,,,1,1,,34.003050678858,131.1818559478,
910,E3521600056201,高千帆地域交流センター,山口県山陽小野田市日の出3-11-11,1,1,1,,,,1,1,,34.007615663087,131.18299972799,
911,E3521600057201,高千帆地域交流センター分館,山口県山陽小野田市日の出3-14-1,1,1,1,1,,,1,1,1,34.007376454866,131.18214627316,
912,E3521600058201,高千帆小学校,山口県山陽小野田市揥山1-25-1,1,1,1,1,1,1,1,1,1,34.010111440478,131.1843723404,
913,E3521600059201,小野田高等学校（体育館）,山口県山陽小野田市揥山1-26-1,1,1,1,1,1,,1,1,,34.010364906253,131.18711892239,
914,E3521600060201,高千帆中学校,山口県山陽小野田市揥山2-8-1,1,1,1,1,1,1,1,1,1,34.013486475354,131.18688825242,
915,E3521600061201,サビエル高等学校（体育館）,山口県山陽小野田市揥山3-5-1,1,1,1,1,1,,1,1,,34.015812014198,131.18843856923,
916,E3521500001201,遠石小学校,山口県周南市遠石1-3-48,1,1,1,1,1,1,,,1,34.042732033882,131.81782812632,
917,E3521500002201,富田東小学校,山口県周南市桶川町2-1,,1,,1,1,1,,,1,34.071551015777,131.77534040889,
918,E3521500003201,南陽工業高等学校,山口県周南市温田1-1-1,1,1,1,1,1,1,,,1,34.073262837683,131.74732416554,
919,E3521500004201,光万寺集会所,山口県周南市河内町10-4,1,1,1,,1,,,,1,34.077904368085,131.75656090536,
920,E3521500186201,徳山工業高等専門学校,山口県周南市学園台3538,,,,1,1,1,,,,34.051804,131.847672,
921,E3521500005201,周南公立大学,山口県周南市学園台843-4-2,1,1,1,,1,1,,,1,34.047658189134,131.84432966005,
922,E3521500006201,宮の前公園,山口県周南市宮の前2-3-2,,,,1,1,,,,,34.07301103255,131.76521992782,
923,E3521500007201,ゆめプラザ熊毛,山口県周南市熊毛中央町1-1,1,1,1,1,1,1,,,1,34.049887829,131.96949317763,
924,E3521500008201,慶万公園,山口県周南市慶万町1847-3,,,,1,1,1,,,,34.048025414597,131.81316356745,
925,E3521500009201,今宿市民センター,山口県周南市原宿町6-12,1,1,1,,1,,,,1,34.062954,131.804011,
926,E3521500010201,岡田原西公園,山口県周南市原宿町73,,,,1,1,1,,,,34.062795020654,131.80438138502,
927,E3521500011201,とんとん会館,山口県周南市古泉3-12-20,,1,,1,,,,,1,34.066568281604,131.77409404251,
928,E3521500012201,華西公園,山口県周南市鼓海１－３２４－２３外,,,,1,,1,,,,34.021219641024,131.82534111237,
929,E3521500013201,孝田公園,山口県周南市孝田町９外,,,,1,1,1,,,,34.048579540372,131.83549105671,
930,E3521500014201,トクヤマ文化体育館,山口県周南市江口1-1-25,,,,1,,,,,,34.062943,131.794728,
931,E3521500015201,今宿小学校,山口県周南市今住町1-40,1,1,1,1,1,1,,,1,34.062138920921,131.80245721957,
932,E3521500016201,児玉公園,山口県周南市桜馬場通1-3,,,,1,1,1,,,,34.054233519152,131.80784935819,
933,E3521500017201,東川緑地公園,山口県周南市桜馬場通２外,,,,1,,1,,,,34.048770787956,131.8104362014,
934,E3521500018201,桜木小学校,山口県周南市桜木1-11-1,1,1,1,1,1,1,,,1,34.040746929346,131.83827472884,
935,E3521500019201,徳山保健センター,山口県周南市児玉町1-1,1,1,1,1,1,,,,1,34.054603388864,131.80759418076,
936,E3521500020201,福川中学校,山口県周南市若山1-7-1,1,1,,1,1,1,,,1,34.076005180266,131.72838936056,
937,E3521500021201,遠石市民センター,山口県周南市若草町6-33,1,1,1,1,1,,,,1,34.04575,131.819234,
938,E3521500022201,周陽小学校,山口県周南市周陽1-15-1,1,1,1,1,1,1,,,1,34.047170641532,131.82823221957,
939,E3521500024201,周陽市民センター,山口県周南市周陽2-8-2,1,1,1,1,1,,,,1,34.046130664243,131.83064198526,
940,E3521500025201,徳山商工高等学校,山口県周南市周陽3-1-1,1,1,1,1,1,1,,,1,34.046941911473,131.82613564014,
941,E3521500026201,周陽公園,山口県周南市周陽3-17,,,,1,1,1,,,,34.044819,131.828773,
942,E3521500027201,周陽中学校,山口県周南市周陽3-3-1,1,1,1,1,1,1,,,1,34.043868620315,131.82963194841,
943,E3521500023201,周南緑道緑地,山口県周南市周陽１－５９外,,,,1,1,1,,,,34.047160168573,131.82976185825,
944,E3521500028201,秋月小学校,山口県周南市秋月1-1-50,1,1,1,1,1,1,,,1,34.054233555899,131.82550478637,
945,E3521500029201,秋月中学校,山口県周南市秋月1-1-53,1,1,1,1,1,1,,,1,34.05293699378,131.82622581482,
946,E3521500030201,秋月公園,山口県周南市秋月2-26,,,,1,1,1,,,,34.05708037,131.82797076,
947,E3521500031201,住吉中学校,山口県周南市住吉町1-80,1,,1,1,1,1,,,1,34.064856502327,131.80425160344,
948,E3521500032201,徳曹会館,山口県周南市初音町2-2-25,1,,,1,1,,,,,34.061494,131.799008,
949,E3521500033201,勝間小学校,山口県周南市勝間ケ丘1-1-1,1,1,1,1,1,1,,,1,34.047032858353,131.95379709325,
950,E3521500034201,徳山高等学校,山口県周南市鐘楼町2-50,1,1,1,1,1,1,,,1,34.060568595269,131.80799801499,
951,E3521500035201,上迫公園,山口県周南市上迫町1034,,,,1,1,1,,,,34.077462933501,131.73308479368,
952,E3521500036201,桜木市民センター,山口県周南市城ケ丘2-4-21,1,1,1,1,1,,,,1,34.045693,131.838641,
953,E3521500037201,城ケ丘公園,山口県周南市城ケ丘5-27,,,,1,1,1,,,,34.04484002149,131.84168279036,
954,E3521500038201,尚白園,山口県周南市新宿通6-1-25,1,,1,1,1,,,,1,34.065177663337,131.79837954233,
955,E3521500039201,尚白公園,山口県周南市新宿通6-48,,,,1,1,1,,,,34.065217629272,131.79883332027,
956,E3521500040201,新地ふれあいパーク,山口県周南市新地2-154,,,,1,,1,,,,34.066707638497,131.79020339317,
957,E3521500041201,柏屋新田公園,山口県周南市新田1-2612-72,,,,1,1,1,,,,34.064820219203,131.73483359396,
958,E3521500042201,東部高等産業技術学校,山口県周南市瀬戸見町15-1,1,,1,1,1,1,,,1,34.050560754388,131.83558678751,
959,E3521500043201,政所公園,山口県周南市政所2-8-1,,,,1,1,1,,,,34.073006113678,131.76792197372,
960,E3521500044201,政所東公園,山口県周南市政所3-7-6,,,,1,1,1,,,,34.07212181965,131.7719863825,
961,E3521500047201,ゆめタウン新南陽（４階以上駐車場）,山口県周南市清水2-2-1,,,1,1,1,1,,,,34.070792652481,131.77241596337,
962,E3521500045201,清水西公園,山口県周南市清水１－１４１７－２外,,,,1,1,1,,,,34.071054824142,131.76820489522,
963,E3521500046201,清水東公園,山口県周南市清水２－１３８５－４外,,,,1,1,1,,,,34.070730460031,131.77137212815,
964,E3521500048201,今宿市民センター西松原分館,山口県周南市西松原4-4-40,,1,,1,,,,,1,34.065118663356,131.79499890675,
965,E3521500049201,ゆめタウン徳山（３階以上駐車場）,山口県周南市青山町1-18,,,,1,1,1,,,,34.04279,131.815481,
966,E3521500051201,明石集会所,山口県周南市川崎3-11-34,,1,,,1,,,,1,34.070711,131.785091,
967,E3521500052201,川崎公園,山口県周南市川崎3-175-23,,,,1,,1,,,,34.070220127329,131.7819897835,
968,E3521500054201,徳山社会福祉センター,山口県周南市速玉町3-17,1,1,1,1,1,,,,1,34.046111,131.809744,
969,E3521500053201,速玉公園,山口県周南市速玉町２１３２－１５外,,,,1,1,1,,,,34.045288546341,131.81003557741,
970,E3521500055201,代々木公園,山口県周南市代々木通2-24,,,,1,1,1,,,,34.054959351621,131.80325470488,
971,E3521500056201,熊毛北高等学校,山口県周南市大字安田1-2,1,1,1,1,1,1,,,1,34.039760586326,131.97937131764,
972,E3521500057201,熊毛中学校,山口県周南市大字安田1827-1,1,1,1,1,1,1,,,1,34.048195418407,131.96694045767,
973,E3521500058201,熊毛武道館,山口県周南市大字安田1837-2,1,1,1,1,1,,,,1,34.048713408461,131.96563686888,
974,E3521500059201,周南カントリー倶楽部,山口県周南市大字安田355,,,,1,1,1,,,,34.044177,131.965665,
975,E3521500060201,三丘市民センター,山口県周南市大字安田562-2,,1,1,1,1,1,,,1,34.034978,131.981269,
976,E3521500061201,菊川市民センター富岡分館,山口県周南市大字下上1560,1,,1,1,1,1,,,1,34.085274792403,131.7760468632,
977,E3521500062201,菊川市民センター,山口県周南市大字下上2146,1,,1,,1,,,,1,34.093679,131.783807,
978,E3521500063201,菊川小学校,山口県周南市大字下上88,1,1,1,1,1,1,,,1,34.089391755963,131.78413454233,
979,E3521500064201,夏切集会所,山口県周南市大字夏切1140-1,1,,1,,1,,,,1,34.15067826717,131.74041467891,
980,E3521500065201,中村区公会堂,山口県周南市大字夏切221-2,1,,1,,1,,,,1,34.158009283508,131.7430373275,
981,E3521500184201,林集会所,山口県周南市大字夏切672,1,,1,,1,,,,1,34.164524,131.73912,
982,E3521500067201,平井集会所,山口県周南市大字久米1260-4,1,1,1,,1,,,,1,34.028507253924,131.83820389416,
983,E3521500068201,東福祉館,山口県周南市大字久米1316-1,,1,1,,1,,,,1,34.032252,131.841614,
984,E3521500069201,久米市民センター,山口県周南市大字久米2812-1,1,1,1,1,1,,,,1,34.041070335459,131.84587572024,
985,E3521500070201,久米小学校,山口県周南市大字久米3417,1,1,1,1,1,1,,,1,34.041295404829,131.84489621954,
986,E3521500071201,太華中学校,山口県周南市大字久米4117-4,1,1,1,1,1,1,,,1,34.033047638374,131.83144839062,
987,E3521500072201,鼓ヶ浦整肢学園,山口県周南市大字久米752-4,1,,1,,1,,,,1,34.037966211007,131.84935429253,
988,E3521500073201,高田公園,山口県周南市大字久米字興徳寺１０９５－２外,,,,1,1,1,,,,34.031283632631,131.84235058778,
989,E3521500074201,田中公園,山口県周南市大字久米字迫明3111-3,,,,1,1,1,,,,34.030551059575,131.83423464024,
990,E3521500075201,金峰杣の里交流館,山口県周南市大字金峰3964,1,,1,1,1,,,,1,34.188171640525,131.8685363526,
991,E3521500076201,櫛浜市民センター,山口県周南市大字櫛ケ浜458,1,1,,1,1,1,,,1,34.024283992592,131.83078443187,
992,E3521500077201,徳山モーターボート競走場（駐車場）,山口県周南市大字栗屋1033,,,,1,,1,,,,34.011739981714,131.83661108599,
993,E3521500078201,徳山総合支援学校,山口県周南市大字栗屋267-1,1,1,1,,1,1,,,1,34.020209763369,131.82284870304,
994,E3521500079201,櫛浜小学校,山口県周南市大字栗屋860,1,1,,1,,1,,,1,34.021363898908,131.83152151582,
995,E3521500080201,二葉屋開作公園,山口県周南市大字栗屋字二葉屋開作１０３５－７外,,,,1,,1,,,,34.013640576594,131.83517818675,
996,E3521500081201,高水会館,山口県周南市大字原1-5,1,1,1,,1,,,,1,34.055487,131.974938,
997,E3521500082201,勝間市民センター,山口県周南市大字呼坂1193-1,1,1,1,1,1,,,,1,34.042905,131.954673,
998,E3521500083201,熊毛体育センター,山口県周南市大字呼坂9-71,1,1,1,1,1,,,,1,34.052996788628,131.96440761178,
999,E3521500084201,和泉産業㈱周南バイオマスセンター,山口県周南市大字戸田,1,1,1,1,1,1,,,,34.068261,131.670831,
1000,E3521500085201,戸田小学校,山口県周南市大字戸田2527-2,1,1,1,1,1,1,,,1,34.078100862193,131.68804197421,
1001,E3521500086201,道の駅ソレーネ周南,山口県周南市大字戸田2713,,1,1,1,1,1,,,,34.074443181735,131.68787732628,
1002,E3521500087201,戸田市民センター,山口県周南市大字戸田2845-2,1,,1,1,1,,,,1,34.077859,131.687256,
1003,E3521500088201,桜田中学校,山口県周南市大字戸田2960,1,,1,1,1,1,,,1,34.079176320928,131.68675625397,
1004,E3521500089201,西迫下集会所,山口県周南市大字高瀬1026,1,,1,,1,,,,1,34.1763151538,131.754118527,
1005,E3521500090201,大原公会堂,山口県周南市大字高瀬627-1,1,,1,,1,,,,1,34.164836083269,131.75193401243,
1006,E3521500091201,高瀬集会所,山口県周南市大字高瀬690-3,1,1,1,1,1,,,,1,34.169046338559,131.75316109535,
1007,E3521500092201,四熊市民センター,山口県周南市大字四熊1417,1,1,1,1,1,,,,1,34.112665,131.767624,
1008,E3521500093201,四熊小学校,山口県周南市大字四熊1547,1,,1,1,1,1,,,1,34.11204,131.76522603439,
1009,E3521500095201,旧渋川小学校,山口県周南市大字鹿野上1084,1,,1,1,1,1,,,1,34.248529,131.847523,
1010,E3521500096201,鹿野総合体育館,山口県周南市大字鹿野上3028-1,1,1,1,1,1,,,,1,34.227737,131.814393,
1011,E3521500097201,鹿野小学校,山口県周南市大字鹿野上3054,1,1,1,1,1,1,,,1,34.227742442054,131.8158577877,
1012,E3521500098201,鹿野総合支所,山口県周南市大字鹿野上3277,1,1,1,,1,,,,1,34.231961,131.817221,
1013,E3521500099201,コアプラザかの,山口県周南市大字鹿野上910,1,1,1,1,1,,,,1,34.22640406681,131.81394536441,
1014,E3521500100201,ケアハウス三丘,山口県周南市大字小松原1234-3,1,,1,1,1,1,,,,34.035213,131.992877,
1015,E3521500101201,三丘小学校,山口県周南市大字小松原1242,1,,1,1,1,1,,,1,34.035412536507,131.99137313492,
1016,E3521500102201,東善寺やすらぎの里,山口県周南市大字小松原1706-1,1,,1,1,1,,,,1,34.032435994406,131.99400779007,
1017,E3521500103201,小畑市民センター,山口県周南市大字小畑190,1,,1,1,1,,,,1,34.089628,131.755779,
1018,E3521500103202,小畑小学校,山口県周南市大字小畑190,1,,1,1,1,1,,,1,34.089732901802,131.75631356812,
1019,E3521500104201,菊川中学校,山口県周南市大字上村685,1,,1,1,1,1,,,1,34.096014943299,131.78959203306,
1020,E3521500105201,菊川市民センター加見分館,山口県周南市大字上村703-1,1,1,1,1,1,1,,,1,34.095287,131.789096,
1021,E3521500106201,久米小学校譲羽分校,山口県周南市大字譲羽559-1,1,,1,1,1,1,,,1,34.068343019569,131.86076335582,
1022,E3521500108201,須々万中学校,山口県周南市大字須々万本郷362-5,1,1,1,1,1,1,,,1,34.113534266649,131.86585459572,
1023,E3521500109201,須々万市民センター,山口県周南市大字須々万本郷478-2,1,1,1,,1,,,,1,34.122514,131.869015,
1024,E3521500110201,須々万市民センター別館,山口県周南市大字須々万本郷480-11,1,1,1,1,1,,,,1,34.122183,131.869107,
1025,E3521500111201,沼城小学校,山口県周南市大字須々万本郷514,1,1,1,1,1,1,,,1,34.121204843013,131.86768790674,
1026,E3521500112201,須金市民センター,山口県周南市大字須万2427-2,1,1,1,1,1,,,,1,34.1992163884,131.923583979,
1027,E3521500113201,須磨小学校,山口県周南市大字須万2581,1,1,1,1,1,1,,,1,34.200491395919,131.92209878902,
1028,E3521500114201,仁保津公民館,山口県周南市大字巣山1410,1,,1,,1,,,,1,34.208838,131.7804,
1029,E3521500115201,大河内小学校,山口県周南市大字大河内1115-1,1,1,1,1,1,1,,,1,34.026688908365,131.94077781349,
1030,E3521500116201,大河内市民センター,山口県周南市大字大河内1638-23,1,1,1,1,1,,,,1,34.028145,131.941161,
1031,E3521500117201,大向小学校,山口県周南市大字大向1652-1,1,1,1,1,1,1,,,1,34.181185825884,131.81839282724,
1032,E3521500118201,大向市民センター,山口県周南市大字大向1653-1,1,,1,,1,,,,1,34.180982,131.818844,
1033,E3521500119201,向道湖ふれあいの家,山口県周南市大字大向826-1,1,1,1,1,1,,,,1,34.180801,131.820025,
1034,E3521500120201,大潮田舎の店,山口県周南市大字大潮1386-6,1,,1,1,1,,,,1,34.282577675241,131.78991412561,
1035,E3521500121201,大津島支所,山口県周南市大字大津島1361-4,1,,1,,1,,,,1,34.017733,131.710389,
1036,E3521500122201,回天記念館,山口県周南市大字大津島1960,,,1,1,1,,,,,33.993332366991,131.71742190678,
1037,E3521500123201,大津島小学校,山口県周南市大字大津島1964-1,1,,,1,,1,,,1,33.991585357775,131.71830623677,
1038,E3521500124201,（旧）馬島公民館,山口県周南市大字大津島2042,1,1,,1,,,,,1,33.989636,131.722545,
1039,E3521500125201,大津島海の郷,山口県周南市大字大津島217-1,1,,,1,,1,,,1,34.006610366705,131.70386121306,
1040,E3521500126201,大島市民センター,山口県周南市大字大島1601,1,1,1,1,1,,,,1,33.987997,131.790064,
1041,E3521500127201,鼓南地区総合運動場,山口県周南市大字大島1685,,,,1,1,1,,,,33.988401376027,131.79004941204,
1042,E3521500128201,鼓南中学校,山口県周南市大字大島880,1,1,1,1,1,1,,,1,33.984199167575,131.77702528035,
1043,E3521500129202,大道理地区体育館,山口県周南市大字大道理1332,1,1,1,1,1,1,,,1,34.141473549939,131.80773338152,
1044,E3521500129201,大道理市民センター,山口県周南市大字大道理1332,1,1,1,1,1,1,,,1,34.141401,131.807179,
1045,E3521500130201,中須中学校,山口県周南市大字中須南2281,1,,1,1,1,1,,,1,34.115609266139,131.91727758532,
1046,E3521500131201,中須市民センター,山口県周南市大字中須南2557-1,1,1,1,1,1,,,,1,34.113861,131.916932,
1047,E3521500132201,中須小学校,山口県周南市大字中須南2583,1,,1,1,1,1,,,1,34.114519024336,131.91845153373,
1048,E3521500133201,大田原自然の家,山口県周南市大字中須北3194,1,,1,,1,,,,1,34.153254,131.932521,
1049,E3521500134201,サンウィング熊毛,山口県周南市大字中村803-2,1,1,1,1,1,,,,1,34.03747107946,131.95036474149,
1050,E3521500135202,長穂地区体育館,山口県周南市大字長穂1691,1,1,1,1,1,1,,,1,34.133087485546,131.83768028703,
1051,E3521500135201,長穂市民センター,山口県周南市大字長穂1691,1,1,1,1,1,1,,,1,34.133205,131.838267,
1052,E3521500136201,湯野小学校,山口県周南市大字湯野3843,1,1,1,1,1,1,,,1,34.099445664066,131.67791535582,
1053,E3521500137201,湯野市民センター,山口県周南市大字湯野4230-1,,1,1,1,1,,,,1,34.09341,131.676789,
1054,E3521500138201,ゼオンアリーナ周南,山口県周南市大字徳山10427,1,1,1,1,1,1,,,1,34.039937,131.831651,
1055,E3521500139201,岐陽中学校,山口県周南市大字徳山4915,1,1,1,1,1,1,,,1,34.0542926106,131.81490453244,
1056,E3521500140201,桜ヶ丘高等学校,山口県周南市大字徳山5626-1,1,1,1,1,1,1,,,1,34.06129083066,131.81714265835,
1057,E3521500141201,岐山市民センター,山口県周南市大字徳山5649,1,1,1,,1,,,,1,34.060462106207,131.81875336442,
1058,E3521500142201,岐山小学校,山口県周南市大字徳山5673,1,1,1,1,1,1,,,1,34.059558410583,131.81767726536,
1059,E3521500143201,文化会館,山口県周南市大字徳山5854-41,1,1,1,1,1,,,,1,34.0614946088,131.813244319,
1060,E3521500144201,御山集会所,山口県周南市大字徳山7873-4,1,,1,,1,,,,1,34.06694262307,131.80036555549,
1061,E3521500145201,周南緑地,山口県周南市大字徳山字遠石外,,,,1,1,1,,,,34.04109081201,131.83257294178,
1062,E3521500146201,徳山公園,山口県周南市大字徳山字金剛山１０１１－１外,,,,1,1,1,,,,34.061490352957,131.81516241768,
1063,E3521500147201,徳山駅南北自由通路　南口エスカレータ棟（２階）を含む,山口県周南市大字徳山字佐渡町南浦地内,1,1,1,1,1,,,,,34.051007365472,131.80293453216,
1064,E3521500148201,矢地峠集会所,山口県周南市大字馬神1409-1,1,,1,,1,,,,1,34.116095696418,131.71229401765,
1065,E3521500149201,打木野集会所,山口県周南市大字馬神788-1,1,,1,,1,,,,1,34.125133000899,131.71289260734,
1066,E3521500150201,馬神集会所,山口県周南市大字馬神833-12,1,,1,1,1,,,,1,34.125691141104,131.71815936222,
1067,E3521500151201,鶴いこいの里交流センター,山口県周南市大字八代826-8,1,1,1,1,1,,,,1,34.086339,131.938798,
1068,E3521500152201,高水小学校,山口県周南市大字樋口288-1,1,1,1,1,1,1,,,1,34.060867791488,131.97817012765,
1069,E3521500153201,高水市民センター,山口県周南市大字樋口491,1,1,1,1,1,,,,1,34.058334,131.977394,
1070,E3521500155201,ＴＯＳＯＨ　ＰＡＲＫ永源山（永源山公園）,山口県周南市大字富田2355-2,,,,1,1,1,,,,34.076832379778,131.76635001568,
1071,E3521500154201,富田中学校,山口県周南市大字富田2703-1,1,1,,1,1,1,,,1,34.07275861704,131.76174611772,
1072,E3521500156201,新南陽斎場,山口県周南市大字米光2185,1,,1,1,1,,,,1,34.109091160984,131.7382360776,
1073,E3521500157201,和田老人憩の家・老人作業所,山口県周南市大字米光836-5,1,1,1,,1,,,,1,34.136964432391,131.72841256743,
1074,E3521500158201,平木集会所,山口県周南市大字米光平木,1,,1,,1,,,,1,34.131865274827,131.72097563416,
1075,E3521500159201,夜市市民センター,山口県周南市大字夜市660-1,1,1,1,1,1,,,,1,34.08229997387,131.71408764418,
1076,E3521500160201,夜市小学校,山口県周南市大字夜市730,1,1,1,1,1,1,,,1,34.082542491255,131.71546781216,
1077,E3521500161201,和田市民センター,山口県周南市大字垰166,1,,1,,1,,,,1,34.149624968277,131.7359670088,
1078,E3521500162201,和田小学校,山口県周南市大字垰212-1,,,1,1,1,1,,,1,34.149213904365,131.73599849206,
1079,E3521500163201,粭島市民センター,山口県周南市大字粭島227,1,1,,,,,,,1,33.982396067942,131.76026759954,
1080,E3521500164201,旧粭島小学校,山口県周南市大字粭島314-1,1,,,1,,1,,,1,33.981873895592,131.76282027976,
1081,E3521500165201,ほのぼの会館,山口県周南市大神2-7-24,1,,1,1,1,,,,1,34.081038658345,131.76507145767,
1082,E3521500166201,晴海公園,山口県周南市築港町113,,,,1,,1,,,,34.047661995558,131.80225683735,
1083,E3521500167202,学び・交流プラザ,山口県周南市中央町4-10,1,1,,1,1,1,,,1,34.071116,131.764616,
1084,E3521500167201,中央公園,山口県周南市中央町4-10,,,,1,1,,,,1,34.070669326443,131.76475640379,
1085,E3521500169201,福川南小学校,山口県周南市中畷町6-1,1,1,1,1,1,1,,,1,34.071403822178,131.72720733002,
1086,E3521500182202,みなみ会館,山口県周南市中畷町6-5,1,1,,1,1,1,,,1,34.071904,131.728243,
1087,E3521500168201,福川南公園,山口県周南市中畷町２３５３－７１外,,,,1,1,1,,,,34.073194987311,131.72757145635,
1088,E3521500170201,長田公園,山口県周南市長田町18,,,,1,1,1,,,,34.062250876384,131.72457041464,
1089,E3521500171201,福川地区総合グラウンド,山口県周南市長田町27-1,,,,1,1,1,,,,34.059402954737,131.72131451723,
1090,E3521500172201,東辻公園,山口県周南市辻町93,,,,1,1,1,,,,34.056794271911,131.8172642971,
1091,E3521500173201,新南陽高等学校,山口県周南市土井1-8-1,1,1,1,1,1,1,,,1,34.078869170956,131.77013706083,
1092,E3521500174201,金剛山公園,山口県周南市東北山１－６８３０－２外,,,,1,1,1,,,,34.067957716207,131.80858741958,
1093,E3521500175201,秋月市民センター,山口県周南市楠木2-1-25,1,1,1,,1,,,,1,34.055031,131.825656,
1094,E3521500176201,中央地区市民センター,山口県周南市飯島町1-13,1,1,1,1,1,,,,1,34.051921141081,131.80949760601,
1095,E3521500177201,青空公園,山口県周南市飯島町2-29,,,,1,1,1,,,,34.049509551377,131.80746316469,
1096,E3521500178201,富田西小学校,山口県周南市富田2-14-1,1,,1,1,1,1,,,1,34.074354867819,131.75340616931,
1097,E3521500179201,福川小学校,山口県周南市福川3-2-1,1,,1,1,1,1,,,1,34.075593116862,131.73609816985,
1098,E3521500180201,新南陽ふれあいセンター,山口県周南市福川南町2-1,1,1,,1,1,,,,1,34.0712929991,131.737807,
1099,E3521500181201,徳山小学校,山口県周南市毛利町1-1,1,1,1,1,1,1,,,1,34.053888442002,131.80883243187,
1100,E3521500185201,緑町公園,山口県周南市緑町3-45,,,,1,1,1,,,,34.060268242727,131.8030351773,
1101,E3530500001201,旧油田小学校グラウンド,山口県周防大島町大字伊保田1195,1,,1,1,1,1,1,,1,33.9391305,132.4388281,
1102,E3530500008201,沖浦小学校グラウンド,山口県周防大島町大字横見346-1,1,,1,1,1,1,1,,1,33.89093323,132.1910171,
1103,E3530500028201,防災公園,山口県周防大島町大字久賀5066-5,1,1,,1,1,1,1,,,33.94669438,132.2616482,
1104,E3530500037201,秋老人憩の家前,山口県周防大島町大字秋462-1,1,,,1,1,1,1,,1,33.88167277,132.2526221,
1105,E3530500040201,大島商船高等専門学校グラウンド,山口県周防大島町大字小松1091-1,,1,,1,,1,,,1,33.93615234,132.1914047,
1106,E3530500046201,明新小学校グラウンド,山口県周防大島町大字小松開作121-1,,1,,1,,1,,,1,33.92871243,132.1904457,
1107,E3530500048201,小泊農村公園,山口県周防大島町大字小泊122,1,1,1,1,1,1,1,,,33.91932287,132.3914403,
1108,E3530500060201,橘ウインドパークグラウンド,山口県周防大島町大字西安下庄3927-14,1,1,,1,1,1,1,,1,33.89114574,132.2703975,
1109,E3530500061201,安下庄小学校グラウンド,山口県周防大島町大字西安下庄418,1,,1,1,1,1,1,,1,33.89903333,132.2753405,
1110,E3530500063201,周防大島高等学校（安下庄校舎）グラウンド,山口県周防大島町大字西安下庄489,1,,,1,,1,1,,1,33.89802289,132.2791194,
1111,E3530500065201,旧安下庄中学校グラウンド,山口県周防大島町大字西安下庄562,1,,1,1,1,1,1,,1,33.89833873,132.2733127,
1112,E3530500068201,旧屋代小学校グラウンド,山口県周防大島町大字西屋代1619,1,1,1,1,1,1,1,,1,33.91920593,132.2055418,
1113,E3530500069201,大島中学校グラウンド,山口県周防大島町大字西屋代2598,,1,1,1,,1,,,1,33.92430496,132.1981251,
1114,E3530500075201,東和グラウンド,山口県周防大島町大字西方1575-1,1,,,1,1,1,1,,,33.89958391,132.3381096,
1115,E3530500078201,東和中学校グラウンド,山口県周防大島町大字西方2048-1,1,,,1,,1,1,,1,33.90204319,132.3422186,
1116,E3530500085201,島中小学校グラウンド,山口県周防大島町大字土居1300-4,1,1,,1,,1,1,,1,33.91715257,132.3045413,
1117,E3530500087201,日良居グラウンド,山口県周防大島町大字土居1403-1,1,,,1,,1,1,,,33.91682162,132.303303,
1118,E3530500098201,鹿家区民館前,山口県周防大島町大字東安下庄458-2,1,,1,1,,1,1,,1,33.8960453,132.3048378,
1119,E3530500092201,古城港湾用地,山口県周防大島町大字東安下庄１８６２－２１６外,1,1,,1,,1,1,,,33.9004623,132.2834713,
1120,E3530500097201,原漁港用地,山口県周防大島町大字東安下庄３０１８－５外,1,1,,1,,1,1,,,33.90189879,132.288002,
1121,E3530500102201,三蒲小学校グラウンド,山口県周防大島町大字東三蒲1106-1,1,,1,1,1,1,1,,1,33.94527744,132.2150169,
1122,E3530500106201,内入農村公園,山口県周防大島町大字内入505,1,,1,1,1,1,1,,,33.92424612,132.3954958,
1123,E3530500110201,森ノ下池跡,山口県周防大島町大字日前1755,1,,1,1,1,1,1,,,33.91876548,132.2964079,
1124,E3530500119201,浮島小学校グラウンド,山口県周防大島町大字浮島205-1,1,,,1,,1,1,,1,33.95306883,132.3395943,
1125,E3530500121201,江ノ浦漁港用地,山口県周防大島町大字浮島285-7,1,,,1,,1,1,,,33.945202973696,132.3497424815,
1126,E3530500123201,樽見漁港用地,山口県周防大島町大字浮島495-1,1,1,,1,,1,1,,,33.96059027,132.3503004,
1127,E3530500126201,サン・スポーツランドグラウンド,山口県周防大島町大字平野1212-1,1,,1,1,1,1,1,,,33.89816568,132.3607781,
1128,E3530500124201,片添ケ浜海浜公園,山口県周防大島町大字平野１１６０－１外,1,,1,1,1,1,1,,,33.89609306,132.36064,
1129,E3530500129201,旧椋野小学校グラウンド,山口県周防大島町大字椋野1328-1,1,1,1,1,1,1,1,,1,33.9559609,132.2316055,
1130,E3530500131201,長浦スポーツ海浜スクエアグラウンド,山口県周防大島町大字椋野150,1,1,1,1,1,1,1,,,33.96193906,132.2343383,
1131,E3530500135201,たちばな園グラウンド,山口県周防大島町大字油良1020,1,1,1,1,1,1,1,,1,33.9016764,132.3222155,
1132,E3530500139201,旧開導小学校グラウンド,山口県周防大島町大字和佐344,1,,1,1,1,1,1,,,33.91688952,132.3792189,
1133,E3530500140201,旧和田小学校グラウンド,山口県周防大島町大字和田1403-1,1,,,1,1,1,1,,1,33.92788566,132.4030477,
1134,E3534100001201,白浜集会所（白浜分館）,山口県上関町室津1187,1,1,1,1,1,,1,,,33.834830577163,132.1222697049,
1135,E3534100002201,練尾小規模老人憩いの家,山口県上関町室津1458,1,,1,,1,,1,,1,33.837668938923,132.13215195221,
1136,E3534100003201,いこいの家大津千葉館,山口県上関町室津1623-5,1,,1,1,1,,1,,1,33.837726864111,132.14465641062,
1137,E3534100004201,四季の里志田,山口県上関町室津19-7,1,,1,1,1,,1,,,33.856807,132.119663,
1138,E3534100006202,上関町民体育館,山口県上関町室津342-1,1,1,1,1,1,,1,,1,33.844527008625,132.11973468947,
1139,E3534100006201,上関町民グラウンド,山口県上関町室津342-1,1,1,1,1,1,1,1,,1,33.845079479858,132.11939136672,
1140,E3534100007201,竹の浦集会所,山口県上関町室津391-1,1,,1,1,1,,1,,,33.840663052773,132.1179164847,
1141,E3534100008201,室津地区集会所,山口県上関町室津798-1,1,1,,,,,1,,,33.835847529073,132.11840345424,
1142,E3534100009201,上関町総合文化センター,山口県上関町室津904-15,1,1,,,,,1,,1,33.834105108934,132.11679916797,
1143,E3534100010201,上関海峡温泉,山口県上関町室津924,1,1,1,1,1,,1,,,33.832622101737,132.11717475202,
1144,E3534100012201,祝島支所（祝島地区館）,山口県上関町祝島184-4,1,1,,,,,1,,,33.787243,131.989864,
1145,E3534100013201,祝島小規模老人憩いの家,山口県上関町祝島215-1,1,1,,1,,,1,,,33.786856173617,131.99036243038,
1146,E3534100014201,祝島小・中学校屋内体育館,山口県上関町祝島3,1,1,1,1,1,,1,,1,33.784867689618,131.98830249385,
1147,E3534100014202,祝島小・中学校グラウンド,山口県上関町祝島3,1,1,1,1,1,1,1,,1,33.784528840206,131.98878529148,
1148,E3534100016201,蒲井小規模老人憩いの家（蒲井分館）,山口県上関町長島1490,1,1,1,1,1,,1,,,33.815264123155,132.07754527209,
1149,E3534100018201,高齢者保健福祉施設,山口県上関町長島1561-1,1,1,1,1,1,,1,,1,33.815284478499,132.07323624694,
1150,E3534100019201,ほのぼの活性化センター,山口県上関町長島180-19,1,,,1,1,,1,,,33.833956472147,132.10560614201,
1151,E3534100020201,旧四代診療所,山口県上関町長島2179-2,1,1,1,,1,,1,,,33.792664387606,132.05452118992,
1152,E3534100021201,ひなの里よりあい館,山口県上関町長島2179-4,1,1,,1,,,1,,,33.793140801985,132.05549708673,
1153,E3534100022202,上関小学校グラウンド,山口県上関町長島250,1,1,1,1,1,1,1,,1,33.832116860948,132.10649591147,
1154,E3534100022201,上関小学校（屋内運動場）,山口県上関町長島250,1,1,1,1,1,1,1,,1,33.8324283295989,132.107541595642,
1155,E3534100023201,上関中学校（グラウンド）,山口県上関町長島280,1,1,1,1,1,1,1,,,33.833640824874,132.10769754112,
1156,E3534100024201,旧白井田小学校グラウンド,山口県上関町長島3780,1,1,1,1,1,1,1,,,33.818263599859,132.06964348434,
1157,E3534100025201,白井田文化福祉センター（白井田分館）,山口県上関町長島3926,1,1,,1,,,1,,1,33.820630845391,132.06861896765,
1158,E3534100026201,旧上関小学校グラウンド,山口県上関町長島448,1,1,1,1,1,1,1,,,33.831441332005,132.10983906864,
1159,E3534100027201,戸津つどい館,山口県上関町長島4723-1,1,,,1,,,1,,,33.843948717058,132.0933756697,
1160,E3534100028201,上関小規模老人憩いの家（東集会所）,山口県上関町長島583-19,1,1,,1,,,1,,,33.830611305736,132.11257950348,
1161,E3534100029201,旧熊毛南高校上関分校グラウンド,山口県上関町長島629,1,1,1,1,1,1,1,,,33.829725712516,132.11414669631,
1162,E3534100030201,惣津ふれあい館,山口県上関町長島706-1,1,,1,1,1,,1,,,33.83069270228,132.10996245026,
1163,E3534100031201,四代文化福祉館（四代分館）,山口県上関町長島第2092,1,1,1,,1,,1,,1,33.793342020699,132.0551702845,
