NO,共通ID,施設・場所名,住所,指定緊急避難場所との住所同一,その他市町村長が必要と認める事項,受入対象者,緯度,経度,備考
1,E3938600001111,伊野中学校,高知県いの町1152,1,,,33.545147278786,133.43024266898,
2,E3938600002111,すこやかセンター伊野,高知県いの町1400,1,,,33.546871493553,133.43189291847,
3,E3938600002121,特別養護老人ホーム偕楽荘,高知県いの町1400,1,,高齢者（要介護認定者）,33.546518292638,133.43181960432,
4,E3938600003111,駅南老人里の家,高知県いの町1407,,,,33.546315034387,133.43131532904,
5,E3938600004121,介護老人保健施設仁淀清流苑,高知県いの町1482-2,,,高齢者（要介護認定者）,33.547688622054,133.43285363478,
6,E3938600005111,是友防災備蓄倉庫,高知県いの町158-2,1,,,33.548018,133.443321,
7,E3938600006111,駅前町集会所,高知県いの町1648,,,,33.549204923625,133.43191253409,
8,E3938600008111,新町集会所,高知県いの町1713-5,,,,33.548872428768,133.42872498097,
9,E3938600010111,枝川南高齢者生きがいセンター,高知県いの町23-1,,,,33.550186762025,133.44694992539,
10,E3938600011111,谷老人里の家,高知県いの町2960-1,,,,33.553673559583,133.4164768086,
11,E3938600012111,いの町商工会,高知県いの町3165-1,,,,33.549137723649,133.42256515457,
12,E3938600013111,伊野商業高等学校,高知県いの町332-1,,,,33.55145960216,133.44483533068,
13,E3938600014111,伊野体育館,高知県いの町3596,,,,33.548700422219,133.42565542093,
14,E3938600015111,伊野公民館,高知県いの町3597,1,,,33.54876567214,133.42605969279,
15,E3938600019111,天神集会所,高知県いの町4126-2,,,,33.543133536698,133.42794444257,
16,E3938600020111,音竹老人憩の家,高知県いの町5217,,,,33.539764333413,133.43382006519,
17,E3938600021112,２０－３区集会所（ウェルネス伊野）,高知県いの町6032-2,,,,33.54380082,133.43086612,
18,E3938600022121,ウェルネス伊野（南棟）,高知県いの町6032-3,,,高齢者（要介護認定者）,33.543566,133.430913,
19,E3938600023111,是友公民館,高知県いの町6479-1,,,,33.546646374633,133.4447690035,
20,E3938600025111,北山・駅東集会所,高知県いの町駅東町57,,,,33.549487284215,133.43529327746,
21,E3938600026111,越裏門公民館,高知県いの町越裏門246-6,,,,33.728828948722,133.23439939551,
22,E3938600027111,越裏門小学校,高知県いの町越裏門340-8,1,,,33.730801113616,133.23309931208,
23,E3938600028111,下八川公民館,高知県いの町下八川乙408-2,,,,33.608115,133.297645,
24,E3938600126111,十田集会所,高知県いの町下八川十田1599,,,,33.61455681,133.27635954,
25,E3938600029111,下八川小学校体育館,高知県いの町下八川丁3800,1,,,33.606188761944,133.297141552,
26,E3938600032111,加田老人憩の家,高知県いの町加田300,,,,33.548918923496,133.39817056144,
27,E3938600034111,加茂老人憩の家,高知県いの町加茂町56,,,,33.550991368217,133.42497305213,
28,E3938600035111,葛原集会所,高知県いの町葛原10-1,,,,33.77496,133.325518,
29,E3938600036111,川内小学校,高知県いの町鎌田216,1,,,33.542640264662,133.4187875791,
30,E3938600037111,出合研修館,高知県いの町桑瀬225-4,,,,33.77944451512,133.30839345091,
31,E3938600038111,いの町立図書館,高知県いの町元町41,,,,33.5492309991,133.424992,
32,E3938600039111,戸中集会所,高知県いの町戸中100-7,,,,33.732614597701,133.33434740698,
33,E3938600040111,グリーンワーカー研修館,高知県いの町戸中74-14,,,,33.733896450341,133.33234268937,
34,E3938600042111,高薮二区集会所,高知県いの町高薮224-3,,,,33.78357,133.350691,
35,E3938600043111,高薮一区集会所,高知県いの町高薮7-2,,,,33.791274011797,133.35302870768,
36,E3938600045111,東浦老人憩の家（東浦公民館）,高知県いの町枝川1945-1,,,,33.55098273632,133.46298467472,
37,E3938600046111,中山公民館,高知県いの町枝川233-21,,,,33.553276311191,133.45163564684,
38,E3938600047111,枝川コミュニティセンター,高知県いの町枝川2462,,,,33.552755736386,133.45668410602,
39,E3938600049111,枝川北高齢者生きがいセンター,高知県いの町枝川2895-6,,,,33.556248282746,133.45709091059,
40,E3938600050111,枝川小学校,高知県いの町枝川2964-1,1,,,33.554273437393,133.45901957513,
41,E3938600051111,八代地区多目的構造改善センター,高知県いの町枝川3254,,,,33.559883571443,133.46370570929,
42,E3938600055111,北浦集会所（北浦公民館）,高知県いの町枝川664,,,,33.553713,133.452917,
43,E3938600056111,寺川老人憩の家,高知県いの町寺川36,,,,33.751193,133.210696,
44,E3938600057111,道の駅　土佐和紙工芸村,高知県いの町鹿敷1226,1,,,33.57358842946,133.36697739584,
45,E3938600059111,とさ自由学校体育館,高知県いの町勝賀瀬4387,1,,,33.58603274,133.36432131,
46,E3938600062111,小川公民館,高知県いの町小川新別946-1,,,,33.62934,133.277668,
47,E3938600063111,吾北小学校体育館,高知県いの町小川西津賀才553,1,,,33.630963686536,133.28385491739,
48,E3938600064111,清雲寺,高知県いの町小川東津賀才191,,,,33.628169124051,133.30302918399,
49,E3938600065111,柳野公民館,高知県いの町小川柳野850-1,,,,33.623225,133.242381,
50,E3938600066111,東谷公民館,高知県いの町小川樅ノ木山22-2,,,,33.657912497908,133.27861787165,
51,E3938600067111,妙見集会所,高知県いの町小川樅ノ木山4732-6,,,,33.652773416519,133.25798277746,
52,E3938600068111,小野公民館,高知県いの町小野1087-1,,,,33.569754443796,133.39093924011,
53,E3938600069111,吾北中央公民館,高知県いの町上八川甲2010,,,,33.645686434123,133.34158752195,
54,E3938600127111,高知追手前高校吾北分校体育館,高知県いの町上八川甲2075-1,,,,33.64643466,133.34297146,
55,E3938600071111,吾北体育館,高知県いの町上八川甲3105,,,,33.647651254915,133.34201456367,
56,E3938600072111,三水防災コミュニティ,高知県いの町上八川甲7274-1,,,,33.673602,133.319602,
57,E3938600128111,旧中央小学校,高知県いの町上八川丙115,,,,33.6557311,133.37901142,
58,E3938600075111,上東小学校,高知県いの町上八川丙4904,,,,33.67112221501,133.41460280089,
59,E3938600076111,毛田老人里の家,高知県いの町神谷2012,,,,33.559635,133.392303,
60,E3938600077111,神谷小・中学校,高知県いの町神谷694,1,,,33.553697260817,133.38638209625,
61,E3938600078111,保木集会所,高知県いの町神谷739,,,,33.553063528067,133.38766694598,
62,E3938600079111,土佐七色の里,高知県いの町成山911-1,,,,33.574722014715,133.40806928848,
63,E3938600080111,清水公民館,高知県いの町清水下分1000,1,,,33.677256003005,133.33905300687,
64,E3938600081111,清水第二小学校,高知県いの町清水上分2106,,,,33.689521132891,133.3818013799,
65,E3938600082111,清水第一小学校,高知県いの町清水上分2327-3,1,,,33.684039,133.340271,
66,E3938600084111,大森集会所,高知県いの町大森170-2,,,,33.709261018018,133.30822403062,
67,E3938600085111,高知県消防学校,高知県いの町大内2030,,,,33.534913574168,133.4153608519,
68,E3938600087111,南の谷コミュニティセンター,高知県いの町大内2437-1,,,,33.527360889912,133.42433194212,
69,E3938600089111,大内農村婦人の家,高知県いの町大内637-1,1,,,33.532863288143,133.42716591965,
70,E3938600090111,池ノ内コミュニティセンター,高知県いの町池ノ内1027-3,,,,33.53903427376,133.44835879712,
71,E3938600091111,肩抜公民館,高知県いの町池ノ内326-3,,,,33.537001012099,133.45371629007,
72,E3938600139111,中追西共同館,高知県いの町中追2188,1,,,33.6180188360235,133.372545882218,
73,E3938600093111,中追東農業共同館,高知県いの町中追442,1,,,33.606618,133.383442,
74,E3938600094111,中野川集会所,高知県いの町中野川228-2,,,,33.767604949174,133.28910888839,
75,E3938600095111,本川プラチナ交流センター,高知県いの町長沢123-8,,,,33.725680989477,133.30701180049,
76,E3938600096111,本川中学校体育館,高知県いの町長沢17-2,,,,33.726852648419,133.30622664283,
77,E3938600098121,本川保健福祉センター,高知県いの町長沢254-10,,,,33.724117470741,133.30786791867,
78,E3938600099111,本川基幹集落センター,高知県いの町長沢34-6,,,,33.727618832534,133.30466445399,
79,E3938600101111,天王コミュニティセンター,高知県いの町天王南5-2-9,1,,,33.530981389621,133.44887886299,
80,E3938600103111,高知県立高知青少年の家,高知県いの町天王北1-14,,,,33.528738268071,133.44228666071,
81,E3938600105111,楠瀬集会所,高知県いの町楠瀬1157,,,,33.561479,133.352866,
82,E3938600106111,三瀬中学校,高知県いの町楠瀬54,,,,33.563349897727,133.35504507883,
83,E3938600107111,亀の井ホテル高知,高知県いの町波川1569,1,,,33.544776045326,133.41839511137,
84,E3938600108111,高知県農業大学校,高知県いの町波川234,1,,,33.542538100271,133.40905902982,
85,E3938600109111,波川公民館,高知県いの町波川606-2,,,,33.546248982865,133.41185956265,
86,E3938600111111,高知県立青少年体育館,高知県いの町八田1767,,,,33.52800474574,133.44259784718,
87,E3938600112111,伊野南中学校,高知県いの町八田2300,1,,,33.531602487372,133.44092551951,
88,E3938600113111,伊野南小学校,高知県いの町八田2321,1,,,33.530670391604,133.43791287339,
89,E3938600115111,八田コミュニティセンター,高知県いの町八田360,,,,33.519667678896,133.43646724399,
90,E3938600116111,奈呂集会所,高知県いの町八田奈呂1487,,,,33.519627387422,133.44580375042,
91,E3938600117111,槇老人里の家,高知県いの町槙582-4,,,,33.566064730503,133.43216246,
92,E3938600118111,出来地小学校,高知県いの町柳瀬上分357,,,,33.581838027109,133.3101946488,
93,E3938600119111,出来地集会所,高知県いの町柳瀬上分397-1,,,,33.583469,133.308057,
94,E3938600120111,石見老人里の家,高知県いの町柳瀬石見1209,,,,33.569371,133.328096,
95,E3938600121111,柳瀬小学校,高知県いの町柳瀬本村539,,,,33.561204327425,133.33251714715,
96,E3938600122111,水辺の駅あいの里,高知県いの町柳瀬本村551,1,,,33.56071046,133.3324818,
97,E3938600123111,伊野小学校,高知県いの町柳町12,1,,,33.549830550094,133.42593131928,
98,E3938600124111,本川小学校体育館,高知県いの町脇ノ山228-7,1,,,33.779112341462,133.34652405507,
99,E3938600129111,脇ノ山公民館,高知県いの町脇ノ山264-2,1,,,33.77324626,133.34070584,
100,E3930100044111,野根地区防災避難施設,高知県安芸郡東洋町大字野根丙2003-1,1,,,33.50424,134.268827,
101,E3920300010111,安芸市立伊尾木保育所,高知県安芸市伊尾木818,1,,,33.493134,133.930588,
102,E3920300014111,安芸市立井ノ口保育所,高知県安芸市井ノ口乙72,1,,,33.53213,133.899895,
103,E3920300143111,安芸市立井ノ口小学校,高知県安芸市井ノ口乙92,,,,33.532734,133.898393,
104,E3920300021111,安芸市立井ノ口公民館,高知県安芸市井ノ口甲2556-1,1,,,33.53154,133.897907,
105,E3920300144111,安芸市立穴内小学校,高知県安芸市穴内乙1574,,,,33.510377,133.86016,
106,E3920300036111,安芸市立穴内保育所,高知県安芸市穴内乙1688,1,,,33.509755,133.860525,
107,E3920300051111,安芸市総合運動場多目的体育館（安芸ドーム）,高知県安芸市桜ケ丘町,1,,,33.503609,133.891306,
108,E3920300140111,安芸市立安芸おひさま保育所,高知県安芸市西浜570,1,,,33.510458,133.896134,
109,E3920300074111,安芸市立内原野体育館,高知県安芸市川北乙1606,1,,,33.528664,133.910404,
110,E3920300076111,安芸市立江川公民館,高知県安芸市川北乙587,1,,,33.522312,133.917542,
111,E3920300089111,安芸市立清水ケ丘体育館,高知県安芸市川北甲5552,1,,,33.510136,133.919464,
112,E3920300090111,安芸市立清水ケ丘中学校,高知県安芸市川北甲5685,1,,,33.51213,133.919904,
113,E3920300098111,安芸市立大井公民館,高知県安芸市大井乙146-1,1,,,33.581952,133.98042,
114,E3920300117111,安芸市立東川公民館,高知県安芸市入河内588,1,,,33.555961,133.958683,
115,E3920300118111,安芸市立東川小中学校,高知県安芸市入河内710,1,,,33.557552,133.960073,
116,E3920300119111,安芸市畑山ふるさと交流センター,高知県安芸市畑山乙381,1,,,33.622437,133.924544,
117,E3930400001121,安田町立安田小学校,高知県安田町安田２０９９－イ,,,,33.439808,133.981719,
118,E3930400003111,安田小学校体育館,高知県安田町大字安田1538,1,,,33.439487525057,133.98155730819,
119,E3930400004111,庄田集会所,高知県安田町大字安田2036,1,,,33.441313557946,133.98276314005,
120,E3930400005111,安田町地域ふれあいセンター,高知県安田町大字安田2111-1,1,,,33.438319167215,133.98053806877,
121,E3930400006111,多目的施設,高知県安田町大字安田2168,1,,,33.438390791136,133.98015719509,
122,E3930400007111,不動集会所,高知県安田町大字安田2687-1,1,,,33.431531106667,133.98776679452,
123,E3930400008111,薬師第１集会所,高知県安田町大字安田2752-52,1,,,33.438470119509,133.97550295185,
124,E3930400009111,間下集会所,高知県安田町大字間下414,1,,,33.468643467267,133.99132248425,
125,E3930400010111,小川集会所,高知県安田町大字小川48-2,1,,,33.510450438619,134.01246839142,
126,E3930400011111,瀬切集会所,高知県安田町大字瀬切382-2,1,,,33.523248994637,134.03478683087,
127,E3930400012111,日浦集会所,高知県安田町大字正弘1386,1,,,33.489168093973,134.00164601691,
128,E3930400013121,集落活動センターなかやま,高知県安田町大字正弘1538,,,,33.486042,134.001065,
129,E3930400015111,正弘集会所,高知県安田町大字正弘585-1,1,,,33.480334429716,133.9998534415,
130,E3930400016111,和田集会所,高知県安田町大字正弘60,1,,,33.475598543637,133.99866868906,
131,E3930400014111,旧中山小中学校体育館,高知県安田町大字正弘１５３８－イ,1,,,33.485617671214,134.00123755952,
132,E3930400017111,中山公民館,高知県安田町大字正弘７１６－イ,1,,,33.481845932976,134.00108735567,
133,E3930400018111,西ノ川集会所,高知県安田町大字西ノ川133-1,1,,,33.494541074927,133.99465081591,
134,E3930400019111,安田さくら園,高知県安田町大字西島2-1,1,,,33.442279142931,133.98358420503,
135,E3930400020111,西島老人里の家,高知県安田町大字西島392,1,,,33.446617649555,133.98327383881,
136,E3930400021111,安田町文化センター,高知県安田町大字西島40-2,1,,,33.4431619011,133.98410373908,
137,E3930400022111,安田町高齢者福祉センター,高知県安田町大字西島72-1,1,,,33.443036265619,133.98508890996,
138,E3930400022112,東島老人憩の家,高知県安田町大字西島72-1,1,,,33.449053809688,133.98652972142,
139,E3930400022121,安田町立高齢者福祉センター,高知県安田町大字西島72-1,1,,,33.443037,133.985099,
140,E3930400024111,中ノ川集会所,高知県安田町大字中ノ川558,1,,,33.502256058848,133.998570565,
141,E3930400025111,中里拓心会館,高知県安田町大字中里86,1,,,33.51867323539,134.02277806781,
142,E3930400027111,東谷集会所,高知県安田町大字唐浜1131,1,,,33.445719975204,133.97008710417,
143,E3930400028111,安田町立福祉館,高知県安田町大字唐浜1257-2,1,,,33.440550001233,133.97277325459,
144,E3930400029111,薬師第２集会所,高知県安田町大字唐浜2259-1,1,,,33.441048570657,133.97363291716,
145,E3930400030111,安田町津波避難タワ－３号,高知県安田町大字唐浜2332-1,1,,,33.438471010086,133.97646561855,
146,E3930400031111,唐浜東集会所,高知県安田町大字唐浜2376-1,1,,,33.441191618131,133.96921940964,
147,E3930400032111,西北集会所,高知県安田町大字唐浜61-1,1,,,33.447447768787,133.96005784343,
148,E3930400033111,安田町津波避難タワ－１号,高知県安田町大字唐浜742,1,,,33.444019210988,133.96414414385,
149,E3930400034111,唐浜集会所,高知県安田町大字唐浜815,1,,,33.442487538925,133.96605172103,
150,E3930400035111,城集会所,高知県安田町大字東島2571,1,,,33.444304195003,133.99544420303,
151,E3930400036111,ヲカ集会所,高知県安田町大字東島3391-12,1,,,33.449627034657,133.99307521919,
152,E3930400037111,井ノ岡集会所,高知県安田町大字東島3674-7,1,,,33.456192136043,133.99017098011,
153,E3930400038111,中村東集会所,高知県安田町大字東島4894-3,1,,,33.449082394263,133.99180712761,
154,E3930400039111,射場集会所,高知県安田町大字東島839-1,1,,,33.446748974535,133.99260851483,
155,E3930400040111,中村西集会所,高知県安田町大字東島868-2,1,,,33.449975849058,133.98617030542,
156,E3930400042111,内京坊集会所,高知県安田町大字内京坊476,1,,,33.471678395228,133.99608714102,
157,E3930400043111,別所集会所,高知県安田町大字別所46,1,,,33.489334138774,134.00373974821,
158,E3930400044111,与床集会所,高知県安田町大字与床321,1,,,33.495864748663,134.01137217657,
159,E3940300003121,老人保健施設　ライブリーハウス輝,高知県越知町越知甲1667-3,,,高齢者（要介護認定者）、身体障害者（児）、難病患者（内部障害など）,33.530747710629,133.25303024269,
160,E3940300004111,越知中学校,高知県越知町越知甲1915,,,,33.534386235131,133.25229571912,
161,E3940300005111,越知小学校,高知県越知町越知甲1963-1,1,,,33.533461215594,133.25239261902,
162,E3940300009111,越知町民会館,高知県越知町越知甲2562,,,,33.526644289494,133.25298616412,
163,E3940300011121,デイサービスセンター　コスモス荘,高知県越知町越知甲918-1,,,精神障害者（児）、知的障害者（児）、幼児（未就学児）、難病患者（内部障害など）、発達障害者（児）、妊産婦（乳児含む）,33.533210564243,133.25777742758,
164,E3940300012121,特別養護老人ホーム五葉荘,高知県越知町越知甲946,,,高齢者（要介護認定者）、身体障害者（児）,33.532815258395,133.25840057891,
165,E3940300017111,横畠西部集落活動センター,高知県越知町横畠中1847,1,,,33.56621017127,133.22793374792,
166,E3940300034111,明治西部公民館,高知県越知町鎌井田本村8720-1,1,,,33.570228802105,133.25195300067,
167,E3940300040111,桐見川公民館,高知県越知町桐見川866,1,,,33.506407136311,133.16577011813,
168,E3940300057111,明治東部公民館,高知県越知町片岡1217,1,,,33.572725219188,133.28507895185,
169,E3940300061111,野老山公民館,高知県越知町野老山2033,1,,,33.559910156353,133.20940326709,
170,E3930700001111,芸西村山の家,高知県芸西村久重608-1,1,,,33.567868625994,133.83790314152,
171,E3930700004121,洋寿荘,高知県芸西村西分乙297,1,,要配慮者,33.516251989473,133.77255786553,
172,E3930700008111,郷西集会所,高知県芸西村西分甲1145,1,,,33.528840790571,133.80168173885,
173,E3930700009111,長谷集会所,高知県芸西村西分甲2196-1,1,,,33.52119539393,133.78938864694,
174,E3930700010111,長谷寄ふれあいセンター,高知県芸西村西分甲2202-1,,,,33.521289310426,133.78966223227,
175,E3930700011111,ほっとハウス,高知県芸西村西分甲2555-2,,,,33.518969166244,133.79832457555,
176,E3930700013111,ロイヤルホテル土佐,高知県芸西村西分甲2995,1,,,33.522759703379,133.78543905742,
177,E3930700017111,第二集会所,高知県芸西村西分甲5082-3,1,,,33.518162572776,133.78781641952,
178,E3930700018111,第一集会所,高知県芸西村西分甲5082-313,1,,,33.518133875087,133.79013295395,
179,E3930700020111,西分浜西集会所,高知県芸西村西分甲5082-36,1,,,33.518111513178,133.78302554715,
180,E3930700021111,西分浜中集会所,高知県芸西村西分甲5082-365,1,,,33.518158705596,133.78544043529,
181,E3930700025111,ｋｏｃｈｉ黒潮カントリークラブ,高知県芸西村西分甲5207,,,,33.539322146451,133.79269126402,
182,E3930700028111,西分防災拠点施設,高知県芸西村西分甲5940,,,,33.521013316775,133.79824168813,
183,E3930700029111,郷中・東集会所,高知県芸西村西分甲641-1,1,,,33.531278047544,133.80472080799,
184,E3930700012111,松原集会所,高知県芸西村西分甲２５６２－ロ,1,,,33.518346496678,133.79807076576,
185,E3930700031111,神楽伝承館,高知県芸西村道家486-2,1,,,33.571720878376,133.8252454133,
186,E3930700032111,中集会所,高知県芸西村馬ノ上1061-1,1,,,33.531927931371,133.81270306201,
187,E3930700032112,西集会所,高知県芸西村馬ノ上1061-1,1,,,33.532044194493,133.81224172207,
188,E3930700033111,馬ノ上ふれあいセンター,高知県芸西村馬ノ上1201-3,,,,33.532373538288,133.81120346236,
189,E3930700034111,馬ノ上防災拠点施設,高知県芸西村馬ノ上1320-5,,,,33.532042418564,133.80986100837,
190,E3930700035111,瓜生谷コニュニティーセンター,高知県芸西村馬ノ上3481-4,1,,,33.541651544201,133.81090890932,
191,E3930700036111,芝集会所,高知県芸西村馬ノ上400-3,1,,,33.534549264624,133.81820302646,
192,E3930700037111,土居集会所,高知県芸西村馬ノ上732,1,,,33.533712667438,133.81586066129,
193,E3930700038111,井上集会所,高知県芸西村馬ノ上815-2,1,,,33.531847441426,133.81429092975,
194,E3930700039111,津野集会所,高知県芸西村和食乙228-1,1,,,33.527416019853,133.82581233438,
195,E3930700040111,和食防災拠点施設,高知県芸西村和食甲1240,,,,33.527785297622,133.80934602425,
196,E3930700041111,芸西村村民会館,高知県芸西村和食甲1262,,,,33.526981677161,133.80917913791,
197,E3930700042111,老人福祉センター,高知県芸西村和食甲1290,1,,,33.526629296893,133.80878248237,
198,E3930700043111,中村集会所,高知県芸西村和食甲1327,1,,,33.525837313859,133.80925374123,
199,E3930700045111,正路集会所,高知県芸西村和食甲1672-6,,,,33.519961405774,133.81299300836,
200,E3930700046111,下組集会所,高知県芸西村和食甲1778-1,1,,,33.520839766392,133.81020522294,
201,E3930700047111,下中集会所,高知県芸西村和食甲2115,1,,,33.522435092788,133.80906026948,
202,E3930700048112,芸西村立中学校校舎,高知県芸西村和食甲2265,1,,,33.524687764816,133.81211122221,
203,E3930700048111,芸西村立中学校体育館,高知県芸西村和食甲2265,1,,,33.523967764029,133.81208976454,
204,E3930700049111,地域交流センター,高知県芸西村和食甲2462,,,,33.525352658806,133.81092112667,
205,E3930700050111,北組集会所,高知県芸西村和食甲2476,1,,,33.525551106889,133.81147461029,
206,E3930700051111,西組集会所,高知県芸西村和食甲2860,1,,,33.528050052336,133.8117515586,
207,E3930700063121,やわらぎ,高知県芸西村和食甲4249,,,要配慮者,33.521019156685,133.82033955622,
208,E3930700054111,芸西村の家,高知県芸西村和食甲4525,1,,,33.529197334793,133.8184245714,
209,E3930700054112,芸西村立柔剣道場,高知県芸西村和食甲4525,1,,,33.529380678512,133.81898247087,
210,E3930700054113,芸西村民体育館,高知県芸西村和食甲4525,1,,,33.529103426884,133.81893955553,
211,E3930700055111,津波避難施設（浜浦集会所）,高知県芸西村和食甲4646-2,1,,,33.517594466853,133.81320935279,
212,E3930700056111,叶木集会所,高知県芸西村和食甲4646-80,1,,,33.517379058462,133.81547345522,
213,E3930700058111,琴ヶ浜集会所,高知県芸西村和食甲4647-30,1,,,33.517724201139,133.80819309695,
214,E3930700061111,極楽集会所,高知県芸西村和食甲5812-8,1,,,33.523480604347,133.81833079249,
215,E3930700062111,琴ヶ浜ふれあいセンター,高知県芸西村和食甲84-1,1,,,33.518374393771,133.81030919115,
216,E3921100005111,吉川防災コミュニティセンター,高知県香南市吉川町吉原287-1,1,,,33.540471,133.702195,
217,E3921100018112,山南防災コミュニティセンター,高知県香南市香我美町下分1792-1,,,,33.566841,133.749521,
218,E3921100021111,香我美幼稚園,高知県香南市香我美町下分710-1,1,,,33.573932765071,133.74209739524,
219,E3921100022111,香我美おれんじ保育所,高知県香南市香我美町下分711-2,1,,,33.574339487508,133.74227442104,
220,E3921100023111,香我美小学校,高知県香南市香我美町下分750,1,,,33.572938822138,133.74287680146,
221,E3921100031111,山北公民館,高知県香南市香我美町山北1557-1,1,,,33.580334139969,133.74279733301,
222,E3921100032111,香我美中学校,高知県香南市香我美町山北41-1,1,,,33.568352261134,133.73355546197,
223,E3921100034112,香我美市民館,高知県香南市香我美町徳王子2220-1,1,,,33.560519295317,133.73703650912,
224,E3921100034111,香我美トレーニングセンター,高知県香南市香我美町徳王子2220-1,1,,,33.560501414586,133.73662344893,
225,E3921100042111,城山高校,高知県香南市赤岡町1612,1,,,33.547448256684,133.72303679578,
226,E3921100051111,赤岡小学校体育館,高知県香南市赤岡町861-1,1,,,33.542060447887,133.72671838542,
227,E3921100113111,夜須こども園,高知県香南市夜須町坪井1437,1,,,33.544502,133.75315,
228,E3921100085111,北部会館,高知県香南市夜須町夜須川444-4,,,,33.561062,133.781409,
229,E3921100088112,のいちふれあいセンター,高知県香南市野市町西野534-1,,,,33.563962,133.699317,
230,E3921100107111,野市図書館,高知県香南市野市町西野594-1,,,,33.564552,133.698362,
231,E3921100089111,野市小学校,高知県香南市野市町西野618,,,,33.56389969268,133.6971517823,
232,E3921100090111,野市幼稚園,高知県香南市野市町西野630,,,,33.563551833475,133.69670582645,
233,E3921100091111,野市保育所,高知県香南市野市町西野645,,,,33.564564639291,133.69647692422,
234,E3921100093111,野市総合体育館,高知県香南市野市町大谷736,,,,33.570484658744,133.70473074308,
235,E3921100111111,野市東小学校,高知県香南市野市町中ノ村770-11,,,,33.564033139685,133.72022515406,
236,E3921100095112,富家防災コミュニティセンター,高知県香南市野市町兎田55-1,,,,33.571722,133.723724,
237,E3921100112111,野市東防災コミュニティセンター,高知県香南市野市町東野363-1,1,,,33.561687,133.719645,
238,E3921100101111,野市東こども園,高知県香南市野市町東野449-6,,,,33.563936517431,133.71929711202,
239,E3921100102111,野市中学校,高知県香南市野市町東野72,,,,33.568179868735,133.70755794454,
240,E3921100103111,佐古小学校,高知県香南市野市町母代寺104,1,,,33.582962,133.699992,
241,E3921100104111,佐古保育所,高知県香南市野市町母代寺180-1,1,,,33.581680928402,133.70406207194,
242,E3921100106111,佐古防災コミュニティーセンター,高知県香南市野市町母代寺71-1,1,,,33.581089147583,133.69969585002,
243,E3921200001111,永野コミュニティセンター,高知県香美市香北町永野2151-1,1,,,33.66593579,133.8172651,
244,E3921200002111,下野尻集落センター,高知県香美市香北町下野尻368,1,,,33.6492781050606,133.769177780121,
245,E3921200004111,北岩改公会堂,高知県香美市香北町岩改17-2,1,,,33.6273645645349,133.765239679615,
246,E3921200006111,香北体育センター,高知県香美市香北町吉野1188,1,,,33.65464281,133.8064804,
247,E3921200008111,橋川野集落センター,高知県香美市香北町橋川野161,1,,,33.6417111263743,133.754527292984,
248,E3921200010111,根須公会堂,高知県香美市香北町根須535-4,1,,,33.6686585300282,133.826760793584,
249,E3921200011111,清爪公会堂,高知県香美市香北町清爪527-1,1,,,33.69143316,133.847557,
250,E3921200012111,佐敷公民館,高知県香美市香北町西川甲1601-3,1,,,33.62553434,133.8029362,
251,E3921200013111,太郎丸公会堂,高知県香美市香北町太郎丸158-1,1,,,33.64453379,133.7643173,
252,E3921200014111,谷相公民館,高知県香美市香北町谷相2073-2,1,,,33.6747900097108,133.798141963734,
253,E3921200015111,三谷地区集会所,高知県香美市香北町谷相2478-1,1,,,33.67350311,133.7953195,
254,E3921200016111,猪野々集会所,高知県香美市香北町猪野々456,1,,,33.70673339,133.8558214,
255,E3921200017111,日ノ御子公会堂,高知県香美市香北町日ノ御子548,1,,,33.6574330680185,133.78218453544,
256,E3921200018111,保健福祉センター香北,高知県香美市香北町韮生野336-1,1,,,33.648664,133.784173,
257,E3921200019111,韮生野コミュニティセンター,高知県香美市香北町韮生野493,1,,,33.65074806,133.7865652,
258,E3921200020111,梅久保公民館,高知県香美市香北町梅久保234,1,,,33.67408022,133.8278069,
259,E3921200021111,萩野公民館,高知県香美市香北町萩野1223-3,1,,,33.6348330151901,133.757469921284,
260,E3921200023111,白石公会堂,高知県香美市香北町白石472-1,1,,,33.6755389183139,133.834929471463,
261,E3921200024111,白川上集会所,高知県香美市香北町白川561-3,1,,,33.6487431048178,133.746619050135,
262,E3921200025111,基幹集落センター,高知県香美市香北町美良布1097,1,,,33.65073544,133.7802093,
263,E3921200027111,本田集落センター,高知県香美市香北町美良布1511-3,1,,,33.6467758303997,133.774955781767,
264,E3921200028111,大宮小学校（体育館）,高知県香美市香北町美良布654-1,1,,,33.65244739,133.7772562,
265,E3921200029111,香北中学校（体育館）,高知県香美市香北町美良布892,1,,,33.65324311,133.7815544,
266,E3921200030111,香北武道館,高知県香美市香北町美良布908-1,1,,,33.652037,133.780177,
267,E3921200031111,朴ノ木公会堂,高知県香美市香北町朴ノ木561,1,,,33.65927,133.8009417,
268,E3921200032111,有瀬公民館,高知県香美市香北町有瀬772-1,1,,,33.6585244372987,133.76859577771,
269,E3921200034111,地域福祉センター土佐山田（プラザ八王子）,高知県香美市土佐山田町262-1,1,,,33.61074838,133.6875853,
270,E3921200033111,中組南部集会所,高知県香美市土佐山田町１０２３－イ,1,,,33.6026233695274,133.671642765465,
271,E3921200035111,土佐山田中央集会所,高知県香美市土佐山田町旭町1-3-18,1,,,33.6037553385226,133.687481129209,
272,E3921200036111,山田高等学校（体育館）,高知県香美市土佐山田町旭町3-1-3,1,,,33.60500168,133.6893809,
273,E3921200037111,加茂公民館,高知県香美市土佐山田町加茂335-2,1,,,33.6047659733432,133.71749234306,
274,E3921200038111,香美農林合同庁舎,高知県香美市土佐山田町加茂777,1,,,33.61032682,133.720156,
275,E3921200039111,河ノ川部落集会所,高知県香美市土佐山田町角茂谷1841,1,,,33.6814231168566,133.705373709195,
276,E3921200040111,岩次公民館,高知県香美市土佐山田町岩次46-2,1,,,33.5929286606115,133.682650659907,
277,E3921200041111,片地地区多目的集会所,高知県香美市土佐山田町宮ノ口1-2,1,,,33.61743831,133.7171809,
278,E3921200042111,高知工科大学（体育館）,高知県香美市土佐山田町宮ノ口185,1,,,33.62245233,133.719716,
279,E3921200043111,片地小学校（体育館）,高知県香美市土佐山田町宮ノ口9,1,,,33.61797028,133.7171389,
280,E3921200044111,仁井田公民館,高知県香美市土佐山田町佐野1642,1,,,33.6370232332319,133.716294350552,
281,E3921200045111,舟入小学校（体育館）,高知県香美市土佐山田町山田1218,1,,,33.59681836,133.6892697,
282,E3921200046111,明治地区多目的集会所,高知県香美市土佐山田町山田1385-1,1,,,33.60040466,133.6925558,
283,E3921200047111,八王子公民館,高知県香美市土佐山田町山田1749,1,,,33.6047535221235,133.699544915555,
284,E3921200048111,松本部落公民館,高知県香美市土佐山田町松本117-1,1,,,33.5915469777484,133.672832905719,
285,E3921200049111,上改田公民館,高知県香美市土佐山田町上改田170-2,1,,,33.6208287101501,133.667932770243,
286,E3921200050111,秦山公園野球場（土佐山田スタジアム）,高知県香美市土佐山田町植1252-2,1,,,33.61162295,133.6799448,
287,E3921200051111,植公民館,高知県香美市土佐山田町植148,1,,,33.6171291201609,133.676171475724,
288,E3921200052111,新改公民館,高知県香美市土佐山田町新改398-4,1,,,33.6167496442692,133.673768998448,
289,E3921200054111,秦山町一丁目公民館,高知県香美市土佐山田町秦山町1-4-1,1,,,33.6075131102174,133.68263715857,
290,E3921200055111,香長小学校（体育館）,高知県香美市土佐山田町須江32,1,,,33.62170354,133.6775511,
291,E3921200056111,農山村コミュニティセンター,高知県香美市土佐山田町須江36-1,1,,,33.62160311,133.6778305,
292,E3921200057111,須江公民館,高知県香美市土佐山田町須江386-1,1,,,33.616749,133.673768,
293,E3921200058111,西後入公民館,高知県香美市土佐山田町西後入214,1,,,33.6498317275656,133.714117881281,
294,E3921200059111,山田小学校（体育館）,高知県香美市土佐山田町西本町2-4-5,1,,,33.6059928,133.6831984,
295,E3921200060111,船谷公民館,高知県香美市土佐山田町船谷343-1,1,,,33.62032612051,133.725819443062,
296,E3921200061111,宮上谷公民館,高知県香美市土佐山田町曽我部川1282,1,,,33.6251920649053,133.677453541964,
297,E3921200062111,大後入公民館,高知県香美市土佐山田町大後入419,1,,,33.6536545881709,133.719722499067,
298,E3921200063111,森林研修センター,高知県香美市土佐山田町大平80,1,,,33.63158989,133.7124482,
299,E3921200064111,東町中部公民館,高知県香美市土佐山田町東本町4-2-30,1,,,33.6077905508498,133.690484265799,
300,E3921200066111,鏡野中学校（体育館）,高知県香美市土佐山田町楠目1973,1,,,33.61235225,133.6981153,
301,E3921200067111,平田公民館,高知県香美市土佐山田町楠目224-3,1,,,33.6095353384882,133.706454489444,
302,E3921200068111,油石農業振興集会所,高知県香美市土佐山田町楠目2544,1,,,33.6219850734513,133.693773082029,
303,E3921200069111,楠目小学校（体育館）,高知県香美市土佐山田町楠目391-2,1,,,33.60781444,133.7013296,
304,E3921200071111,繁藤地区コミュニティセンター,高知県香美市土佐山田町繁藤3-1,1,,,33.67981404,133.6853373,
305,E3921200072111,繁藤老人憩の家,高知県香美市土佐山田町繁藤755-12,1,,,33.67918904,133.6700838,
306,E3921200073111,新改北部構造改善センター,高知県香美市土佐山田町平山484-1,1,,,33.65099826,133.6885694,
307,E3921200074111,中央公民館,高知県香美市土佐山田町宝町2-1-27,1,,,33.60418886,133.6846793,
308,E3921200075111,土佐山田体育館,高知県香美市土佐山田町宝町2-7-15,1,,,33.60209988,133.6851351,
309,E3921200076111,北滝本複合集会所,高知県香美市土佐山田町北滝本177,1,,,33.6615858383398,133.661372594026,
310,E3921200077111,佐岡体育館,高知県香美市土佐山田町本村351,1,,,33.63821436,133.7186942,
311,E3921200078111,林田集会所,高知県香美市土佐山田町林田561-1,1,,,33.6128781298518,133.724053818277,
312,E3921200079111,岡ノ内公会堂,高知県香美市物部町岡ノ内188-1,1,,,33.72234061,133.9414444,
313,E3921200082111,高井多目的集会所,高知県香美市物部町久保高井131-1,1,,,33.75714369,133.9280116,
314,E3921200089111,塩公会堂,高知県香美市物部町山崎1023-1,1,,,33.7004082600433,133.884003546138,
315,E3921200093111,庄谷相多目的集会所,高知県香美市物部町庄谷相1234-1,1,,,33.668177,133.839525,
316,E3921200094111,神池分団屯所,高知県香美市物部町神池2045-3,1,,,33.737666,133.8936559,
317,E3921200095111,浦山公会堂,高知県香美市物部町仙頭1854-3,1,,,33.67281636,133.8790699,
318,E3921200097111,大栃区長事務所,高知県香美市物部町大栃1092-5,1,,,33.69975819,133.875679,
319,E3921200098111,大栃小学校（体育館）,高知県香美市物部町大栃1177-3,1,,,33.69758832,133.8757073,
320,E3921200099111,南組公会堂,高知県香美市物部町大栃1226,1,,,33.696592376762,133.876676545285,
321,E3921200101111,久保組公会堂,高知県香美市物部町大栃1575-1,1,,,33.7000423044407,133.87832342162,
322,E3921200104111,中屋公会堂,高知県香美市物部町大栃2064-3,1,,,33.7020193674315,133.879626975202,
323,E3921200105111,大北組公会堂,高知県香美市物部町大栃2236,1,,,33.70509711,133.8811335,
324,E3921200106111,奥物部ふれあいプラザ,高知県香美市物部町大栃878-3,1,,,33.69617163,133.8742805,
325,E3921200108111,高齢者生活福祉センター「こづみ」,高知県香美市物部町大栃898-1,1,,,33.69653046,133.8741061,
326,E3921200102111,大栃中学校（体育館）,高知県香美市物部町大栃１８００－イ,1,,,33.7017676,133.8785315,
327,E3921200109111,中谷川公会堂,高知県香美市物部町中谷川318,1,,,33.68331837,133.8551918,
328,E3921200110111,農林漁業体験実習館,高知県香美市物部町別府373-5,1,,,33.76449894,134.0350155,
329,E3921200111111,平井公会堂,高知県香美市物部町柳瀬1359,1,,,33.722255780266,133.872298080467,
330,E3921200113111,楮佐古公会堂,高知県香美市物部町楮佐古３６９・３７０,1,,,33.72482513,133.8772526,
331,E3920100002111,はりまや橋小学校放課後児童クラブ（第一・第二）,高知県高知市はりまや町2-14-8,1,,,33.5612657628325,133.546527675755,
332,E3920100002112,はりまや橋小学校,高知県高知市はりまや町2-14-8,1,,,33.5612657628325,133.546527675755,
333,E3920100008111,みづきコミュニティセンター,高知県高知市みづき3-502,,,,33.582455,133.520691,
334,E3920100009111,秦小学校放課後児童クラブ（第一・第二・第三・第四）,高知県高知市愛宕山18,1,,,33.5774655435773,133.535562915234,
335,E3920100009112,秦小学校,高知県高知市愛宕山18,1,,,33.5774655435773,133.535562915234,
336,E3920100010111,江ノ口コミュニティセンター,高知県高知市愛宕町1-10-7,1,,,33.5662889965906,133.536046650463,
337,E3920100013121,障害者福祉センター,高知県高知市旭町2-21-6,,,要配慮者全般,33.555052,133.510789,
338,E3920100014121,デイサービスいこいの森,高知県高知市旭町2-38-5,,,高齢者,33.5556052330714,133.508997061079,
339,E3920100015111,旭町２丁目コミュニティ住宅　集会室,高知県高知市旭町2-8-1,,,,33.5556366379673,133.511571771455,
340,E3920100550111,旭保育園,高知県高知市旭町28-12,,,,33.555475,133.511868,
341,E3920100016111,こうち男女共同参画センター「ソーレ」,高知県高知市旭町3-115,,,,33.5562010332528,133.507495059518,
342,E3920100017111,木村会館,高知県高知市旭町3-121,1,,,33.5564131686834,133.507996515932,
343,E3920100018121,介護付きホーム　いこいの森プラス,高知県高知市旭町3-3,,,高齢者,33.555492,133.508392,
344,E3920100021121,特別養護老人ホームウェルプラザ高知,高知県高知市一宮しなね2-15-19,,,要配慮者全般,33.5938804424479,133.577549148324,
345,E3920100022121,老人保健施設　あうん高知,高知県高知市一宮西町1-7-25,,,高齢者,33.5834326001912,133.567500258979,
346,E3920100023112,一宮小学校,高知県高知市一宮西町1-9-1,1,,,33.5846131873234,133.567740387916,
347,E3920100023111,一宮小学校放課後児童クラブ（第一・第二・第三）,高知県高知市一宮西町1-9-1,1,,,33.5846131873234,133.567740387916,
348,E3920100599111,一宮老人福祉センター,高知県高知市一宮西町3-22-15,1,,,33.588829,133.570601,
349,E3920100025111,一宮市民会館・一宮児童館,高知県高知市一宮西町3-22-16,1,,,33.5887661967962,133.570803436224,
350,E3920100555111,一宮保育園,高知県高知市一宮西町414-16,,,,33.589735,133.572305,
351,E3920100026111,一宮ふれあいセンター,高知県高知市一宮中町1-5-20,1,,,33.5836530005582,133.5691811859,
352,E3920100027121,介護老人保健施設あったかケアみずき,高知県高知市一宮中町2-9-4,,,高齢者、障害者（身体）、 特定医療費支給認定を受けた方（高齢者特有の難病,33.5820641495148,133.572782718248,
353,E3920100028111,一宮東小学校放課後児童クラブ（第一・第二）,高知県高知市一宮東町1-20-1,1,,,33.5839436129975,133.576823448029,
354,E3920100028112,一宮東小学校,高知県高知市一宮東町1-20-1,1,,,33.5839436129975,133.576823448029,
355,E3920100029121,グループホーム憩いの生活館ーいっくー,高知県高知市一宮東町1-26-3,,,高齢者,33.5830966576894,133.576612168437,
356,E3920100030121,有料老人ホームおひさまのうた,高知県高知市一宮東町1-27-38,,,高齢者,33.582958118165,133.576869660497,
357,E3920100031111,高知東高等学校,高知県高知市一宮徳谷23-1,1,,,33.5840924665595,133.581634223133,
358,E3920100032111,一宮徳谷公民館,高知県高知市一宮徳谷3-24,,,,33.5806672477418,133.577097392108,
359,E3920100036111,一宮中学校,高知県高知市一宮南町1-3-1,1,,,33.5768455989555,133.56564665698,
360,E3920100040111,浦戸ふれあいセンター,高知県高知市浦戸274-9,1,,,33.4975476939895,133.566909660949,
361,E3920100041111,浦戸小学校,高知県高知市浦戸410-1,1,,,33.4958127461775,133.568716269413,
362,E3920100043111,高知県立坂本龍馬記念館,高知県高知市浦戸830,1,,,33.496402404171,133.57191398878,
363,E3920100044111,桂浜荘,高知県高知市浦戸830-25,1,,,33.496635533656,133.572375027861,
364,E3920100585121,グループホーム　しあわせ村,高知県高知市浦戸837-30,,,高齢者、障害者（児）（身体・精神）,33.493278,133.561852,
365,E3920100601111,栄田公民館,高知県高知市栄田町1-6-29,,,,33.567997,133.541351,
366,E3920100050111,高知県公立大学法人　永国寺キャンパス,高知県高知市永国寺町5-15,,,,33.5639635539559,133.534248529837,
367,E3920100589121,特別養護老人ホーム　湯の里,高知県高知市円行寺52-10,,,高齢者,33.583937,133.51331,
368,E3920100053111,潮江中学校,高知県高知市塩屋崎町1-2-20,1,,,33.5529231735076,133.540662666317,
369,E3920100056121,保健福祉センター,高知県高知市塩田町18-10,1,,要配慮者全般,33.5725371194634,133.545237775993,
370,E3920100056111,保健福祉センター,高知県高知市塩田町18-10,1,,,33.5725371194634,133.545237775993,
371,E3920100057111,横内小学校放課後児童クラブ（第一・第二・第三）,高知県高知市横内242-12,1,,,33.5639249091392,133.498312562054,
372,E3920100057112,横内小学校,高知県高知市横内242-12,1,,,33.5639249091392,133.498312562054,
373,E3920100058121,特別養護老人ホーム森の里高知（ヘリオス）,高知県高知市横浜20-1,1,,要配慮者全般,33.5286215220731,133.553708447984,
374,E3920100059111,横浜中学校,高知県高知市横浜新町1-401,1,,,33.5215521476449,133.534417616051,
375,E3920100060111,横浜新町小学校放課後児童クラブ（第一・第二・第三）,高知県高知市横浜新町5-2201,1,,,33.514029960099,133.536932983647,
376,E3920100060112,横浜新町小学校,高知県高知市横浜新町5-2201,1,,,33.514029960099,133.536932983647,
377,E3920100062121,看護小規模多機能型居宅介護事業所ありがとう,高知県高知市横浜西町29-32,,,高齢者、障害者（児）（身体）、妊産婦、乳幼児、特定医療費支給認定を受けた方、発達障害のある児童生徒、小児慢性特定疾病医療受給者、自立支援医療（育成医療）受給者,33.519805445821,133.539052945409,
378,E3920100063111,横浜文化センター,高知県高知市横浜東町4-1,,,,33.5214262704767,133.546316158879,
379,E3920100064121,認知症対応共同生活介護あさひ,高知県高知市下島町124-1,,,高齢者,33.554604,133.507165,
380,E3920100569111,中野保育園,高知県高知市介良373,,,,33.56433,133.614768,
381,E3920100570111,愛善保育園,高知県高知市介良乙2269,,,,33.558631,133.606714,
382,E3920100066111,介良ふれあいセンター,高知県高知市介良乙2286,1,,,33.5581522100885,133.606320443946,
383,E3920100067111,介良中学校,高知県高知市介良乙2620,1,,,33.5561223808795,133.603607876051,
384,E3920100068111,介良小学校放課後児童クラブ（第一・第二）,高知県高知市介良乙2735-1,1,,,33.5566075204061,133.602048782108,
385,E3920100068112,介良小学校,高知県高知市介良乙2735-1,1,,,33.5566075204061,133.602048782108,
386,E3920100069121,サービス付高齢者住宅　イチゴいちえ,高知県高知市介良乙3042-1,1,,高齢者、乳幼児,33.558286,133.601154,
387,E3920100072111,東部総合運動場体育センター,高知県高知市介良丙1000-2,1,,,33.5502488600723,133.598444600047,
388,E3920100073111,介良市民会館,高知県高知市介良丙329,1,,,33.5497627842475,133.606615260395,
389,E3920100074111,介良児童館（介良西部会館）,高知県高知市介良丙329-6,,,,33.5496241912302,133.606738642014,
390,E3920100571111,介良西部保育園,高知県高知市介良丙789-1,,,,33.548795,133.606084,
391,E3920100090121,東部健康福祉センター,高知県高知市葛島4-3-3,1,,要配慮者全般,33.5555172567724,133.573478976225,
392,E3920100090111,東部健康福祉センター,高知県高知市葛島4-3-3,1,,,33.5555172567724,133.573478976225,
393,E3920100096111,西部中学校,高知県高知市鴨部1-9-1,1,,,33.550930825732,133.506398854817,
394,E3920100093121,グループホームつくしの里,高知県高知市鴨部1079-1,,,高齢者,33.5476091673134,133.505006424786,
395,E3920100095111,鴨田小学校放課後児童クラブ（第一・第二・第三）,高知県高知市鴨部1155,1,,,33.5470233680346,133.507879781335,
396,E3920100095112,鴨田小学校,高知県高知市鴨部1155,1,,,33.5470233680346,133.507879781335,
397,E3920100097111,高知国際中学・高知国際高等学校,高知県高知市鴨部2-5-70,1,,,33.5503524571506,133.501683620172,
398,E3920100098111,西部健康福祉センター,高知県高知市鴨部860-1,1,,,33.5439049963127,133.503319718068,
399,E3920100098121,西部健康福祉センター,高知県高知市鴨部860-1,1,,要配慮者全般,33.5439049963127,133.503319718068,
400,E3920100105111,高知市ひまわり園,高知県高知市丸ノ内1-6-46,,,,33.559299672048,133.527442752677,
401,E3920100107111,高知県立武道館,高知県高知市丸ノ内1-8-3,,,,33.5613620993497,133.528869660161,
402,E3920100108111,高知城ホール,高知県高知市丸ノ内2-1-10,,,,33.5623487275224,133.532908873763,
403,E3920100109111,高知丸の内高等学校,高知県高知市丸ノ内2-2-40,1,,,33.5634994492706,133.532946504536,
404,E3920100545111,勤労者交流館,高知県高知市丸池町1-1-14,1,,,33.560966,133.561784,
405,E3920100583121,すずめ共同作業所,高知県高知市丸池町1-1-15,1,,要配慮者全般,33.56076,133.56189,
406,E3920100546111,ちより保育園,高知県高知市丸池町9-55,,,,33.559159,133.564941,
407,E3920100114112,一ツ橋小学校,高知県高知市吉田町4-10,1,,,33.5716201849746,133.532669527176,
408,E3920100114111,一ツ橋小学校放課後児童クラブ（第一・第二）,高知県高知市吉田町4-10,1,,,33.5716201849746,133.532669527176,
409,E3920100115111,久重小学校,高知県高知市久礼野2340-2,1,,,33.6120036061246,133.562436644451,
410,E3920100556111,久重保育園,高知県高知市久礼野906-1,,,,33.61257,133.563605,
411,E3920100587111,久礼野公民館,高知県高知市久礼野字長谷口96,1,,,33.611043,133.565295,
412,E3920100553111,吸江寺,高知県高知市吸江122,,,,33.547373,133.57078,
413,E3920100548111,宮前保育園,高知県高知市宮前町139-2,,,,33.560104,133.517173,
414,E3920100117111,柿ノ又公民館,高知県高知市鏡柿ノ又72,,,,33.6303515151799,133.419578661587,
415,E3920100573111,かがみ保育園　乳児・給食棟,高知県高知市鏡今井130,,,,33.607784,133.471726,
416,E3920100118111,鏡中学校,高知県高知市鏡今井191,1,,,33.606996423962,133.472243709123,
417,E3920100572111,かがみ保育園,高知県高知市鏡今井198,,,,33.607773,133.471717,
418,E3920100119111,鏡小学校,高知県高知市鏡今井7,1,,,33.6032912432223,133.472241448089,
419,E3920100120111,吉原公民館,高知県高知市鏡狩山95,,,,33.641356554289,133.445789313865,
420,E3920100121111,中山間地域構造改善センター,高知県高知市鏡小浜8,1,,,33.6016015143491,133.471958083936,
421,E3920100121121,中山間地域構造改善センター,高知県高知市鏡小浜8,1,,要配慮者全般,33.6016015143491,133.471958083936,
422,E3920100124111,集落活動センター梅の木,高知県高知市鏡梅ノ木1236-1,,,,33.5954831449232,133.423697504933,
423,E3920100126111,文化プラザ「かるぽーと」,高知県高知市九反田2-1,1,,,33.5583392592093,133.547221953411,
424,E3920100130111,東部総合運動場くろしおアリーナ,高知県高知市五台山1736-1,1,,,33.5456738700729,133.597369700087,
425,E3920100131111,五台山ふれあいセンター,高知県高知市五台山2945-2,1,,,33.5440927160592,133.583285261574,
426,E3920100132112,五台山小学校放課後児童クラブ,高知県高知市五台山3371,1,,,33.5437845320487,133.579563171135,
427,E3920100132111,五台山小学校,高知県高知市五台山3371,1,,,33.5437845320487,133.579563171135,
428,E3920100584121,介護老人福祉施設早蕨,高知県高知市五台山3780-1,,,高齢者,33.548508,133.588253,
429,E3920100133111,青柳中学校,高知県高知市五台山3923,1,,,33.549994791565,133.589998882371,
430,E3920100134111,県立牧野植物園,高知県高知市五台山4200-6,,,,33.5491446,133.57885902,
431,E3920100136111,御畳瀬ふれあいセンター,高知県高知市御畳瀬252,1,,,33.5049934134486,133.55604678123,
432,E3920100137111,旭中学校,高知県高知市口細山164-1,1,,,33.5679419721601,133.492527945847,
433,E3920100138111,卸売市場,高知県高知市弘化台12-12,1,,,33.54494882715,133.564288553226,
434,E3920100139111,城東中学校,高知県高知市江陽町1-20,1,,,33.56723128089,133.553520000346,
435,E3920100140111,江陽小学校放課後児童クラブ棟,高知県高知市江陽町1-30,1,,,33.5670632432662,133.551953033686,
436,E3920100140112,江陽小学校,高知県高知市江陽町1-30,1,,,33.5670632432662,133.551953033686,
437,E3920100143111,行川学園,高知県高知市行川472,1,,,33.5872859760163,133.458449533275,
438,E3920100144111,行川小学校放課後子ども教室,高知県高知市行川882-1,,,,33.5870603537833,133.456999734,
439,E3920100145111,潮江南小学校放課後児童クラブ（第一・第二・第三）,高知県高知市高見町248-1,1,,,33.5412095277878,133.53955552336,
440,E3920100145112,潮江南小学校,高知県高知市高見町248-1,1,,,33.5412095277878,133.53955552336,
441,E3920100147112,高須小学校放課後児童クラブ（第一・第二・第三）,高知県高知市高須1-1-55,1,,,33.5580173688016,133.580983414902,
442,E3920100147111,高須小学校,高知県高知市高須1-1-55,1,,,33.5580173688016,133.580983414902,
443,E3920100180111,高須ふれあいセンター,高知県高知市高須新町2-5-15,1,,,33.5577282998149,133.580134371105,
444,E3920100196111,高知県立弓道場,高知県高知市高埇12-1,1,,,33.5748866560618,133.557583638896,
445,E3920100586111,さえんば保育園,高知県高知市菜園場町9-4,,,,33.560202,133.549586,
446,E3920100558111,三谷公民館,高知県高知市三谷375,,,,33.597135,133.528656,
447,E3920100203111,小高坂児童館（小高坂総合会館）,高知県高知市山ノ端町32-4,,,,33.5607877619011,133.518588736511,
448,E3920100202111,小高坂市民会館,高知県高知市山ノ端町32-5,1,,,33.5610653130767,133.518314349351,
449,E3920100214111,潮江市民図書館,高知県高知市桟橋通2-1-50,1,,,33.5504039788776,133.546714940499,
450,E3920100214112,アスパルこうち,高知県高知市桟橋通2-1-50,1,,,33.5499719591727,133.547131987825,
451,E3920100215111,高知県民体育館,高知県高知市桟橋通2-1-53,,,,33.5495648259636,133.547538199578,
452,E3920100213111,高知工業高等学校,高知県高知市桟橋通2-11-6,1,,,33.5482309406875,133.545916564138,
453,E3920100226111,旧高知南中学・高等学校,高知県高知市桟橋通6-2-1,1,,,33.542348005657,133.554702163932,
454,E3920100559111,七ツ淵南公民館,高知県高知市七ツ淵398,,,,33.60576,133.544834,
455,E3920100615121,高知県立高知若草特別支援学校子鹿園分校,高知県高知市若草町10-26,,,要配慮者全般,33.54351,133.488525,
456,E3920100229121,在宅介護センターわかくさ,高知県高知市若草南町22-25,,,高齢者,33.5400489391835,133.487374803989,
457,E3920100564111,若葉保育園,高知県高知市若草南町23-47,,,,33.540799,133.487789,
458,E3920100230111,朝倉第二小学校放課後児童クラブ（第一・第二・第三）,高知県高知市若草南町23-56,1,,,33.5405978349009,133.488499066958,
459,E3920100230112,朝倉第二小学校,高知県高知市若草南町23-56,1,,,33.5405978349009,133.488499066958,
460,E3920100231111,種崎地区津波避難センター,高知県高知市種崎405-6,1,,,33.5070443634378,133.567702710615,
461,E3920100233111,貴船ノ森津波避難センター,高知県高知市種崎662-6,1,,,33.5027383883704,133.565405397546,
462,E3920100237121,養護老人ホーム　千松園,高知県高知市十津2-12-1,,,要配慮者全般,33.522751,133.570249,
463,E3920100238112,十津小学校,高知県高知市十津4-27-1,1,,,33.5291934432953,133.578081276598,
464,E3920100238111,十津小学校放課後児童クラブ（第一・第二）,高知県高知市十津4-27-1,1,,,33.5291934432953,133.578081276598,
465,E3920100554111,高知ゴルフ倶楽部,高知県高知市重倉945,,,,33.60031,133.553296,
466,E3920100543112,重倉公民館,高知県高知市重倉字力石490-6,1,,,33.607108,133.556341,
467,E3920100240111,春野公民館弘岡下分館,高知県高知市春野町弘岡下1500,1,,,33.5018485668945,133.476998163704,
468,E3920100241111,弘岡中集会所,高知県高知市春野町弘岡下20-6,,,,33.4952623483553,133.469303714455,
469,E3920100242121,県立高知若草特別支援学校,高知県高知市春野町弘岡下2980-1,,,要配慮者全般,33.5083271148942,133.480313634994,
470,E3920100243111,春野高等学校,高知県高知市春野町弘岡下3860,,,,33.505952444505,133.471755378866,
471,E3920100577111,春野弘岡上保育園,高知県高知市春野町弘岡上1294,,,,33.509491,133.455485,
472,E3920100244111,春野公民館弘岡上分館,高知県高知市春野町弘岡上1646-1,1,,,33.5044555395617,133.452556868,
473,E3920100246111,春野弘岡中市民会館,高知県高知市春野町弘岡中134-1,1,,,33.4953191086196,133.468695063778,
474,E3920100578111,春野弘岡中保育園,高知県高知市春野町弘岡中1717,,,,33.50583,133.465761,
475,E3920100247111,春野西小学校放課後児童クラブ（第一・第二）,高知県高知市春野町弘岡中2501,1,,,33.4977456130004,133.461777918709,
476,E3920100247112,春野西小学校,高知県高知市春野町弘岡中2501,1,,,33.4977456130004,133.461777918709,
477,E3920100248111,春野公民館弘岡中分館,高知県高知市春野町弘岡中711,1,,,33.5054291194195,133.466407431258,
478,E3920100250111,春野公民館甲殿分館,高知県高知市春野町甲殿341-1,1,,,33.4817175982117,133.515516017479,
479,E3920100252111,春野秋山市民会館,高知県高知市春野町秋山107-1,1,,,33.4927921789514,133.485773822026,
480,E3920100253111,春野公民館秋山分館,高知県高知市春野町秋山1111-3,1,,,33.4901507547694,133.499382397005,
481,E3920100254111,春野公民館森山分館,高知県高知市春野町森山1207-4,1,,,33.492472452144,133.466943529816,
482,E3920100255111,春野公民館新川分館,高知県高知市春野町森山203-4,1,,,33.4941483278268,133.459590723352,
483,E3920100581111,春野西保育園,高知県高知市春野町森山2080,,,,33.494922,133.47631,
484,E3920100256111,春野公民館仁ノ分館,高知県高知市春野町仁ノ384-5,1,,,33.4672143476428,133.486491194465,
485,E3920100257111,春野公民館西畑分館,高知県高知市春野町西畑1034-4,,,,33.4785806758628,133.470276683519,
486,E3920100258111,春野あじさい会館,高知県高知市春野町西分1-1,1,,,33.4978476700811,133.487909774197,
487,E3920100258121,春野あじさい会館,高知県高知市春野町西分1-1,1,,要配慮者全般,33.4978476700811,133.487909774197,
488,E3920100259111,春野公民館,高知県高知市春野町西分19,1,,,33.4989580578233,133.488334850094,
489,E3920100260111,春野公民館西分分館,高知県高知市春野町西分2079-2,1,,,33.4989242465417,133.49610610602,
490,E3920100579111,春野中央保育園,高知県高知市春野町西分2397,,,,33.495045,133.499547,
491,E3920100261111,春野中学校,高知県高知市春野町西分328,1,,,33.501747470411,133.489577165388,
492,E3920100262111,春野文化ホールピアステージ,高知県高知市春野町西分340,1,,,33.4996758330859,133.488617597235,
493,E3920100263121,特別養護老人ホームうららか春陽荘,高知県高知市春野町西分4660,,,要配慮者全般,33.5003271906264,133.500604658083,
494,E3920100266121,特別養護老人ホームはるの若菜荘,高知県高知市春野町東諸木3058-1,,,高齢者、障害者（児）（身体）,33.4875040591886,133.515787908141,
495,E3920100267111,春野公民館諸木分館,高知県高知市春野町東諸木3441-1,1,,,33.4901733363368,133.519251052744,
496,E3920100268111,春野東小学校,高知県高知市春野町東諸木3978,1,,,33.4952578916045,133.513994118984,
497,E3920100269111,高知県立障害者スポーツセンター,高知県高知市春野町内ノ谷1-1,,,,33.5015333957873,133.525455698046,
498,E3920100270111,春野公民館内ノ谷分館,高知県高知市春野町内ノ谷810,1,,,33.510086860849,133.521148091133,
499,E3920100271111,春野公民館南ケ丘分館,高知県高知市春野町南ケ丘1-2-1,1,,,33.5161493536391,133.519163151097,
500,E3920100272111,春野公民館平和分館,高知県高知市春野町平和149,1,,,33.5017525727963,133.519070538083,
501,E3920100582111,春野平和保育園,高知県高知市春野町平和3394,,,,33.504765,133.517325,
502,E3920100273121,ケアハウスあじさいの里,高知県高知市春野町芳原1308-1,,,高齢者、障害者（児）（身体・知的）、妊産婦、発達障害のある児童生徒、自立支援医療（育成医療）受給者,33.5059738358034,133.514432352138,
503,E3920100274111,春野総合運動公園,高知県高知市春野町芳原2485,,,,33.5075318160004,133.501439424225,
504,E3920100275111,春野公民館芳原分館,高知県高知市春野町芳原784-1,1,,,33.5076792139967,133.509929923408,
505,E3920100276111,朝倉ふれあいセンター,高知県高知市曙町1-14-12,1,,,33.5497097375799,133.490441320749,
506,E3920100277111,高知大学,高知県高知市曙町2-5-1,,,,33.5493451620021,133.486344678286,
507,E3920100613121,高知大学教育学部附属特別支援学校,高知県高知市曙町2-5-3,,,在校生，卒業生及びその家族,33.550457,133.488907,
508,E3920100279112,第六小学校,高知県高知市升形9-4,1,,,33.5556011730097,133.528805280484,
509,E3920100279111,第六小学校放課後児童クラブ,高知県高知市升形9-4,1,,,33.555974,133.528669,
510,E3920100281111,小石木市民会館,高知県高知市小石木町182-4,1,,,33.5509204211216,133.529214350434,
511,E3920100283111,筆山文化会館,高知県高知市小石木町30-4,,,,33.549741129804,133.532214351947,
512,E3920100285111,下知水再生センター,高知県高知市小倉町5-25,1,,,33.5619488321959,133.566568747148,
513,E3920100286111,高知大学教育学部附属小・中学校,高知県高知市小津町10-91,,,,33.5659427501696,133.528960583523,
514,E3920100294112,第四小学校放課後児童クラブ（第一・第二）,高知県高知市上町2-1-11,1,,,33.5582732463313,133.52408569882,
515,E3920100294111,第四小学校,高知県高知市上町2-1-11,1,,,33.5582732463313,133.52408569882,
516,E3920100296111,龍馬の生まれたまち記念館,高知県高知市上町2-6-33,1,,,33.5563900000646,133.524599999962,
517,E3920100299121,デイサービス・グループホームさくらんぼ,高知県高知市上町3-4-24,1,,高齢者,33.557972,133.521439,
518,E3920100303111,高知小津高等学校,高知県高知市城北町1-14,1,,,33.5643921612953,133.526365617672,
519,E3920100304111,小高坂小学校放課後児童クラブ（第一・第二）,高知県高知市新屋敷1-11-5,1,,,33.5649356807484,133.524239847111,
520,E3920100304112,小高坂小学校,高知県高知市新屋敷1-11-5,1,,,33.5649356807484,133.524239847111,
521,E3920100547111,小高坂保育園,高知県高知市新屋敷2-18-45,,,,33.565213,133.521044,
522,E3920100307111,江ノ口小学校放課後児童クラブ,高知県高知市新本町1-8-12,1,,,33.5689385594636,133.538671670494,
523,E3920100307112,江ノ口小学校,高知県高知市新本町1-8-12,1,,,33.5689385594636,133.538671670494,
524,E3920100544121,高知県立日高特別支援学校高知しんほんまち分校,高知県高知市新本町2-13-51,1,,要配慮者全般,33.569942,133.546232,
525,E3920100309121,有料老人ホームあっとホーム,高知県高知市神田1068-1,,,要配慮者全般,33.5430513725892,133.513536675242,
526,E3920100310112,神田小学校,高知県高知市神田1174-1,1,,,33.5415336510694,133.512888712736,
527,E3920100310111,神田小学校放課後児童クラブ（第一・第二・第三）,高知県高知市神田1174-1,1,,,33.5415336510694,133.512888712736,
528,E3920100312111,西山市民会館,高知県高知市神田134-26,1,,,33.5374882556467,133.498596473072,
529,E3920100313111,豊田集会所,高知県高知市神田2270-4,,,,33.5447090094487,133.519787291122,
530,E3920100314121,福祉牧場おおなろ園,高知県高知市神田2485-2,,,障害者（児）（精神・知的）、発達障害のある児童生徒,33.5292963454222,133.510847583422,
531,E3920100566111,神田みどり保育園,高知県高知市神田47-4,,,,33.538287,133.499726,
532,E3920100319123,特別養護老人ホームやすらぎの家,高知県高知市針木北1-14-30,,,要配慮者全般,33.5403590133941,133.47424405131,
533,E3920100319121,平成福祉専門学校（寮部分）,高知県高知市針木北1-14-30,,,高齢者、障害者（児）全般（身体・精神・知的）、発達障害のある児童生徒、自立支援医療（育成医療）受給者,33.540043,133.4744,
534,E3920100319122,平成福祉専門学校（校舎部分）,高知県高知市針木北1-14-30,,,高齢者、障害者（児）全般（身体・精神・知的）、発達障害のある児童生徒、自立支援医療（育成医療）受給者,33.539713,133.474463,
535,E3920100565111,正法寺,高知県高知市針木北23-26,,,,33.537782,133.472144,
536,E3920100322112,三里小学校,高知県高知市仁井田1356,1,,,33.5186963936425,133.583096533591,
537,E3920100322111,三里小学校放課後児童クラブ（第一・第二）,高知県高知市仁井田1356,1,,,33.5186963936425,133.583096533591,
538,E3920100323121,老人保健施設シルバーマリン,高知県高知市仁井田1612-21,,,高齢者,33.51424090264,133.573001077026,
539,E3920100325121,ケアハウス　パールマリン,高知県高知市仁井田1618-18,1,,要配慮者全般,33.5132418212255,133.572009771044,
540,E3920100327111,舟倉津波避難センター,高知県高知市仁井田1646-14,1,,,33.50971405,133.5682743,
541,E3920100328111,三里文化会館,高知県高知市仁井田1652-1,1,,,33.5146936691235,133.574035958891,
542,E3920100329111,三里中学校,高知県高知市仁井田3363,1,,,33.5181665695862,133.584415489629,
543,E3920100331111,三里ふれあいセンター,高知県高知市仁井田4229-2,1,,,33.5132332591776,133.574834830026,
544,E3920100334111,横浜小学校放課後児童クラブ（第一・第二・第三）,高知県高知市瀬戸東町1-26,1,,,33.5149151408673,133.547776944374,
545,E3920100334112,横浜小学校,高知県高知市瀬戸東町1-26,1,,,33.5149151408673,133.547776944374,
546,E3920100335121,特別養護老人ホーム風花の里,高知県高知市西塚ノ原76-1,,,高齢者、障害者（児）全般（身体・精神・知的）、妊産婦、乳幼児、発達障害のある児童生徒、自立支援医療（育成医療）受給者,33.5664099711919,133.491764748765,
547,E3920100340111,愛宕中学校,高知県高知市相模町1-54,1,,,33.5701329062316,133.535439807299,
548,E3920100350111,総合体育館,高知県高知市大原町158,1,,,33.5532496093836,133.52980012416,
549,E3920100353111,城西中学校,高知県高知市大膳町3-4,1,,,33.5599131266666,133.524167145531,
550,E3920100354121,高知県立盲学校,高知県高知市大膳町6-32,,,要配慮者全般,33.5606801184633,133.524077006289,
551,E3920100355111,高知商業高等学校,高知県高知市大谷6,1,,,33.5598057205214,133.494546432085,
552,E3920100360111,舟戸公民館,高知県高知市大津乙181,1,,,33.570363,133.602151,
553,E3920100360112,高知県教育センター,高知県高知市大津乙181,1,,,33.5699653930885,133.601886228343,
554,E3920100568111,大津保育園,高知県高知市大津乙181-4,,,,33.570269,133.602418,
555,E3920100363111,高知中央高等学校,高知県高知市大津乙324-1,,,,33.5675084859643,133.603514731689,
556,E3920100364111,大津中学校,高知県高知市大津乙740-1,1,,,33.5691174717502,133.595992475458,
557,E3920100368111,大津ふれあいセンター,高知県高知市大津乙930-5,1,,,33.5713571241306,133.598113613718,
558,E3920100369111,大津小学校放課後児童クラブ（第一・第二・第三）,高知県高知市大津乙972,1,,,33.5718304860658,133.599159535511,
559,E3920100369112,大津小学校,高知県高知市大津乙972,1,,,33.5718304860658,133.599159535511,
560,E3920100377111,高知県立大学　池キャンパス,高知県高知市池2751-1,,,,33.5311559178785,133.582611357206,
561,E3920100381111,秦ふれあいセンター,高知県高知市中秦泉寺54-3,1,,,33.5800338076532,133.536795713472,
562,E3920100562111,秦中央保育園,高知県高知市中秦泉寺55-1,,,,33.579576,133.536631,
563,E3920100592121,グループホーム・デイサービスセンター　秦いきいき学校,高知県高知市中秦泉寺87-1,,,高齢者,33.57972,133.537384,
564,E3920100383111,高知ろう学校,高知県高知市中万々78,,,,33.5690261743661,133.51849020174,
565,E3920100383121,高知県立高知ろう学校,高知県高知市中万々78,,,要配慮者全般,33.5690261743661,133.51849020174,
566,E3920100384121,特別養護老人ホームふるさとの丘,高知県高知市朝倉己1149-106,,,要配慮者全般,33.5313857726097,133.478355236303,
567,E3920100385111,海老川市民会館,高知県高知市朝倉己419-3,1,,,33.5334945017298,133.490559495575,
568,E3920100386111,松田市民会館,高知県高知市朝倉己959-1,1,,,33.5382171449845,133.494234024374,
569,E3920100388111,朝倉中学校,高知県高知市朝倉丁604-1,1,,,33.5438226537571,133.480120475787,
570,E3920100389111,朝倉市民会館,高知県高知市朝倉東町24-33,1,,,33.5462383080072,133.497234983425,
571,E3920100563111,朝倉保育園,高知県高知市朝倉東町24-41,,,,33.546368,133.49758,
572,E3920100390111,朝倉総合市民会館,高知県高知市朝倉戊585-1,1,,,33.5383253595999,133.489062506829,
573,E3920100391112,朝倉小学校,高知県高知市朝倉本町2-11-20,1,,,33.5468946163343,133.486907181449,
574,E3920100391111,朝倉小学校放課後児童クラブ（第一第二・第三）,高知県高知市朝倉本町2-11-20,1,,,33.5468946163343,133.486907181449,
575,E3920100393111,介良潮見台小学校放課後児童クラブ（第一・第二）,高知県高知市潮見台1-2602-1,1,,,33.561934254423,133.620477700851,
576,E3920100393112,介良潮見台小学校,高知県高知市潮見台1-2602-1,1,,,33.561934254423,133.620477700851,
577,E3920100394112,潮江東小学校,高知県高知市潮新町2-1-54,1,,,33.5509517136511,133.551369075585,
578,E3920100394111,潮江東小学校放課後児童クラブ（第一・第二）,高知県高知市潮新町2-1-54,1,,,33.5509517136511,133.551369075585,
579,E3920100395111,旧御畳瀬小学校,高知県高知市長浜209,1,,,33.504742368376,133.554868359613,
580,E3920100396111,荒川電工テクニカルセンター,高知県高知市長浜365,,,,33.50805143,133.54642214,
581,E3920100567111,長浜保育園,高知県高知市長浜4118-2,,,,33.492407,133.545004,
582,E3920100397111,長浜市民会館,高知県高知市長浜4250,1,,,33.4914205684417,133.541888276523,
583,E3920100398111,長浜児童館,高知県高知市長浜4300-6,,,,33.4902346467914,133.540917066728,
584,E3920100400111,長浜小学校放課後児童クラブ（第一・第二）,高知県高知市長浜4811,1,,,33.4996056486594,133.546833793962,
585,E3920100400112,長浜小学校,高知県高知市長浜4811,1,,,33.4996056486594,133.546833793962,
586,E3920100401121,ユニット型特別養護老人ホーム　もとちか,高知県高知市長浜4975,1,,要配慮者全般,33.500257,133.551219,
587,E3920100402111,南海中学校,高知県高知市長浜5235,1,,,33.4966247243167,133.546625660158,
588,E3920100404112,てくとこ長浜,高知県高知市長浜6193,,,,33.509591,133.551385,
589,E3920100405111,宇賀公民館,高知県高知市長浜6327-1,,,,33.5134377485909,133.532987808485,
590,E3920100593121,小規模多機能型居宅介護事業所　かすみ草,高知県高知市長浜6557-29,,,高齢者、障害者（児）（身体）、妊産婦、乳幼児,33.497979,133.541062,
591,E3920100406122,特別養護老人ホームシーサイドホーム桂浜,高知県高知市長浜6598-4,1,,高齢者、障害者（児）（身体・精神）,33.49079202,133.5474827,
592,E3920100406121,特別養護老人ホームつむぐ,高知県高知市長浜6598-4,1,,高齢者、障害者（身体）,33.49079202,133.5474827,
593,E3920100408111,長浜ふれあいセンター,高知県高知市長浜690-5,1,,,33.50253251606,133.545221775302,
594,E3920100611111,高知競馬場,高知県高知市長浜宮田2000,,,,33.504713,133.5301,
595,E3920100409111,長浜集会所,高知県高知市長浜字馬場ノ元5276-1,,,,33.4944893433013,133.545132569814,
596,E3920100412111,高知追手前高等学校,高知県高知市追手筋2-2-10,1,,,33.5621506162329,133.536490002273,
597,E3920100415121,介護老人保健施設ピアハウス高知,高知県高知市塚ノ原36,,,高齢者,33.5611335740657,133.494893140303,
598,E3920100421121,介護老人保健施設　梅壽苑,高知県高知市土居町9-18,1,,要配慮者全般,33.5544548174817,133.544633225056,
599,E3920100422111,土佐山公民館,高知県高知市土佐山122-1,1,,,33.6349757593627,133.52836026556,
600,E3920100423111,梶谷公民館,高知県高知市土佐山梶谷1673-3,,,,33.634648,133.542866,
601,E3920100424111,土佐山学舎,高知県高知市土佐山桑尾13,1,,,33.6332954465337,133.526989693711,
602,E3920100574111,桑尾公会堂,高知県高知市土佐山桑尾1411-4,,,,33.63056,133.5159,
603,E3920100576111,とさやま保育園,高知県高知市土佐山桑尾1827,,,,33.631567,133.52625,
604,E3920100425121,土佐山健康福祉センター,高知県高知市土佐山桑尾1842-2,1,,要配慮者全般,33.6320905301381,133.526773948472,
605,E3920100425111,土佐山健康福祉センター,高知県高知市土佐山桑尾1842-2,1,,,33.6320905301381,133.526773948472,
606,E3920100426111,旧土佐山中学校（体育館）,高知県高知市土佐山弘瀬405,1,,,33.6227296591472,133.498509084539,
607,E3920100427111,高川公民館,高知県高知市土佐山高川1276-4,,,,33.642769,133.524754,
608,E3920100428111,土佐山夢産地パーク交流館,高知県高知市土佐山高川1592,,,,33.6340990379215,133.525620401779,
609,E3920100429111,高知市工石山青少年の家,高知県高知市土佐山高川1898-33,,,,33.6766430155021,133.516900023496,
610,E3920100430111,土佐山西川複合集会所,高知県高知市土佐山西川141,,,,33.6354052140347,133.556913496008,
611,E3920100431111,中切公民館,高知県高知市土佐山中切902-5,,,,33.638283,133.484446,
612,E3920100575111,東川公会堂,高知県高知市土佐山東川976-12,,,,33.651009,133.485857,
613,E3920100434112,泉野小学校,高知県高知市東秦泉寺788,1,,,33.5824113412207,133.548390997607,
614,E3920100434111,泉野小学校放課後児童クラブ（第一・第二・第三）,高知県高知市東秦泉寺788,1,,,33.5824113412207,133.548390997607,
615,E3920100551111,石立保育園,高知県高知市東石立町138-1,,,,33.552782,133.519938,
616,E3920100435111,高知北高等学校,高知県高知市東石立町160,1,,,33.5529816523802,133.519196371663,
617,E3920100445111,潮江市民会館,高知県高知市南河ノ瀬町161,1,,,33.5475537963025,133.523704315108,
618,E3920100446111,河ノ瀬児童館（学習室）,高知県高知市南河ノ瀬町33,,,,33.5482769109257,133.524178134887,
619,E3920100607111,河ノ瀬保育園,高知県高知市南河ノ瀬町8-9,,,,33.549635,133.524297,
620,E3920100448111,初月ふれあいセンター,高知県高知市南久万119-1,1,,,33.5743262867994,133.519577143402,
621,E3920100449111,初月小学校放課後児童クラブ（第一・第二・第三）,高知県高知市南久万128,1,,,33.5744026924815,133.518781867458,
622,E3920100449112,初月小学校,高知県高知市南久万128,1,,,33.5744026924815,133.518781867458,
623,E3920100454111,潮江水再生センター,高知県高知市南新田町5-69,1,,,33.5472622800546,133.557714109505,
624,E3920100460111,下知コミュニティセンター,高知県高知市二葉町10-7,1,,,33.5567487483928,133.556883412529,
625,E3920100594121,メディカルケアホーム　ナースケア,高知県高知市廿代町15-31,,,高齢者、特定医療費支給認定を受けた方（高齢者）、自立支援医療（育成医療）、受給者（高齢者）,33.56329,133.538696,
626,E3920100468112,昭和小学校,高知県高知市日の出町7-61,1,,,33.5598960144179,133.558242170807,
627,E3920100468111,昭和小学校放課後児童クラブ（第一・第二・第三）,高知県高知市日の出町7-61,1,,,33.5598960144179,133.558242170807,
628,E3920100475111,城北中学校,高知県高知市八反町1-8-14,1,,,33.5679165631728,133.525572209148,
629,E3920100602111,比島町集会所,高知県高知市比島町1-12-6,,,,33.56867626979,133.54990328861,
630,E3920100603111,百石町二丁目公民館,高知県高知市百石町2-25-19,,,,33.54670585694,133.54244433909,
631,E3920100604111,百石町二丁目東公民館,高知県高知市百石町2-32-19,,,,33.54679565489,133.544077912917,
632,E3920100484112,潮江小学校,高知県高知市百石町2-4-40,1,,,33.5488206074026,133.542483359752,
633,E3920100484111,潮江小学校放課後児童クラブ（第一・第二・第三）,高知県高知市百石町2-4-40,1,,,33.5488206074026,133.542483359752,
634,E3920100485111,南部健康福祉センター,高知県高知市百石町3-1-30,1,,,33.5451467997403,133.54807710386,
635,E3920100485121,南部健康福祉センター,高知県高知市百石町3-1-30,1,,要配慮者全般,33.5451467997403,133.54807710386,
636,E3920100605111,百石町四丁目公民館,高知県高知市百石町4-20-13,,,,33.544815,133.544083,
637,E3920100491111,布師田ふれあいセンター,高知県高知市布師田1647,1,,,33.5834754125162,133.595068419547,
638,E3920100608111,西谷公民館,高知県高知市布師田1660-2,,,,33.583593627723,133.5934028063,
639,E3920100612121,児童養護施設　愛仁園,高知県高知市布師田1711,,,発達障害のある児童生徒,33.584795,133.590877,
640,E3920100493111,布師田小学校,高知県高知市布師田1781-1,1,,,33.5830190794881,133.591468223333,
641,E3920100494111,高知刑務所,高知県高知市布師田3604-1,1,,,33.5891349313148,133.598566175705,
642,E3920100498111,福寿園,高知県高知市福井町748,1,,,33.5693489748059,133.511901451616,
643,E3920100501111,弥右衛門ふれあいセンター,高知県高知市北御座2-60,1,,,33.569118787,133.558480699336,
644,E3920100560111,弘法寺,高知県高知市北秦泉寺737,,,,33.584706,133.540848,
645,E3920100561111,土佐厳島神社,高知県高知市北秦泉寺793,,,,33.583556,133.540588,
646,E3920100503111,高知中学・高等学校,高知県高知市北端町100,,,,33.5611189372662,133.508602132882,
647,E3920100504111,旭東小学校放課後児童クラブ（第一・第二）,高知県高知市北端町50,1,,,33.5595384362968,133.507624696748,
648,E3920100504112,旭東小学校,高知県高知市北端町50,1,,,33.5595384362968,133.507624696748,
649,E3920100606111,北竹島町第二公民館,高知県高知市北竹島町4-8,,,,33.54515473496,133.54203271457,
650,E3920100507111,土佐塾中学・高等学校,高知県高知市北中山85,,,,33.5364477632858,133.529075064906,
651,E3920100519111,高知特別支援学校,高知県高知市本宮町125,1,,,33.5576297932993,133.498553821843,
652,E3920100519121,高知市立高知特別支援学校,高知県高知市本宮町125,1,,要配慮者全般,33.557527,133.498392,
653,E3920100520112,旭小学校,高知県高知市本宮町15,1,,,33.5567156680213,133.501018926547,
654,E3920100520111,旭小学校放課後児童クラブ（第一・第二）,高知県高知市本宮町15,1,,,33.5567156680213,133.501018926547,
655,E3920100549111,高知自動車学校,高知県高知市本宮町223,,,,33.555513,133.499076,
656,E3920100529111,県民文化ホール,高知県高知市本町4-3-30,1,,,33.5568007732718,133.533143094191,
657,E3920100588111,領家公民館,高知県高知市領家337,,,,33.581901,133.438912,
658,E3920100540121,特別養護老人ホームあざみの里,高知県高知市薊野北町2-25-8,,,要配慮者全般,33.5835980569413,133.556315834777,
659,E3920100541111,高知学芸中学・高等学校,高知県高知市槇山町11-12,,,,33.5376830009757,133.484110339792,
660,E3942800011111,黒潮消防署,高知県黒潮町伊田2629-1,1,,,33.032204655152,133.08175749362,
661,E3942800012111,旧黒潮町立伊田小学校,高知県黒潮町伊田565,1,,,33.037051066418,133.07391210627,
662,E3942800012121,旧伊田小学校,高知県黒潮町伊田565,1,,,33.036979,133.07386,
663,E3942800013111,伊田浦老人憩の家,高知県黒潮町伊田654,1,,,33.0357270017,133.074161028,
664,E3942800014111,旧黒潮町立伊田保育所,高知県黒潮町伊田808,1,,,33.035557210615,133.07727538225,
665,E3942800015111,伊田郷集会所,高知県黒潮町伊田８７１－イ,1,,,33.0363210003,133.078497964,
666,E3942800024111,伊与喜集会所,高知県黒潮町伊与喜354,1,,,33.1079709974,133.095556029,
667,E3942800025111,黒潮町立佐賀保育所,高知県黒潮町伊与喜699-1,1,,,33.10490430384,133.10158040605,
668,E3942800026111,黒潮町立伊与喜小学校,高知県黒潮町伊与喜78,1,,,33.1052160452,133.100024075,
669,E3942800027111,黒潮町立湊川ふれあいセンター,高知県黒潮町奥湊川3091,1,,,33.0629580033,133.025910038,
670,E3942800028111,奥湊川老人憩の家,高知県黒潮町奥湊川3102,1,,,33.0624450007,133.025952956,
671,E3942800040111,田の口地区防災まちづくり拠点施設（田の口消防屯所）,高知県黒潮町下田の口1036-5,1,,,33.014069,132.998385,
672,E3942800041111,黒潮町立田ノ口小学校,高知県黒潮町下田の口1925,1,,,33.0158318057,132.991618692,
673,E3942800042111,グループホーム　しらゆり,高知県黒潮町下田の口2153,1,,,33.012957999,132.986761972,
674,E3942800043111,下田の口コミュニティーセンター,高知県黒潮町下田の口72,1,,,33.0131079985,133.001063029,
675,E3942800045111,緑野集会所,高知県黒潮町下田の口822-142,1,,,33.01767891449,132.9969607769,
676,E3942800065111,小川集落センター,高知県黒潮町加持121-1,1,,,33.042933002,133.020000957,
677,E3942800066111,加持本村集会所,高知県黒潮町加持2186-4,1,,,33.0499939983,133.006091983,
678,E3942800067111,黒潮町立加持ふれあいセンター,高知県黒潮町加持3181,1,,,33.0430660005,133.010809003,
679,E3942800068111,大方誠心園,高知県黒潮町加持33,1,,,33.0395130556,133.021539123,
680,E3942800068121,大方誠心園,高知県黒潮町加持33,1,,要配慮者,33.0395130556,133.021539123,
681,E3942800069111,田村集会所,高知県黒潮町加持3320-1,1,,,33.0418370013,133.01256702,
682,E3942800070111,本谷集会所,高知県黒潮町加持川1843-1,1,,,33.0692409956,132.996352979,
683,E3942800071111,旧黒潮町立北郷小学校,高知県黒潮町加持川850,1,,,33.056963440345,132.99663463576,
684,E3942800072111,大屋式集会所,高知県黒潮町加持川853,1,,,33.057101360641,132.9972345086,
685,E3942800075111,荷稲集会所,高知県黒潮町荷稲472-2,1,,,33.1328930015,133.119883003,
686,E3942800076111,黒潮町立拳ノ川小学校,高知県黒潮町挙ノ川243,1,,,33.1454810011,133.120815017,
687,E3942800077111,旧黒潮町立拳ノ川保育所,高知県黒潮町挙ノ川46-1,1,,,33.1362699992,133.123973022,
688,E3942800082111,熊井集会所,高知県黒潮町熊井279-3,1,,,33.100206095814,133.10174670302,
689,E3942800083111,幡東森林組合,高知県黒潮町熊井346-8,1,,,33.1002632048,133.09623766,
690,E3942800087111,熊野浦集会所,高知県黒潮町熊野浦205-159,1,,,33.101114,133.134668,
691,E3942800093121,保健福祉支援センターこぶし,高知県黒潮町拳ノ川17-3,1,,要配慮者,33.1355479987,133.123282042,
692,E3942800093111,保健福祉支援センターこぶし,高知県黒潮町拳ノ川17-3,1,,,33.1355479987,133.123282042,
693,E3942800096111,拳ノ川集会所,高知県黒潮町拳ノ川233-1,1,,,33.1442529954,133.121600983,
694,E3942800097111,御坊畑集会所,高知県黒潮町御坊畑130,1,,,33.0219550042,132.980591993,
695,E3942800100111,口湊川集会所,高知県黒潮町口湊川996,1,,,33.055492525757,133.0268634625,
696,E3942800124111,黒潮町総合センター,高知県黒潮町佐賀1080-1,1,,,33.0795302577,133.102830665,
697,E3942800125111,上分集会所,高知県黒潮町佐賀1604,1,,,33.0911110051,133.099016003,
698,E3942800126111,坂折集会所,高知県黒潮町佐賀2560-6,1,,,33.08463325364,133.09677296251,
699,E3942800127111,馬地集会所,高知県黒潮町佐賀2757-2,1,,,33.080289001,133.09921298,
700,E3942800129111,黒潮町立佐賀町民館,高知県黒潮町佐賀2995-40,1,,,33.0752230912,133.105867659,
701,E3942800131121,黒潮町特別養護老人ホーム　かしま荘,高知県黒潮町佐賀3177,1,,要配慮者,33.062412278118,133.10581122964,
702,E3942800132111,黒潮町ディサービスセンター　鹿島ヶ浦,高知県黒潮町佐賀3177-10,1,,,33.063113299407,133.10607570764,
703,E3942800134111,旧黒潮町立横浜保育所,高知県黒潮町佐賀3537-1,1,,,33.074794957332,133.10586210812,
704,E3942800135111,佐賀漁協,高知県黒潮町佐賀381,1,,,33.07768423643,133.11053269474,
705,E3942800136111,黒潮町立佐賀中学校,高知県黒潮町佐賀600,1,,,33.0824651016,133.106406622,
706,E3942800138111,漁民研修センター,高知県黒潮町佐賀773-6,1,,,33.07854994,133.10838835,
707,E3942800139111,ＪＡ高知はた佐賀支所,高知県黒潮町佐賀888,1,,,33.0807877415,133.104645747,
708,E3942800140111,黒潮町立佐賀小学校,高知県黒潮町佐賀960,1,,,33.0823109982,133.104756382,
709,E3942800141111,佐賀交流センターみらい（旧黒潮町立佐賀保育所）,高知県黒潮町佐賀967-1,1,,,33.081783821893,133.10515847287,
710,E3942800141121,佐賀交流センターみらい（旧黒潮町立佐賀保育所）,高知県黒潮町佐賀967-1,1,,要配慮者,33.08178382,133.1051585,
711,E3942800146111,佐賀橘川集会所,高知県黒潮町佐賀橘川773,1,,,33.1492700047,133.132413976,
712,E3942800155111,市野々川団地集会所,高知県黒潮町市野々川9-2,1,,,33.1109209955,133.103201033,
713,E3942800156111,市野々川集会所,高知県黒潮町市野々川955-2,1,,,33.118269567697,133.10190227114,
714,E3942800149111,市野瀬集会所,高知県黒潮町市野瀬547-1,1,,,33.16257235621,133.14011788565,
715,E3942800164121,介護療養型老人保健施設ことぶき,高知県黒潮町出口2070,1,,要配慮者,32.980899061,132.994645137,
716,E3942800165111,黒潮町立三浦小学校,高知県黒潮町出口2480,1,,,32.990847205141,132.99671311823,
717,E3942800166111,出口集会所,高知県黒潮町出口272-2,1,,,32.9852719963,133.000134004,
718,E3942800325121,大方生華園第２,高知県黒潮町出口4-9,1,,要配慮者,32.9897170959564,133.001130820974,
719,E3942800325111,大方生華園第２,高知県黒潮町出口4-9,1,,,32.9897171,133.0011308,
720,E3942800167111,出口避難集会所（出口消防屯所合築）,高知県黒潮町出口626,1,,,32.986322,132.997741,
721,E3942800171111,小黒ノ川集会所,高知県黒潮町小黒の川156,1,,,33.1231889993,133.120881989,
722,E3942800180111,黒潮町立大方くじら保育所,高知県黒潮町上川口1068-1,1,,,33.041069971834,133.05173954352,
723,E3942800181111,高知県立幡多青少年の家,高知県黒潮町上川口1166,1,,,33.040638269904,133.04928264006,
724,E3942800182111,王迎集会所,高知県黒潮町上川口1252-2,1,,,33.039795338464,133.04840754854,
725,E3942800183111,王無集会所,高知県黒潮町上川口1499-2,1,,,33.03817908301,133.04204261888,
726,E3942800185111,旧黒潮町立上川口保育所,高知県黒潮町上川口564-2,1,,,33.0415736075,133.05809225,
727,E3942800186111,黒潮町立上川口小学校,高知県黒潮町上川口569,1,,,33.0413967418,133.057446625,
728,E3942800187111,上川口浦集会所,高知県黒潮町上川口733-8,1,,,33.040195703,133.058106407,
729,E3942800188111,上川口郷集落センター,高知県黒潮町上川口885-8,1,,,33.0428099994,133.05625099,
730,E3942800189111,旧黒潮町立上田の口保育所,高知県黒潮町上田の口107,1,,,33.010377624,132.986308079,
731,E3942800190111,上田の口集会所,高知県黒潮町上田の口67,1,,,33.010852817208,132.98479695902,
732,E3942800193111,川奥集会所,高知県黒潮町川奥289,1,,,33.1402790048,133.114331035,
733,E3942800194111,大井川集会所,高知県黒潮町大井川71,1,,,33.065503178213,132.98230235954,
734,E3942800195111,大方橘川集会所,高知県黒潮町大方橘川539-2,1,,,33.04666860816,132.98753257647,
735,E3942800196111,中ノ川集会所,高知県黒潮町中ノ川166,1,,,33.1256510032,133.134348049,
736,E3942800209111,田野浦避難集会所,高知県黒潮町田野浦1028,1,,,32.996092,133.002423,
737,E3942800210111,田野浦多目的研修集会施設,高知県黒潮町田野浦2706-1,1,,,32.9961490049,133.004122038,
738,E3942800212111,田野浦地区防災活動拠点施設（田野浦消防屯所）,高知県黒潮町田野浦652-2,1,,,32.99586374,133.000176,
739,E3942800362111,黒潮町立南部保育所,高知県黒潮町田野浦１６４－２,1,,,32.991572057265,132.998998963741,
740,E3942800217111,藤縄集会所,高知県黒潮町藤縄784-3,1,,,33.0959859977,133.092037974,
741,E3942800223111,灘集会所,高知県黒潮町灘432,1,,,33.033137002,133.09334902,
742,E3942800235111,芝集会所,高知県黒潮町入野1196-1,1,,,33.0213659992,133.005167027,
743,E3942800238111,入野本村集会所,高知県黒潮町入野1510-8,1,,,33.0218581621,133.008017858,
744,E3942800239111,ふるさと総合センター,高知県黒潮町入野176-2,1,,,33.020114328956,133.01292002289,
745,E3942800240111,ネスト・ウェストガーデン土佐,高知県黒潮町入野184,1,,,33.01903,133.012088,
746,E3942800241111,黒潮町保健福祉センター,高知県黒潮町入野2017-1,1,,,33.0245305279,133.011258547,
747,E3942800242111,浜の宮集会所,高知県黒潮町入野2310-2,1,,,33.02445423377,133.01334825207,
748,E3942800244111,早咲集会所,高知県黒潮町入野3799,1,,,33.0343519954,133.01506898,
749,E3942800245111,旧黒潮町立早咲保育所,高知県黒潮町入野3803-2,1,,,33.034570004747,133.01538254243,
750,E3942800246121,あったかふれあいセンターにしきの広場,高知県黒潮町入野5191-22,1,,要配慮者,33.030262,133.008527,
751,E3942800246111,あったかふれあいセンターにしきの広場,高知県黒潮町入野5191-22,1,,,33.030262,133.008527,
752,E3942800247111,錦野老人憩の家,高知県黒潮町入野5196-67,1,,,33.0307145616,133.006162067,
753,E3942800248111,黒潮町立大方中学校,高知県黒潮町入野5220,1,,,33.0284644925,133.008818161,
754,E3942800250111,高知県立大方高等学校,高知県黒潮町入野5507,1,,,33.0271180411,133.008265974,
755,E3942800251111,黒潮町立入野小学校,高知県黒潮町入野5556,1,,,33.0255958463,133.008431036,
756,E3942800252111,黒潮町立大方中央保育所,高知県黒潮町入野5695,1,,,33.0277,133.006404,
757,E3942800253111,入野地区防災まちづくり拠点施設（入野消防屯所）,高知県黒潮町入野5919-1,1,,,33.023779,133.003997,
758,E3942800256111,黒潮町立大方町民館,高知県黒潮町入野833-1,1,,,33.018460773201,133.00814250071,
759,E3942800257111,黒潮町立浜松教育集会所,高知県黒潮町入野841-5,1,,,33.018483263387,133.00803521234,
760,E3942800258111,黒潮町立友愛集会所,高知県黒潮町入野854-3,1,,,33.0190709954,133.009421975,
761,E3942800259111,黒潮町立大方児童館,高知県黒潮町入野873-2,1,,,33.019648107,133.008163356,
762,E3942800237111,新町集会所,高知県黒潮町入野１４３８－イ,1,,,33.020906403736,133.01039363367,
763,E3942800324111,福堂集落センター,高知県黒潮町馬荷1938,1,,,33.058009,132.978823,
764,E3942800261111,中馬荷集落センター,高知県黒潮町馬荷2854-4,1,,,33.0488179956,132.970681013,
765,E3942800262111,下馬荷集落センター,高知県黒潮町馬荷3239,1,,,33.041373704556,132.9714151825,
766,E3942800263111,旧黒潮町立馬荷小学校,高知県黒潮町馬荷3259,1,,,33.041823390266,132.97024037496,
767,E3942800266111,白浜集会所,高知県黒潮町白浜19,1,,,33.0574050041,133.098384006,
768,E3942800280111,不破原集会所,高知県黒潮町不破原425-3,1,,,33.1094660046,133.109865022,
769,E3942800286111,鞭地区防災まちづくり拠点施設（鞭消防屯所）,高知県黒潮町浮鞭1821,1,,,33.03894,133.032841,
770,E3942800287111,鞭集会所,高知県黒潮町浮鞭1944-1,1,,,33.0378770023,133.033146986,
771,E3942800288111,浮津避難集会所,高知県黒潮町浮鞭2704,1,,,33.039419,133.0370263,
772,E3942800289111,弘野集会所,高知県黒潮町浮鞭300,1,,,33.035499259715,133.0237118669,
773,E3942800290111,浮津集落センター,高知県黒潮町浮鞭3588-1,1,,,33.0381729975,133.037353015,
774,E3942800291111,土佐ユートピアカントリークラブ,高知県黒潮町浮鞭3878,1,,,33.054087173699,133.03778374138,
775,E3942800292111,鞭老人憩の家,高知県黒潮町浮鞭3953,,,,33.0353180032,133.030089035,
776,E3942800293111,旧黒潮町立東部保育所,高知県黒潮町浮鞭3954-1,1,,,33.0351811041,133.028825877,
777,E3942800294111,黒潮町立南郷小学校,高知県黒潮町浮鞭717,1,,,33.0378098536,133.026066757,
778,E3942800305121,特別養護老人ホーム　シーサイドホーム,高知県黒潮町有井川12-1,1,,要配慮者,33.038434147688,133.06090747302,
779,E3942800305111,通所介護施設しおかぜ,高知県黒潮町有井川12-1,1,,,33.037516301513,133.06084143705,
780,E3942800306111,有井川多目的研修集会施設,高知県黒潮町有井川1809-1,1,,,33.038224146368,133.07033660343,
781,E3942800313111,旧黒潮町立鈴小学校,高知県黒潮町鈴210,1,,,33.126702124861,133.15665753323,
782,E3942800314111,鈴集会所（漁民研修センター）,高知県黒潮町鈴211-9,1,,,33.125810275659,133.15534532844,
783,E3942800315111,旧黒潮町立鈴保育所,高知県黒潮町鈴258,1,,,33.127465847836,133.15536470848,
784,E3942800319111,米原集会所,高知県黒潮町蜷川2630,1,,,33.0883909992,133.067484,
785,E3942800320111,仲分川集会所,高知県黒潮町蜷川3649-1,1,,,33.076364366632,133.03760771207,
786,E3942800321111,伴太郎集会所,高知県黒潮町蜷川3713-13,1,,,33.098724535547,133.05209594317,
787,E3942800322111,黒潮町立蜷川ふれあいセンター,高知県黒潮町蜷川666,1,,,33.059676767538,133.04323351969,
788,E3942800322112,蜷川健康支援センター,高知県黒潮町蜷川666,1,,,33.059536659245,133.04312104312,
789,E3942800323111,蜷川生活改善センター,高知県黒潮町蜷川802,1,,,33.059815005,133.042759963,
790,E3940200003111,佐川ふれあいセンター遊学館・さかわ児童館,高知県佐川町永野1704,,,,33.491397,133.304328,
791,E3940200014111,佐川町立佐川小学校体育館,高知県佐川町乙2166,,,,33.506117,133.282598,
792,E3940200014112,佐川町立佐川小学校校舎,高知県佐川町乙2166,,,,33.506117,133.282598,
793,E3940200038111,佐川町立佐川中学校体育館,高知県佐川町甲1936-1,,,,33.494256,133.301244,
794,E3940200038112,佐川町立佐川中学校校舎,高知県佐川町甲1936-1,,,,33.498444,133.30333,
795,E3940200039111,佐川町総合文化センター町民体育館,高知県佐川町甲356-2,,,,33.498792,133.302662,
796,E3940200039112,佐川町総合文化センター施設,高知県佐川町甲356-2,,,,33.498792,133.302662,
797,E3940200043112,佐川町立黒岩中学校校舎,高知県佐川町黒原2799,,,,33.544118,133.284812,
798,E3940200043111,佐川町立黒岩中学校体育館,高知県佐川町黒原2799,,,,33.544118,133.284812,
799,E3940200047112,佐川町立黒岩小学校校舎,高知県佐川町黒原482,,,,33.546187,133.279443,
800,E3940200047111,佐川町立黒岩小学校体育館,高知県佐川町黒原482,,,,33.546187,133.279443,
801,E3940200068111,佐川町立斗賀野小学校体育館,高知県佐川町中組77,,,,33.47695,133.284835,
802,E3940200068112,佐川町立斗賀野小学校校舎,高知県佐川町中組77,,,,33.47695,133.284835,
803,E3940200086111,佐川町立尾川小中学校体育館,高知県佐川町本郷耕1879,,,,33.493784,133.250967,
804,E3940200098111,佐川町立尾川小中学校校舎,高知県佐川町本郷耕1883,,,,33.493784,133.250967,
805,E3942700001111,下切集会所,高知県三原村下切584-3,1,,,32.889079,132.793422,
806,E3942700002111,下長谷集会所,高知県三原村下長谷1579-4,1,,,32.8952579571894,132.867792929526,
807,E3942700003111,皆尾集会所,高知県三原村皆尾1351,1,,,32.8940110059988,132.848216018012,
808,E3942700004111,亀ノ川集会所,高知県三原村亀ノ川367-1,1,,,32.8913261733501,132.81362499312,
809,E3942700005111,三原中学校,高知県三原村宮ノ川1035,1,,,32.9114372597429,132.844239612076,
810,E3942700007111,三原村農業構造改善センター,高知県三原村宮ノ川1130,1,,,32.9129799976131,132.845135874108,
811,E3942700008121,特別養護老人ホーム　星ヶ丘,高知県三原村宮ノ川1271-10,1,,,32.9228716827573,132.841634687818,
812,E3942700008111,特別養護老人ホーム　星ヶ丘,高知県三原村宮ノ川1271-10,1,,,32.9228716827573,132.841634687818,
813,E3942700009111,星ヶ丘集会所,高知県三原村宮ノ川1271-8,1,,,32.9221360083056,132.839267976668,
814,E3942700010111,グループホームほうばい,高知県三原村宮ノ川1420-5,1,,,32.9189388693054,132.845175970788,
815,E3942700010121,グループホームほうばい,高知県三原村宮ノ川1420-5,1,,,32.9189388693054,132.845175970788,
816,E3942700012111,広野集会所,高知県三原村広野929,1,,,32.891349,132.829929,
817,E3942700013111,上下長谷集会所,高知県三原村上下長谷155-1,1,,,32.9067187269,132.861326335474,
818,E3942700014111,上長谷集会所,高知県三原村上長谷1727,,,,32.9240077953325,132.871307283438,
819,E3942700015111,成山集会所,高知県三原村成山362-8,1,,,32.9242710547652,132.910684206435,
820,E3942700016111,芳井集会所,高知県三原村芳井185-123,1,,,32.890034,132.895665,
821,E3942700017111,柚ノ木多目的集会所,高知県三原村柚ノ木1243-3,1,,,32.906151846213,132.838972737418,
822,E3942700018111,三原小学校,高知県三原村柚ノ木47,1,,,32.9101508617691,132.84421325609,
823,E3942700019111,来栖野集会所,高知県三原村来栖野240-1,1,,,32.9027218870809,132.846788479359,
824,E3942700020111,狼内集会所,高知県三原村狼内452-2,1,,,32.9295777722445,132.89611604162,
825,E3921000001111,武道館,高知県四万十市安並4178,1,,,33.005209,132.939259,
826,E3921000002111,市民スポーツセンター,高知県四万十市安並4231,1,,,33.0047454174475,132.940686458549,
827,E3921000003111,四万十の郷,高知県四万十市安並5803,,,,33.0022883019198,132.94018167612,
828,E3921000005111,井沢防災コミュニティセンター,高知県四万十市井沢38-2,1,,,32.9755758447779,132.964556886639,
829,E3921000094111,虹の丘,高知県四万十市右山1973-6,,,,32.977962,132.945276,
830,E3921000007111,夢の丘,高知県四万十市右山2041-18,,,,32.9792365097818,132.946638375804,
831,E3921000098111,四万十市総合文化センター（しまんとぴあ）,高知県四万十市右山五月町7-7,1,,,32.988174,132.940018,
832,E3921000016111,（旧）下田中学校,高知県四万十市下田3216-1,1,,,32.9450136036105,132.990995643563,
833,E3921000019111,四万十ＣＣクラブハウス,高知県四万十市間崎1495-2,1,,,32.9499748146454,132.969688997709,
834,E3921000021111,中村西中学校,高知県四万十市具同7058-1,1,,,32.9865653743756,132.901566950214,
835,E3921000022111,具同小学校,高知県四万十市具同田黒1-4-1,1,,,32.9898995230239,132.919983978538,
836,E3921000023111,わかふじ寮,高知県四万十市古津賀1801-1,,,,32.9825180841264,132.95447248575,
837,E3921000025111,中村特別支援学校（体育館）,高知県四万十市古津賀3091,1,,,32.9912013372808,132.970621833309,
838,E3921000026111,幡多農業高等学校（体育館）,高知県四万十市古津賀3711,1,,,32.984273384761,132.966313892799,
839,E3921000027111,光優,高知県四万十市古津賀3742-17,,,,32.9905483777844,132.977827380238,
840,E3921000028111,（旧）東中筋中学校,高知県四万十市国見222,1,,,32.9778891819653,132.882940667662,
841,E3921000029111,東中筋小学校,高知県四万十市国見460,1,,,32.9764636055354,132.885920893907,
842,E3921000032111,坂本防災コニュニティセンター,高知県四万十市坂本610,1,,,32.9754581886411,132.932232099782,
843,E3921000033111,山路防災コニュニティセンター,高知県四万十市山路2396-4,1,,,32.9586145248797,132.945000558341,
844,E3921000034111,名鹿集会所,高知県四万十市山路465,,,,32.918206,133.000191,
845,E3921000035111,八束小学校,高知県四万十市実崎1230,1,,,32.9555722883745,132.968488262581,
846,E3921000036111,（旧）勝間小学校（校舎）,高知県四万十市勝間114-1,1,,,33.060263628447,132.821493724443,
847,E3921000037111,（旧）常六小学校,高知県四万十市常六272,1,,,33.1291114857182,133.013250574145,
848,E3921000038111,深木防災コミュニティセンター,高知県四万十市深木2409-1,1,,,32.9439940114949,132.952720122829,
849,E3921000040111,（旧）奥屋内小学校,高知県四万十市西土佐奥屋内955-1,1,,,33.1116837607886,132.707063457674,
850,E3921000041111,（旧）下家地小学校,高知県四万十市西土佐下家地1379,1,,,33.1684152606006,132.746296978165,
851,E3921000044111,（旧）口屋内小学校,高知県四万十市西土佐口屋内280-1,1,,,33.0975289705906,132.799278357517,
852,E3921000046111,権谷せせらぎ交流館へきち集会所,高知県四万十市西土佐江川2940,1,,,33.2330417336792,132.789408230981,
853,E3921000047111,（旧）本村小学校,高知県四万十市西土佐江川619,1,,,33.2085462325428,132.789060880524,
854,E3921000051111,（旧）須崎小学校,高知県四万十市西土佐須崎81-3,1,,,33.1472082470459,132.750645558171,
855,E3921000052111,（旧）西ヶ方小学校,高知県四万十市西土佐西ケ方544-1,1,,,33.1891492725167,132.766508548474,
856,E3921000055111,（旧）大宮小学校,高知県四万十市西土佐大宮522,1,,,33.1418138400234,132.737846951262,
857,E3921000056111,中半体育館,高知県四万十市西土佐中半408-1,1,,,33.1170463902065,132.812710639818,
858,E3921000057111,（旧）津野川小学校,高知県四万十市西土佐津野川208,,,,33.150427,132.78171,
859,E3921000058111,中村高等学校西土佐分校　体育館,高知県四万十市西土佐津野川223,1,,,33.1497129895542,132.781786750421,
860,E3921000059111,（旧）藤ノ川小学校,高知県四万十市西土佐藤ノ川640-2,1,,,33.1590879644541,132.840069527775,
861,E3921000061111,かわせみ,高知県四万十市西土佐用井1110-1,,,,33.1728515489091,132.7947592482,
862,E3921000062111,西土佐小学校,高知県四万十市西土佐用井1110-33,1,,,33.1720581326908,132.793336057284,
863,E3921000063111,西土佐中学校,高知県四万十市西土佐用井1111-1,1,,,33.1706592621552,132.793248736143,
864,E3921000065111,（旧）大川筋中学校,高知県四万十市川登1106-10,1,,,33.0306356953798,132.853416227759,
865,E3921000066111,双海防災コミュニティセンター,高知県四万十市双海688,1,,,32.9725705795485,132.997872964054,
866,E3921000067111,大用中学校,高知県四万十市大用393,1,,,33.1042616628715,132.961876368072,
867,E3921000068111,大用小学校,高知県四万十市大用428,1,,,33.1027465640895,132.9621386396,
868,E3921000069111,（旧）竹屋敷小中学校,高知県四万十市竹屋敷９２９－ロ,1,,,33.0975270721362,132.900536170517,
869,E3921000070111,竹島小学校,高知県四万十市竹島3332,1,,,32.9684913445002,132.976700613047,
870,E3921000072111,竹島防災コミュニティセンター,高知県四万十市竹島409,1,,,32.9680918224607,132.971870761094,
871,E3921000095111,「アオ」,高知県四万十市中村一条通4-5-23,,,,32.991378,132.938267,
872,E3921000073111,中村高等学校（体育館）,高知県四万十市中村丸の内24,1,,,32.9983770935592,132.93160405344,
873,E3921000096121,ケアハウス四万十,高知県四万十市中村山手通45-2,,,,32.992296,132.931676,
874,E3921000096111,ケアハウス四万十,高知県四万十市中村山手通45-2,,,,32.992296,132.931676,
875,E3921000076111,中村小学校,高知県四万十市中村新町3-20,1,,,32.9957442118109,132.936151555385,
876,E3921000078111,中村中学校,高知県四万十市中村東町2-1-30,1,,,32.9959323528389,132.937178741031,
877,E3921000080111,（旧）田野川小学校,高知県四万十市田野川1240,1,,,33.0329634771693,132.923024440613,
878,E3921000081111,中村南小学校,高知県四万十市不破上町1949-1,1,,,32.9861283104745,132.935466330467,
879,E3921000083111,（旧）片魚中学校,高知県四万十市片魚139-7,1,,,33.1201834156044,132.986612175084,
880,E3921000084111,（旧）片魚小学校,高知県四万十市片魚316,1,,,33.1331990723847,132.984741518594,
881,E3921000085111,（旧）中筋中学校,高知県四万十市有岡1008,1,,,32.9618923296246,132.829954978355,
882,E3921000087111,中筋小学校,高知県四万十市有岡931,1,,,32.9616222739077,132.831086870561,
883,E3921000088111,利岡小学校,高知県四万十市利岡132,1,,,33.0190748489674,132.904584040865,
884,E3921000089111,（旧）利岡小学校,高知県四万十市利岡137,1,,,33.0195851496689,132.904084994565,
885,E3921000090111,わかふじ寮,高知県四万十市蕨岡甲6451-2,,,,33.0493589734116,132.945834949841,
886,E3921000091111,蕨岡小学校,高知県四万十市蕨岡甲6685,1,,,33.0464302828742,132.942894585089,
887,E3921000092111,蕨岡保育所（園舎）,高知県四万十市蕨岡甲6797,1,,,33.0455955297484,132.942188987107,
888,E3921000093111,（旧）蕨岡中学校,高知県四万十市蕨岡甲6959,1,,,33.0419284328504,132.941293575888,
889,E3941200207111,井﨑集会所,高知県四万十町井崎1165-1,,,,33.20413046,132.84683,
890,E3941200208111,保喜集会所,高知県四万十町井崎72-1,,,,33.21816501,132.8494506,
891,E3941200209111,一斗俵集会所,高知県四万十町一斗俵478-8,,,,33.2867424,133.1107649,
892,E3941200005111,十和東部地区交流センター,高知県四万十町浦越108,,,,33.19807697,132.9481768,
893,E3941200211111,特別養護老人ホーム窪川荘,高知県四万十町影野640-2,,,,33.27566344,133.1726862,
894,E3941200211121,特別養護老人ホーム窪川荘,高知県四万十町影野640-2,,,,33.27566344,133.1726862,
895,E3941200007112,集落活動センター仁井田のりん家,高知県四万十町影野653,,,,33.276135,133.172002,
896,E3941200007111,影野小学校体育館,高知県四万十町影野653,,,,33.27597455,133.1705949,
897,E3941200212111,影野町民会館,高知県四万十町影野661-1,,,,33.27530731,133.1718599,
898,E3941200009111,影野上部落集会所,高知県四万十町影野973,,,,33.28570176,133.1759572,
899,E3941200010111,奥呉地集会所,高知県四万十町奥呉地249-1,,,,33.29265538,133.150995,
900,E3941200011111,下岡集会所,高知県四万十町下岡140-4,,,,33.18188922,133.0046904,
901,E3941200012111,下呉地集会所,高知県四万十町下呉地241-2,,,,33.2730415,133.1678194,
902,E3941200013111,山株集会所,高知県四万十町下呉地787,,,,33.26481964,133.1699049,
903,E3941200015111,旧下津井小学校体育館,高知県四万十町下津井57,,,,33.29177184,132.9392293,
904,E3941200016111,下道集会所,高知県四万十町下道38-2,,,,33.26609008,132.9604219,
905,E3941200017111,家地川集会所,高知県四万十町家地川617,,,,33.16249819,133.0784949,
906,E3941200018111,家地川地域活性化拠点施設,高知県四万十町家地川689-3,,,,33.16596717,133.0735757,
907,E3941200019111,河内集会所,高知県四万十町河内185-2,,,,33.21746668,132.8682797,
908,E3941200020111,茅吹手公民館,高知県四万十町茅吹手199-3,,,,33.21555032,132.9368901,
909,E3941200021111,希ノ川集会所,高知県四万十町希ノ川81-1,,,,33.17757822,132.9913416,
910,E3941200022121,高齢者多機能施設　十和の里,高知県四万十町久保川41-1,,,,33.23240718,132.877064,
911,E3941200022112,十和体育館,高知県四万十町久保川41-1,,,,33.23162907,132.8770552,
912,E3941200022111,高齢者多機能施設　十和の里,高知県四万十町久保川41-1,,,,33.23240718,132.877064,
913,E3941200023111,久保川集会所,高知県四万十町久保川425-2,,,,33.23447371,132.8796925,
914,E3941200024111,仕出原集会所,高知県四万十町宮内1856,,,,33.22108625,133.1246187,
915,E3941200025111,宮内集会所,高知県四万十町宮内463-2,,,,33.22775243,133.1276281,
916,E3941200026111,魚の川集会所,高知県四万十町魚の川519-4,,,,33.27913641,133.1568653,
917,E3941200029111,興津地区多目的集会所,高知県四万十町興津1408-1,,,,33.16980807,133.2051489,
918,E3941200030111,興津小学校（体育館）,高知県四万十町興津1572,,,,33.16807324,133.2064303,
919,E3941200033111,興津浦分集会所,高知県四万十町興津2055-1,,,,33.16601344,133.2125686,
920,E3941200034111,興津第１団地集会所,高知県四万十町興津2077,,,,33.16820207,133.2115181,
921,E3941200035111,興津中央集会所,高知県四万十町興津2092-5,,,,33.16672315,133.2097689,
922,E3941200036111,興津町民館,高知県四万十町興津2187-2,,,,33.16144975,133.2086001,
923,E3941200038111,興津保育所（デイサービス）,高知県四万十町興津2502-1,,,,33.17694629,133.2017556,
924,E3941200039111,防災活動拠点施設（興津）,高知県四万十町興津2517-2,1,,,33.17695078,133.2008597,
925,E3941200003112,デイサービスセンターさくら貝,高知県四万十町興津2520-1,,,,33.17686547,133.2014015,
926,E3941200003121,デイサービスセンターさくら貝,高知県四万十町興津2520-1,,,,33.17686547,133.2014015,
927,E3941200045111,役場本庁舎（西１階、東１・２階）,高知県四万十町琴平町16-17,,,,33.21163577,133.1370379,
928,E3941200046111,窪川小学校体育館,高知県四万十町琴平町500-4,,,,33.21160243,133.1336626,
929,E3941200047111,金上野集会所,高知県四万十町金上野1108-1,,,,33.18896975,133.1423095,
930,E3941200048111,金上野県営住宅内集会所,高知県四万十町金上野1261,,,,33.20257274,133.1417452,
931,E3941200049111,町営住宅団地金上野集会所,高知県四万十町金上野1330-2,,,,33.2033949,133.144801,
932,E3941200050111,金上野下集会所,高知県四万十町金上野1565-3,,,,33.19801526,133.1430391,
933,E3941200213111,神ノ西集会所,高知県四万十町窪川字中谷1054,,,,33.213872,133.122595,
934,E3941200051111,中津川部落集会所,高知県四万十町窪川中津川1013-3,,,,33.2914666,133.1036762,
935,E3941200052111,下栗集会所,高知県四万十町窪川中津川823-7,,,,33.30198825,133.1005126,
936,E3941200053111,見付集会所,高知県四万十町見付394-1,,,,33.20696489,133.1605456,
937,E3941200054112,見付老人憩いの家,高知県四万十町見付977-1,,,,33.20655471,133.1486067,
938,E3941200054111,見付町民館,高知県四万十町見付977-1,,,,33.20660857,133.1484994,
939,E3941200055111,古城生活改善センター,高知県四万十町古城1376-12,,,,33.24924262,132.8260592,
940,E3941200056111,古城下組集会所,高知県四万十町古城1410,,,,33.24485943,132.8313407,
941,E3941200057111,古城奥組集会所,高知県四万十町古城341,,,,33.26334615,132.8291333,
942,E3941200058111,旧古城小学校（体育館）,高知県四万十町古城875-2,,,,33.24977224,132.8216076,
943,E3941200059111,戸川生活改善センター,高知県四万十町戸川430,,,,33.25400602,132.8518737,
944,E3941200060111,旧口神ノ川小学校体育館,高知県四万十町口神ノ川208,,,,33.19690319,133.1081116,
945,E3941200061111,旧広井小学校体育館,高知県四万十町広瀬583-13,,,,33.2097061,132.8489987,
946,E3941200062111,広瀬集会所,高知県四万十町広瀬字クボ畠582-1,,,,33.20950189,132.8493072,
947,E3941200063111,弘見集会所,高知県四万十町弘見491,,,,33.2309071,133.2018578,
948,E3941200064111,弘瀬集会所,高知県四万十町弘瀬459-3,,,,33.16873472,133.0545328,
949,E3941200065111,ウェル花夢,高知県四万十町江師546,,,,33.21590585,132.976872,
950,E3941200214121,小規模多機能ホーム香月,高知県四万十町香月が丘7-30,,,,33.21477,133.129635,
951,E3941200214111,小規模多機能ホーム香月,高知県四万十町香月が丘7-30,,,,33.214743,133.12961,
952,E3941200066111,窪川中学校体育館,高知県四万十町香月が丘8-18,,,,33.21521506,133.1269868,
953,E3941200067111,高野集会所,高知県四万十町高野102-1,,,,33.17679977,133.1119156,
954,E3941200068111,東又小学校体育館,高知県四万十町黒石502,,,,33.22478958,133.1963091,
955,E3941200069111,黒石公民館,高知県四万十町黒石519,,,,33.22417928,133.195011,
956,E3941200070111,根元原集会所,高知県四万十町根元原386-13,,,,33.2227292,133.1394695,
957,E3941200071111,農村環境改善センター,高知県四万十町榊山町571-7,,,,33.2112289235629,133.138664393724,
958,E3941200072111,四万十町農業協同組合四万十本所,高知県四万十町榊山町586-2,,,,33.21163269,133.1386307,
959,E3941200216111,松葉川コミュニティセンター,高知県四万十町作屋489-6,,,,33.269959,133.12015,
960,E3941200074111,西ノ川集会所,高知県四万十町作屋791-6,,,,33.2576207,133.1133784,
961,E3941200001121,デイサービスセンター緑林荘,高知県四万十町仕出原469-1,,,,33.2223765,133.1252152,
962,E3941200001112,デイサービスセンター緑林荘,高知県四万十町仕出原469-1,,,,33.2223765,133.1252152,
963,E3941200076111,市生原地区集落センター,高知県四万十町市生原231-2,,,,33.27611995,133.1132995,
964,E3941200077111,東北ノ川集会所,高知県四万十町市生原569-3,,,,33.28481861,133.121939,
965,E3941200084111,志和コミュニティセンター,高知県四万十町志和442-1,,,,33.23125476,133.2464258,
966,E3941200085111,志和防災活動拠点施設,高知県四万十町志和444-3,1,,,33.23176854,133.2462005,
967,E3941200088111,志和峰集会所,高知県四万十町志和峰500,,,,33.22879698,133.2201357,
968,E3941200089111,寺野集会所,高知県四万十町寺野113,,,,33.21556443,133.0815307,
969,E3941200090111,本在家集会所,高知県四万十町七里乙1043-1,,,,33.25808352,133.1402959,
970,E3941200091111,沖代部落集会所,高知県四万十町七里乙313-8,,,,33.25655781,133.1338958,
971,E3941200092111,柳瀬集会所,高知県四万十町七里乙840-2,,,,33.25470524,133.1391541,
972,E3941200093111,七里小学校体育館,高知県四万十町七里甲1214,,,,33.26319669,133.1308027,
973,E3941200094111,小野川集会所,高知県四万十町七里甲1238-1,,,,33.26328385,133.1313668,
974,E3941200095112,越行集会所,高知県四万十町七里甲284-7,,,,33.2601073,133.1215297,
975,E3941200096111,影山集会所,高知県四万十町七里甲992-9,,,,33.25649669,133.1263617,
976,E3941200097111,若井公民館,高知県四万十町若井76,,,,33.18726732,133.1067596,
977,E3941200098111,旧若井川小学校体育館,高知県四万十町若井川531,,,,33.17618094,133.1217553,
978,E3941200100111,若井川下集会所,高知県四万十町若井川659-3,,,,33.17185334,133.1195472,
979,E3941200099111,若井川集会所,高知県四万十町若井川５３４－イ,,,,33.17660624,133.1219362,
980,E3941200101111,秋丸集会所,高知県四万十町秋丸373-1,,,,33.18434064,133.0739668,
981,E3941200102111,鍋谷集会所,高知県四万十町十川1356-6,,,,33.22918084,132.8479278,
982,E3941200103111,十和地域振興局,高知県四万十町十川145-3,,,,33.23389233,132.8536087,
983,E3941200104111,十川地区防災活動拠点施設,高知県四万十町十川171-1,,,,33.23378464,132.853437,
984,E3941200105111,十川集会所,高知県四万十町十川224-1,,,,33.23351963,132.8508542,
985,E3941200106111,十和川口集会所,高知県四万十町十和川口131-1,,,,33.22610481,132.8357925,
986,E3941200215111,小鳩保育所,高知県四万十町十和川口502-1,,,,33.234618,132.847316,
987,E3941200107111,十川小中学校体育館,高知県四万十町十和川口505-1,,,,33.23448172,132.848,
988,E3941200108111,勝賀野集会所,高知県四万十町勝賀野272-2,,,,33.2741362,133.1396315,
989,E3941200109111,小向集会所,高知県四万十町小向269,,,,33.23428231,133.1618419,
990,E3941200110111,小野農業構造改善センター,高知県四万十町小野428-2,,,,33.23077294,132.8723185,
991,E3941200111111,床鍋集会所,高知県四万十町床鍋701-1,,,,33.29955842,133.1746572,
992,E3941200112111,北の川集会所,高知県四万十町昭和1055-4,,,,33.23279082,132.9135184,
993,E3941200113111,大保木集会所,高知県四万十町昭和1243-2,,,,33.22516247,132.8867097,
994,E3941200114111,四手崎集会所,高知県四万十町昭和281-1,,,,33.20203845,132.9065903,
995,E3941200115111,昭和小学校体育館,高知県四万十町昭和470-4,,,,33.21856717,132.8968556,
996,E3941200116111,十和保健センター,高知県四万十町昭和502-2,,,,33.21904894,132.8970768,
997,E3941200117111,昭和高齢者創作館,高知県四万十町昭和532,,,,33.22064682,132.8964363,
998,E3941200118111,昭和基幹集落センター,高知県四万十町昭和569-1,,,,33.22111986,132.8954698,
999,E3941200119111,戸口集会所,高知県四万十町昭和乙324-6,,,,33.20667818,132.9145367,
1000,E3941200120111,轟農林業共同館,高知県四万十町昭和甲110-1,,,,33.21692013,132.9066349,
1001,E3941200121111,上岡集会所,高知県四万十町上岡51-2,,,,33.18132798,133.0122059,
1002,E3941200122111,上宮集会所,高知県四万十町上宮269-3,,,,33.17993411,133.0444174,
1003,E3941200123111,上秋丸集会所,高知県四万十町上秋丸548-2,,,,33.30348543,133.1067179,
1004,E3941200124111,親ヶ内集会所,高知県四万十町親ケ内341,,,,33.21491917,133.1830663,
1005,E3941200125111,汢ノ川集会所,高知県四万十町仁井田1563,,,,33.25130017,133.1675032,
1006,E3941200126111,仁井田小学校体育館,高知県四万十町仁井田1920,,,,33.24567744,133.1602901,
1007,E3941200127111,仁井田町民会館,高知県四万十町仁井田763-1,,,,33.24606678,133.1609702,
1008,E3941200002121,障害者支援施設オイコニア,高知県四万十町仁井田字倉木462,,,,33.25580545,133.1641918,
1009,E3941200002112,障害者支援施設オイコニア,高知県四万十町仁井田字倉木462,,,,33.25580545,133.1641918,
1010,E3941200129111,数家老人憩いの家,高知県四万十町数神740-1,,,,33.22896086,133.1710131,
1011,E3941200130111,瀬里集会所,高知県四万十町瀬里53-2,,,,33.18149354,132.9834213,
1012,E3941200131111,西ノ川集会所,高知県四万十町西ノ川66-1,,,,33.22883561,132.9782193,
1013,E3941200132111,西原公民館,高知県四万十町西原460-3,,,,33.1971121,133.1233722,
1014,E3941200133111,西川角公民館,高知県四万十町西川角３００－ロ,,,,33.24650369,133.1333084,
1015,E3941200134111,川ノ内集会所,高知県四万十町川ノ内359,,,,33.28910166,133.1415237,
1016,E3941200135111,相去集会所,高知県四万十町相去293-1,,,,33.2103577,133.0522956,
1017,E3941200136111,奥打井川公民館,高知県四万十町打井川1695-2,,,,33.14352819,133.0600325,
1018,E3941200137111,口打井川集会所,高知県四万十町打井川243-2,,,,33.17252205,133.0356426,
1019,E3941200138111,打井川地域づくりセンター,高知県四万十町打井川467-1,,,,33.15284562,133.0459724,
1020,E3941200139111,中打井川集会所,高知県四万十町打井川57-3,,,,33.16360804,133.0421422,
1021,E3941200140111,替坂本集会所,高知県四万十町替坂本230-6,,,,33.26745136,133.1736954,
1022,E3941200006123,グループホーム梅の木,高知県四万十町大井川1462-1,,,,33.21956179,132.8913351,
1023,E3941200006112,グループホーム梅の木,高知県四万十町大井川1462-1,,,,33.21956179,132.8913351,
1024,E3941200006122,デイサービス大井川,高知県四万十町大井川1462-1,,,,33.21939126,132.8908792,
1025,E3941200006121,特別養護老人ホーム大井川,高知県四万十町大井川1462-1,,,,33.21959321,132.8909006,
1026,E3941200006114,特別養護老人ホーム大井川,高知県四万十町大井川1462-1,,,,33.21959321,132.8909006,
1027,E3941200006113,デイサービス大井川,高知県四万十町大井川1462-1,,,,33.21939126,132.8908792,
1028,E3941200142111,八木集会所,高知県四万十町大井川1806-2,,,,33.19898025,132.8752553,
1029,E3941200143111,大井川住民センター,高知県四万十町大井川788-4,,,,33.21386271,132.8834227,
1030,E3941200144111,十和隣保館,高知県四万十町大井川954-1,,,,33.21697696,132.8888336,
1031,E3941200145111,大井野集会所,高知県四万十町大井野702,,,,33.20592438,133.1226292,
1032,E3941200146111,口神ノ川公民館,高知県四万十町大向309-4,,,,33.19627611,133.1094416,
1033,E3941200147111,大向公民館,高知県四万十町大向422,,,,33.18319434,133.0999815,
1034,E3941200148111,南町集会所,高知県四万十町大正1241-3,,,,33.19252282,132.9733565,
1035,E3941200149111,つづら川集会所,高知県四万十町大正1407-1,,,,33.16245944,132.9586112,
1036,E3941200150111,きらら大正（ホール）,高知県四万十町大正200-1,,,,33.19331263,132.974179,
1037,E3941200151111,新町集会所,高知県四万十町大正240-5,,,,33.19490903,132.975216,
1038,E3941200004121,四万十町大正老人福祉センター,高知県四万十町大正32-1,,,,33.18361265,132.9727622,
1039,E3941200004112,四万十町大正老人福祉センター,高知県四万十町大正32-1,,,,33.18361265,132.9727622,
1040,E3941200153111,轟崎集会所,高知県四万十町大正35-1,,,,33.18411932,132.9721437,
1041,E3941200154111,大正地域振興局,高知県四万十町大正380,,,,33.19768506,132.976164,
1042,E3941200155111,地域交流センターたのの,高知県四万十町大正380-3,,,,33.19766261,132.9762444,
1043,E3941200008112,特別養護老人ホーム四万十荘,高知県四万十町大正576,,,,33.19452598,132.9723194,
1044,E3941200008121,特別養護老人ホーム四万十荘,高知県四万十町大正576,,,,33.19452598,132.9723194,
1045,E3941200157111,四万十高校（格技場他）,高知県四万十町大正590-1,,,,33.196644,132.974463,
1046,E3941200158111,土場集会所,高知県四万十町大正667,,,,33.19776671,132.9727254,
1047,E3941200159111,田野々小学校体育館,高知県四万十町大正93,,,,33.193978,132.971637,
1048,E3941200160111,市ノ又集会所,高知県四万十町大正市ノ又394,,,,33.19565305,133.0365671,
1049,E3941200161111,古味野々集会所,高知県四万十町大正大奈路797-3,,,,33.26038759,132.9746433,
1050,E3941200162111,旧大奈路小学校（校舎）,高知県四万十町大正大奈路99,,,,33.23028097,132.9818777,
1051,E3941200164111,大正中津川集落活動センター,高知県四万十町大正中津川234-1,,,,33.2686561368697,132.989727749505,
1052,E3941200165111,大正中津川防災活動拠点施設,高知県四万十町大正中津川243-1,,,,33.26837334,132.9898642,
1053,E3941200166111,北ノ川小中学校体育館,高知県四万十町大正北ノ川358-20,,,,33.18822831,133.0468813,
1054,E3941200167111,大正北ノ川多目的集会所,高知県四万十町大正北ノ川363-5,,,,33.18737533,133.0472836,
1055,E3941200168111,口大道集会所,高知県四万十町大道1256-3,,,,33.26723485,132.8803195,
1056,E3941200169111,奥大道生活改善センター,高知県四万十町大道377-2,,,,33.28107715,132.894631,
1057,E3941200170111,地吉生活改善センター,高知県四万十町地吉415,,,,33.25186699,132.8133994,
1058,E3941200171111,中神ノ川公民館,高知県四万十町中神ノ川145-1,,,,33.2249145,133.0978742,
1059,E3941200172111,津賀集会所,高知県四万十町津賀123,,,,33.22426213,132.9270812,
1060,E3941200173111,天ノ川集会所,高知県四万十町天ノ川178-4,,,,33.19138823,133.0937939,
1061,E3941200174111,土居集会所,高知県四万十町土居113,,,,33.2408266,133.1932738,
1062,E3941200175111,旧丸山小学校体育館,高知県四万十町東川角605-4,,,,33.23895475,133.1271314,
1063,E3941200176111,東川角老人憩いの家,高知県四万十町東川角甲646-2,,,,33.23546877,133.1361945,
1064,E3941200177111,大奈路集会所,高知県四万十町東大奈路508,,,,33.22636632,133.1439448,
1065,E3941200178111,藤ノ川公民館,高知県四万十町藤ノ川240-3,,,,33.22043758,133.175458,
1066,E3941200179111,道徳集会所,高知県四万十町道徳404-1,,,,33.26585351,133.1876979,
1067,E3941200180111,奈路集会所,高知県四万十町奈路502-26,,,,33.2336864,133.1865754,
1068,E3941200181111,川口小学校体育館,高知県四万十町南川口108,,,,33.20023696,133.0818086,
1069,E3941200182111,防災活動拠点施設（川口分団）,高知県四万十町南川口536-7,,,,33.19911926,133.0817067,
1070,E3941200183111,立西町民会館,高知県四万十町南川口98-2,,,,33.19975218,133.0815458,
1071,E3941200184111,松葉川温泉,高知県四万十町日野地605-1,,,,33.3127636,133.0716653,
1072,E3941200185111,八千数集会所,高知県四万十町八千数320-1,,,,33.21100106,133.178249,
1073,E3941200186111,飯ノ川集会所,高知県四万十町飯ノ川163-1,,,,33.23548007,133.2076676,
1074,E3941200187111,井細の郷里檜生原,高知県四万十町桧生原139-3,,,,33.23239606,133.0682194,
1075,E3941200188111,平串集会所,高知県四万十町平串320-2,,,,33.23082093,133.1514932,
1076,E3941200189111,平野集会所,高知県四万十町平野417-7,,,,33.25029017,133.1867737,
1077,E3941200190111,川奥集会所,高知県四万十町米奥1033-1,,,,33.27639307,133.0975401,
1078,E3941200191111,米奥小学校体育館,高知県四万十町米奥149,,,,33.28253924,133.1095495,
1079,E3941200192111,米奥集会所,高知県四万十町米奥240-1,,,,33.28271883,133.1079343,
1080,E3941200193111,峰ノ上老人里の家,高知県四万十町峰ノ上65,,,,33.17164594,133.1362825,
1081,E3941200194111,芳川集会所,高知県四万十町芳川11,,,,33.21399011,133.0068152,
1082,E3941200195111,窪川地域子育て支援センター,高知県四万十町北琴平町10-7,,,,33.2152092,133.1353275,
1083,E3941200196111,Ｂ＆Ｇ海洋センター（体育館）,高知県四万十町本堂405-4,,,,33.22326089,133.1865759,
1084,E3941200197111,東又地区基幹集落センター,高知県四万十町本堂791,,,,33.22331178,133.187529,
1085,E3941200198111,社会福祉センター,高知県四万十町茂串町11-30,,,,33.20940766,133.1328009,
1086,E3941200199111,岩本寺,高知県四万十町茂串町3-13,,,,33.20809258,133.1349521,
1087,E3941200200111,木屋ヶ内集会所,高知県四万十町木屋ケ内220-2,,,,33.24167361,132.9840439,
1088,E3941200202111,野々川生活改善センター,高知県四万十町野々川104-1,,,,33.19109688,132.9049518,
1089,E3941200201111,野地集会所,高知県四万十町野地346-1,,,,33.17317783,133.0678653,
1090,E3941200203111,与津地公民館,高知県四万十町与津地1737,,,,33.20255965,133.1955326,
1091,E3941200204111,里川入会林総合利用センター,高知県四万十町里川543-1,,,,33.18751467,132.9476763,
1092,E3941200205111,六反地集会所,高知県四万十町六反地12-4,,,,33.26060463,133.1689005,
1093,E3941200206111,六反地老人里の家,高知県四万十町六反地433-1,,,,33.25829449,133.1664704,
1094,E3920200052112,羽根児童館,高知県室戸市羽根町,,,,33.373626,134.049265,
1095,E3920200001111,羽根公民館,高知県室戸市羽根町乙1237,1,,,33.365302079014,134.06026860384,
1096,E3920200002111,上段老人憩いの家,高知県室戸市羽根町乙2755,1,,,33.375587661224,134.05323709686,
1097,E3920200003111,上段教育集会所,高知県室戸市羽根町乙2760,1,,,33.375713756727,134.05328780945,
1098,E3920200005111,羽根小学校,高知県室戸市羽根町乙3793-3,1,,,33.367800027762,134.05614901759,
1099,E3920200006111,羽根中学校,高知県室戸市羽根町乙774,1,,,33.372408806307,134.05993525106,
1100,E3920200004111,羽根市民館,高知県室戸市羽根町乙３０２１－１８地先,1,,,33.373554,134.049581,
1101,E3920200007111,中川内小・中学校,高知県室戸市羽根町甲1993-1,1,,,33.392436399954,134.08588162603,
1102,E3920200008111,吉良川中学校,高知県室戸市吉良川町乙2000,1,,,33.337425569454,134.09614029913,
1103,E3920200009111,西灘老人憩いの家,高知県室戸市吉良川町乙3157,1,,,33.33746753754,134.08553568936,
1104,E3920200010111,吉良川市民館,高知県室戸市吉良川町乙5429,1,,,33.337412005733,134.08458000858,
1105,E3920200011111,吉良川公民館,高知県室戸市吉良川町甲2393,1,,,33.332708303948,134.10009757593,
1106,E3920200012111,吉良川防災コミュニティセンター,高知県室戸市吉良川町甲2744-1,1,,,33.333213098402,134.09974127872,
1107,E3920200013111,吉良川小学校,高知県室戸市吉良川町甲2771,1,,,33.334144559372,134.09927921969,
1108,E3920200014111,吉良川保育所,高知県室戸市吉良川町甲3039,1,,,33.334155935384,134.10099759262,
1109,E3920200015111,キラメッセ室戸,高知県室戸市吉良川町丙890-11,1,,,33.306453177849,134.11019092295,
1110,E3920200016111,国立室戸青少年自然の家,高知県室戸市元乙1721,1,,,33.317146120764,134.1235315901,
1111,E3920200017111,元防災コミュニティセンター,高知県室戸市元甲1679-1,1,,,33.304808100723,134.12711816864,
1112,E3920200018121,元保育所,高知県室戸市元甲1680-2,,,妊産婦（乳児含む）、幼児（未就学児）,33.304975,134.12756,
1113,E3920200019111,元小学校,高知県室戸市元甲1854,1,,,33.301744243085,134.12349008398,
1114,E3920200020111,行当教育集会所,高知県室戸市元甲2183-1,1,,,33.296187053937,134.11457540308,
1115,E3920200021111,行当老人憩いの家,高知県室戸市元甲2183-24,1,,,33.296308116887,134.11482216631,
1116,E3920200022111,行当市民館,高知県室戸市元甲2196,1,,,33.296079095408,134.11478436784,
1117,E3920200023111,佐喜浜防災コミュニティセンター,高知県室戸市佐喜浜町1334-2,1,,,33.393104192873,134.20531764005,
1118,E3920200024111,佐喜浜保育所,高知県室戸市佐喜浜町1336-3,1,,,33.393243036439,134.2047060964,
1119,E3920200025111,佐喜浜生活改善センター,高知県室戸市佐喜浜町1694-1,1,,,33.394687728186,134.20522719547,
1120,E3920200026111,佐喜浜小学校,高知県室戸市佐喜浜町1700,1,,,33.395237346928,134.20493362128,
1121,E3920200027111,佐喜浜中学校,高知県室戸市佐喜浜町3848,1,,,33.401353353426,134.21053790121,
1122,E3920200028111,佐喜浜市民館,高知県室戸市佐喜浜町４９２１－１８地先,1,,,33.389183,134.213124,
1123,E3920200029111,世界ジオパークセンター,高知県室戸市室戸岬町1810-2,1,,,33.299052271843,134.18633445827,
1124,E3920200030111,三津防災コミュニティセンター,高知県室戸市室戸岬町1823,1,,,33.298893312035,134.18558624236,
1125,E3920200031111,（旧）三高小学校,高知県室戸市室戸岬町2953,1,,,33.282560189515,134.1850257821,
1126,E3920200032111,アクアファーム,高知県室戸市室戸岬町3507-1,1,,,33.266476330863,134.18417408671,
1127,E3920200033111,高岡防災コミュニティセンター,高知県室戸市室戸岬町3631-1,1,,,33.265174,134.18325,
1128,E3920200034111,シレストむろと,高知県室戸市室戸岬町3795-1,1,,,33.258758910463,134.1823853009,
1129,E3920200035111,（旧）室戸岬小学校,高知県室戸市室戸岬町4414-1,1,,,33.262039787105,134.1685186194,
1130,E3920200036111,椎名集落活動センター,高知県室戸市室戸岬町533-2,1,,,33.325858,134.195525,
1131,E3920200037111,室戸岬公民館,高知県室戸市室戸岬町5390-1,1,,,33.268903035033,134.16313427137,
1132,E3920200038111,菜生市民館,高知県室戸市室戸岬町5775,1,,,33.277801648781,134.15522224663,
1133,E3920200039111,菜生老人憩いの家,高知県室戸市室戸岬町5816,1,,,33.279315041706,134.15432936055,
1134,E3920200040111,県立室戸体育館,高知県室戸市室戸岬町6811,1,,,33.286750289522,134.15958866459,
1135,E3920200040112,室戸市中央公園相撲場,高知県室戸市室戸岬町6811,1,,,33.286162844109,134.15684208255,
1136,E3920200041111,室戸勤労者体育センター,高知県室戸市室津2186-1,1,,,33.291748298333,134.15549970709,
1137,E3920200042111,大谷第二教育集会所,高知県室戸市室津2198-7,1,,,33.292633739017,134.15583918233,
1138,E3920200043111,室戸高等学校,高知県室戸市室津221,1,,,33.296133498589,134.16810393944,
1139,E3920200044121,むろと保育園,高知県室戸市室津2937-1,,,妊産婦（乳児含む）、幼児（未就学児）,33.297729,134.169503,
1140,E3920200045121,障害者支援施設むろと・はまゆう園,高知県室戸市室津928-1,,,,33.336732,134.16792,
1141,E3920200046111,室戸小学校,高知県室戸市浮津115,1,,,33.291377595426,134.15135263142,
1142,E3920200047111,大谷保育所,高知県室戸市浮津149-1,1,,,33.295534132066,134.15270205995,
1143,E3920200048112,大谷市民館,高知県室戸市浮津227,1,,,33.293028130611,134.15272392921,
1144,E3920200048111,大谷老人憩いの家,高知県室戸市浮津227,1,,,33.293207489564,134.15260591201,
1145,E3920200049121,老人保健施設　あさひ,高知県室戸市領家1-1,,,,33.294406,134.165512,
1146,E3920200051111,室戸市保健福祉センター,高知県室戸市領家87,1,,,33.291067375264,134.15757629328,
1147,E3920200051121,室戸市デイサービスセンター,高知県室戸市領家87,1,,,33.290867,134.157228,
1148,E3920800007111,押ノ川老人憩の家,高知県宿毛市押ノ川1666,,,,32.949818429284,132.76804677272,
1149,E3920800009111,鵜来島離島センター（旧鵜来島小中学校）,高知県宿毛市沖の島町鵜来島78-2,,,,32.799412309835,132.49373262553,
1150,E3920800012111,弘瀬老人憩の家,高知県宿毛市沖の島町弘瀬362-2,1,,,32.713494422166,132.55179247301,
1151,E3920800014111,沖の島開発総合センター（沖の島支所）,高知県宿毛市沖の島町母島1003,1,,,32.738098205029,132.54898178239,
1152,E3920800017111,沖の島小中学校,高知県宿毛市沖の島母島445,,,,32.738876,132.556036,
1153,E3920800003121,ピアハウスすくも,高知県宿毛市貝塚18-7,,,,32.938669060185,132.71481320511,
1154,E3920800159121,宿毛育成園,高知県宿毛市貝塚19-10,,,,32.938216887912,132.71527361245,
1155,E3920800158122,ワークセンターすくも,高知県宿毛市貝塚19-21,1,,,32.938747096534,132.71545514757,
1156,E3920800158121,宿毛授産園,高知県宿毛市貝塚19-21,1,,,32.938873155256,132.71591112309,
1157,E3920800022111,咸陽小学校,高知県宿毛市樺407-1,,,,32.927977,132.676284,
1158,E3920800167111,きぼうが丘保育園,高知県宿毛市希望ヶ丘4,,,,32.933284,132.701901,
1159,E3920800023111,橋上中学校,高知県宿毛市橋上町奥奈路103,,,,32.985183367947,132.76539771702,
1160,E3920800024111,奥奈路老人憩の家,高知県宿毛市橋上町奥奈路196-6,,,,32.987131460357,132.76654885916,
1161,E3920800025111,橋上保育園,高知県宿毛市橋上町橋上1007-4,,,,32.984073662288,132.76989077099,
1162,E3920800026111,橋上小学校,高知県宿毛市橋上町橋上1144-1,,,,32.982908040349,132.77037650736,
1163,E3920800027111,坂本多目的集会所,高知県宿毛市橋上町坂本177-1,,,,33.018431175251,132.74457090413,
1164,E3920800028111,神有多目的集会所,高知県宿毛市橋上町神有549-5,,,,32.995872356557,132.76054448019,
1165,E3920800029111,楠山多目的集会所,高知県宿毛市橋上町楠山31-2,,,,33.039306598311,132.69883329801,
1166,E3920800030111,山里の家,高知県宿毛市橋上町楠山41-1,,,,33.038898981005,132.69957356046,
1167,E3920800043111,宿毛市総合社会福祉センター,高知県宿毛市高砂4-56,1,,,32.928260216467,132.70556789618,
1168,E3920800057111,宿毛中学校,高知県宿毛市桜町18-19,,,,32.941129280333,132.72882319358,
1169,E3920800058121,交流複合施設さくら,高知県宿毛市桜町2-1,,,,32.939011,132.726292,
1170,E3920800059111,宿毛小学校,高知県宿毛市桜町8-5,,,,32.939191449038,132.72830722993,
1171,E3920800060111,山奈小学校,高知県宿毛市山奈町山田1999-1,,,,32.971942216241,132.81452245448,
1172,E3920800061111,山田保育園,高知県宿毛市山奈町山田2322-1,,,,32.97327904243,132.81650306455,
1173,E3920800062111,手代岡隣保館,高知県宿毛市山奈町山田892-16,,,,32.973993838557,132.8200807738,
1174,E3920800063111,手代岡共同作業場,高知県宿毛市山奈町山田934-5,,,,32.973976461461,132.82085351241,
1175,E3920800064111,芳奈老人憩の家,高知県宿毛市山奈町芳奈1449-1,,,,32.971897670067,132.79236486315,
1176,E3920800065111,高知県立幡多看護専門学校,高知県宿毛市山奈町芳奈3-2,,,,32.966779772083,132.80663322821,
1177,E3920800080111,旧栄喜小学校,高知県宿毛市小筑紫町栄喜165,,,,32.87380427915,132.70574366905,
1178,E3920800088111,小筑紫基幹集落センター,高知県宿毛市小筑紫町小筑紫220-1,,,,32.880603731313,132.72331969312,
1179,E3920800090112,小筑紫小学校,高知県宿毛市小筑紫町小筑紫502-8,,,,32.878768561593,132.72109961554,
1180,E3920800090111,小筑紫中学校,高知県宿毛市小筑紫町小筑紫502-8,,,,32.878893794534,132.720698271,
1181,E3920800091111,石原集会所,高知県宿毛市小筑紫町石原520-1,1,,,32.85833160243,132.74364540399,
1182,E3920800095111,旧みなみ保育園,高知県宿毛市小筑紫町田ノ浦1045,1,,,32.90567548899,132.71803891045,
1183,E3920800097111,小筑紫保育園,高知県宿毛市小筑紫町田ノ浦937,1,,,32.907065809213,132.71812786385,
1184,E3920800100111,千寿園,高知県宿毛市小筑紫町福良80-6,,,,32.875227625559,132.73036102501,
1185,E3920800166111,西町地域振興住宅集会所,高知県宿毛市西町4-594-17,,,,32.929017,132.68408,
1186,E3920800165111,西地区防災コミュニティセンター,高知県宿毛市西町5-592-9,,,,32.930496,132.685349,
1187,E3920800114111,大島公民館,高知県宿毛市大島6-24,,,,32.916306180132,132.70386068931,
1188,E3920800119111,宿毛文教センター,高知県宿毛市中央2-7-14,,,,32.938851430673,132.73047491391,
1189,E3920800005121,豊寿園,高知県宿毛市平田町戸内1813-1,,,,32.959296043292,132.79849707088,
1190,E3920800006121,ケアハウスすくも,高知県宿毛市平田町戸内1824,,,,32.959774653977,132.79902636056,
1191,E3920800129111,東中学校,高知県宿毛市平田町戸内2070,,,,32.963711125822,132.80651240881,
1192,E3920800130111,東部支所,高知県宿毛市平田町戸内2093-2,,,,32.966196435409,132.80841840342,
1193,E3920800131111,高知県立宿毛工業高等学校,高知県宿毛市平田町戸内2272-2,,,,32.965714272004,132.80994279261,
1194,E3920800132111,貝礎老人憩の家,高知県宿毛市平田町戸内2344,,,,32.961483083098,132.81481754364,
1195,E3920800133111,東部農村環境改善センター,高知県宿毛市平田町戸内3357-2,,,,32.95262,132.797868,
1196,E3920800134111,平田保育園,高知県宿毛市平田町戸内3357-4,,,,32.952669509097,132.79832890693,
1197,E3920800164111,寺尾地区集会所,高知県宿毛市平田町戸内392,,,,32.953934,132.782063,
1198,E3920800135111,平田小学校,高知県宿毛市平田町戸内4287,,,,32.95184739889,132.79651597042,
1199,E3920800136111,貝礎隣保館,高知県宿毛市平田町黒川4492-7,,,,32.962207427828,132.8139683516,
1200,E3920800161121,幡多希望の家,高知県宿毛市平田町中山867,,,,32.96105662006,132.7816569855,
1201,E3920800139111,片島中学校,高知県宿毛市片島15-56,,,,32.92639280337,132.69775881587,
1202,E3920800145111,大島小学校,高知県宿毛市片島5-54,,,,32.919161574527,132.70082770625,
1203,E3920800150111,宿毛市防災センター,高知県宿毛市和田1412-1,,,,32.93839629987,132.74120553501,
1204,E3920800152111,旧松田川小学校体育館,高知県宿毛市和田2816-1,1,,,32.945554022368,132.73670942136,
1205,E3920800154111,旧すみれ保育園,高知県宿毛市和田569-1,1,,,32.942676827805,132.74823653497,
1206,E3920800155111,正和老人憩の家,高知県宿毛市和田904-3,,,,32.940314539468,132.74873381,
1207,E3938700001111,下名野川地域集会所,高知県仁淀川町下名野川368-4,,,,33.564703707193,133.10930460968,
1208,E3938700002111,加枝集会所,高知県仁淀川町加枝1233,1,,,33.569542515542,133.18355337658,
1209,E3938700003111,久喜集会所,高知県仁淀川町久喜2748-1,1,,,33.564558169845,133.16345200698,
1210,E3938700004111,秋葉の宿及び宿泊施設,高知県仁淀川町高瀬3869,,,,33.542279995445,133.11439038757,
1211,E3938700006111,坂本地区多目的集会施設,高知県仁淀川町坂本536-1,,,,33.605181959396,133.14311183252,
1212,E3938700008111,寺村地域集会所,高知県仁淀川町寺村1240-2,,,,33.577286715936,133.1956369384,
1213,E3938700009111,寺村分団屯所,高知県仁淀川町寺村1558-1,,,,33.574488,133.194973,
1214,E3938700010111,宗津集会所,高知県仁淀川町宗津401-4,,,,33.591480486885,133.14591206374,
1215,E3938700011111,別府小学校及び体育館,高知県仁淀川町森2457,1,,,33.536999155569,133.12899612094,
1216,E3938700013111,仁淀多目的研修集会施設,高知県仁淀川町森2572-1,,,,33.535813758551,133.12999115724,
1217,E3938700014111,農業者トレーニングセンター,高知県仁淀川町森4231,,,,33.536586957713,133.13125408002,
1218,E3938700015111,ふたば保育所,高知県仁淀川町森4279-1,,,,33.53690078473,133.13190899993,
1219,E3938700016121,仁淀川町デイサービスセンター「ひなた荘」,高知県仁淀川町森4287,,,,33.537215941627,133.13203634082,
1220,E3938700017111,森山地域集会所,高知県仁淀川町森山201-2,,,,33.545996846931,133.10457751911,
1221,E3938700019111,川口地区集会所,高知県仁淀川町川口25-1,,,,33.574797,133.165642,
1222,E3938700021111,仁淀中学校及び体育館,高知県仁淀川町川渡214,1,,,33.528275980184,133.12801609666,
1223,E3938700022111,川渡コミュニティーセンター,高知県仁淀川町川渡95,,,,33.528531,133.129661,
1224,E3938700025111,大崎地域集会所,高知県仁淀川町大崎158,,,,33.575692704333,133.17028826016,
1225,E3938700026121,仁淀川町テイサービスセンター「とちの木園」,高知県仁淀川町大崎264-8,,,,33.575298208016,133.17279841696,
1226,E3938700027111,旧吾川中学校体育館,高知県仁淀川町大崎300,1,,,33.573269237718,133.17098387881,
1227,E3938700029111,泉川多目的集会施設,高知県仁淀川町大植2988-2,,,,33.489146,133.103974,
1228,E3938700030111,大西地区多目的集会施設,高知県仁淀川町大西784-1,,,,33.635065141442,133.16257947454,
1229,E3938700031111,大渡コミュニティセンター,高知県仁淀川町大渡184-1,,,,33.541752170531,133.12788031964,
1230,E3938700032111,大野地区コミュニティセンター,高知県仁淀川町大野685-1,1,,,33.647477195577,133.14444366137,
1231,E3938700033111,相ノ谷集会所,高知県仁淀川町竹ノ谷543-2,,,,33.604014092382,133.15195535201,
1232,E3938700035111,池川中学校,高知県仁淀川町竹ノ谷940,,,,33.609092370954,133.16847952094,
1233,E3938700036111,長者保育所,高知県仁淀川町長者乙2502-2,,,,33.501391,133.134284,
1234,E3938700037111,長者複合集会施設,高知県仁淀川町長者乙2502-4,,,,33.501158,133.134515,
1235,E3938700038111,長者小学校及び体育館,高知県仁淀川町長者乙2506,1,,,33.501895663772,133.13393266882,
1236,E3938700041111,田村集会所,高知県仁淀川町田村124,,,,33.59044942087,133.1600029085,
1237,E3938700043111,安居地区多目的集会施設,高知県仁淀川町土居88-4,,,,33.641050131297,133.19745085551,
1238,E3938700046111,池川体育館,高知県仁淀川町土居甲839,,,,33.608802624599,133.16909419181,
1239,E3938700048111,池川コミュニティセンター,高知県仁淀川町土居甲916-3,,,,33.608042462917,133.16970260825,
1240,E3938700049121,仁淀川町テイサービスセンター「池川」,高知県仁淀川町土居甲921-1,,,,33.608206409682,133.17018159419,
1241,E3938700061111,高齢者向住宅月美荘,高知県仁淀川町日浦185-1,,,,33.61356,133.195743,
1242,E3938700051111,狩山地区多目的集会施設,高知県仁淀川町日浦187-2,,,,33.613469757733,133.19596451914,
1243,E3938700052111,別枝上区多目的集会施設,高知県仁淀川町別枝1771,,,,33.513845310967,133.05313391009,
1244,E3938700054111,沢渡多目的集会施設,高知県仁淀川町別枝2504-14,1,,,33.538149,133.076456,
1245,E3938700062111,名野川自然環境活用センター,高知県仁淀川町名野川440,,,,33.558079107298,133.1323399395,
1246,E3938700057111,旧名野川小学校及び体育館,高知県仁淀川町名野川450,,,,33.560697895192,133.13155779565,
1247,E3938700059111,高齢者総合福祉施設「用居集いの館」,高知県仁淀川町用居甲361-1,1,,,33.640073794205,133.12653473668,
1248,E3920600002121,デイサービスくりの木,高知県須崎市安和1201-54,1,,高齢者、身体障害者、精神障害者、難病患者、知的障害者、発達障害者,33.3583354480567,133.263369313126,
1249,E3920600003111,安和小学校,高知県須崎市安和206,1,,,33.36921084,133.2562528,
1250,E3920600004121,須崎市老人デイサービスセンター山ももの家,高知県須崎市安和216-1,,,高齢者、身体障害者、精神障害者、難病患者、知的障害者、発達障害者,33.368725,133.256583,
1251,E3920600009121,学校法人　明徳義塾,高知県須崎市浦ノ内下中山160,1,,高齢者、身体障害者、精神障害者、難病患者、知的障害者、発達障害者、妊産婦（乳児含む）、幼児（未就学児）,33.42218194,133.430303,
1252,E3920600016111,浦ノ内小学校,高知県須崎市浦ノ内東分2001-1,,,,33.429093,133.351541,
1253,E3920600017121,須崎市立スポーツセンター　よこなみアリーナ,高知県須崎市浦ノ内東分2688,1,,高齢者,33.405066,133.359486,
1254,E3920600017111,須崎市立スポーツセンター　よこなみアリーナ,高知県須崎市浦ノ内東分2688,1,,,33.405066,133.359486,
1255,E3920600036121,須崎市老人デイサービスセンターばんだ湯の香荘,高知県須崎市桑田山乙1173-1,,,高齢者、身体障害者、精神障害者、難病患者、知的障害者、発達障害者,33.42831,133.285296,
1256,E3920600037111,桑田山消防コミュニティセンター,高知県須崎市桑田山乙665-5,,,,33.434259,133.279803,
1257,E3920600039111,朝ヶ丘中学校,高知県須崎市吾井郷乙1818,1,,,33.41992424,133.2932113,
1258,E3920600040111,多ノ郷小学校,高知県須崎市吾井郷乙1909-2,1,,,33.41863205,133.2921874,
1259,E3920600041121,デイサービスどんぐりの里Ⅱ,高知県須崎市吾井郷乙1909-3,,,高齢者、身体障害者、精神障害者、難病患者、知的障害者、発達障害者,33.418437,133.293015,
1260,E3920600042121,おひさま保育園,高知県須崎市吾井郷乙1917-1,1,,妊産婦（乳児含む）、幼児（未就学児）,33.419915,133.29153,
1261,E3920600042111,おひさま保育園,高知県須崎市吾井郷乙1917-1,1,,,33.419915,133.29153,
1262,E3920600043111,吾桑小学校,高知県須崎市吾井郷乙488-1,,,,33.4319,133.291508,
1263,E3920600044111,吾桑公民館,高知県須崎市吾井郷乙497-1,,,,33.43045,133.291283,
