NO,共通ID,施設・場所名,住所,洪水,崖崩れ、土石流及び地滑り,高潮,地震,津波,大規模な火事,内水氾濫,火山現象,指定避難所との住所同一,緯度,経度,備考
1,E4221000002201,芦辺小学校,長崎県壱岐市芦辺町芦辺浦546,1,,1,1,1,1,,,1,33.8032676938229,129.761643822986,
2,E4221000070201,壱岐市役所芦辺庁舎,長崎県壱岐市芦辺町芦辺浦562,1,,1,1,1,1,,,1,33.802125,129.762713,
3,E4221000003201,芦辺浦住民集会所,長崎県壱岐市芦辺町芦辺浦85-3,1,1,,1,,1,,,1,33.80254266,129.7578275,
4,E4221000004201,那賀幼稚園,長崎県壱岐市芦辺町住吉山信触1007,1,1,1,,1,1,,,,33.78742219,129.7190699,
5,E4221000005201,壱岐島開発総合センター,長崎県壱岐市芦辺町諸吉大石触197,1,1,,1,,1,,,1,33.80641944,129.7435608,
6,E4221000006201,芦辺保育所,長崎県壱岐市芦辺町諸吉大石触665,1,1,1,1,1,1,,,,33.80293033,129.7542536,
7,E4221000007201,八幡小学校,長崎県壱岐市芦辺町諸吉南触1565,1,1,,1,,1,,,1,33.7871748558191,129.783313597693,
8,E4221000008201,田河小学校,長崎県壱岐市芦辺町諸吉二亦触1659,1,1,1,1,,1,,,,33.78385266,129.753879,
9,E4221000009201,田河幼稚園,長崎県壱岐市芦辺町諸吉二亦触1670,1,1,1,,,1,,,,33.78350686,129.7546243,
10,E4221000010202,旧芦辺中学校体育館,長崎県壱岐市芦辺町諸吉二亦触1886,1,1,,1,,1,,,1,33.781983,129.759119,
11,E4221000011201,八幡保育所,長崎県壱岐市芦辺町諸吉本村触1300,1,1,,1,,1,,,,33.78587675,129.7886678,
12,E4221000012201,那賀小学校,長崎県壱岐市芦辺町中野郷西触174,1,1,1,1,1,1,,,,33.78793346,129.7196225,
13,E4221000013201,那賀地区公民館,長崎県壱岐市芦辺町中野郷西触362,1,1,1,1,1,1,,,1,33.79033728,129.7213388,
14,E4221000014201,芦辺中学校,長崎県壱岐市芦辺町中野郷西触400,1,1,1,1,1,1,,,,33.79139463,129.7207523,
15,E4221000016201,瀬戸小学校,長崎県壱岐市芦辺町箱崎大左右触315,1,1,1,1,,1,,,,33.8213570301692,129.756241111559,
16,E4221000017201,瀬戸幼稚園,長崎県壱岐市芦辺町箱崎大左右触920,1,,,1,,1,,,,33.81746268,129.7544946,
17,E4221000018201,箱崎地区公民館,長崎県壱岐市芦辺町箱崎大左右触924,1,1,,,,1,,,1,33.8172475,129.755205,
18,E4221000019201,芦辺町クオリティーライフセンターつばさ,長崎県壱岐市芦辺町箱崎中山触2548,1,1,,1,,1,,,1,33.80958185,129.7476853,
19,E4221000020201,箱崎僻地保健福祉館,長崎県壱岐市芦辺町箱崎釘ノ尾触1293,1,1,1,1,1,1,,,1,33.8254745250293,129.737914246771,
20,E4221000021201,箱崎幼稚園,長崎県壱岐市芦辺町箱崎釘ノ尾触652,1,1,1,1,1,1,,,1,33.8263215,129.7405067,
21,E4221000021202,箱崎小学校,長崎県壱岐市芦辺町箱崎釘ノ尾触652,1,1,1,1,1,1,,,1,33.82673865,129.740794,
22,E4221000023201,原島老人憩いの家,長崎県壱岐市郷ノ浦町原島487-2,1,1,1,,1,1,,,1,33.72308626,129.6488506,
23,E4221000025201,初山小学校,長崎県壱岐市郷ノ浦町初山西触807-1,1,1,1,1,1,1,,,,33.71896941,129.703185,
24,E4221000026201,初山地区公民館,長崎県壱岐市郷ノ浦町初山東触237-2,1,1,1,1,1,1,,,1,33.7187914,129.7043458,
25,E4221000027201,沼津小学校,長崎県壱岐市郷ノ浦町小牧東触184,1,1,1,1,1,1,,,1,33.7887866556668,129.672030691189,
26,E4221000028201,志原小学校,長崎県壱岐市郷ノ浦町大原触115,1,1,1,1,1,1,,,1,33.75380556,129.7207778,
27,E4221000029201,大島僻地保健福祉館,長崎県壱岐市郷ノ浦町大島607,1,1,1,,1,1,,,1,33.73912777,129.6377511,
28,E4221000030201,三島小学校,長崎県壱岐市郷ノ浦町大島815,1,1,1,1,1,1,,,1,33.7383330757402,129.634666839789,
29,E4221000032201,長島老人憩いの家,長崎県壱岐市郷ノ浦町長島672,1,1,1,,1,1,,,1,33.72819518,129.6344563,
30,E4221000033201,沼津地区公民館,長崎県壱岐市郷ノ浦町長峰本村触836-3,1,1,1,1,1,1,,,1,33.7918192,129.6733897,
31,E4221000034201,郷ノ浦町デイサービスセンター,長崎県壱岐市郷ノ浦町坪触3099,1,1,1,1,1,1,,,1,33.7323241502736,129.69685667825,
32,E4221000035201,大谷公園体育館,長崎県壱岐市郷ノ浦町田中触1223,1,1,1,1,1,1,,,1,33.7597444746102,129.695632437238,
33,E4221000036201,渡良小学校,長崎県壱岐市郷ノ浦町渡良東触365,1,1,1,1,1,1,,,1,33.7576150862879,129.663735650964,
34,E4221000067201,壱岐市渡良事務所,長崎県壱岐市郷ノ浦町渡良南触422-1,1,1,1,1,1,1,,,1,33.755903,129.661734,
35,E4221000037201,壱岐高等学校,長崎県壱岐市郷ノ浦町片原触88,1,1,1,1,1,1,,,1,33.7462657326704,129.692676646463,
36,E4221000038201,壱岐の島ホール,長崎県壱岐市郷ノ浦町本村触445,1,1,1,1,,1,,,1,33.7489845682943,129.687115434679,
37,E4221000039201,盈科小学校,長崎県壱岐市郷ノ浦町本村触589,1,1,1,1,1,1,,,,33.7499039902237,129.692775201441,
38,E4221000040201,郷ノ浦中学校,長崎県壱岐市郷ノ浦町本村触75,1,1,1,1,1,1,,,1,33.7512702011148,129.694701982219,
39,E4221000041201,柳田小学校,長崎県壱岐市郷ノ浦町柳田触885,1,1,1,1,,1,,,1,33.7664183862204,129.701412956592,
40,E4221000042201,勝本小学校,長崎県壱岐市勝本町坂本触262,1,1,1,1,1,1,,,,33.85114214,129.6904336,
41,E4221000043201,勝本地区公民館,長崎県壱岐市勝本町勝本浦211-3,1,1,,1,,1,,,1,33.85115876,129.6931979,
42,E4221000044201,西部地区老人憩いの家,長崎県壱岐市勝本町勝本浦389,1,1,,,,1,,,1,33.8536647,129.6904428,
43,E4221000045201,勝本町漁村センター,長崎県壱岐市勝本町勝本浦575-61,1,1,,,,1,,,1,33.85417723,129.694591,
44,E4221000047201,壱岐商業高等高校,長崎県壱岐市勝本町新城西触282,1,1,1,1,1,1,,,1,33.8323337452303,129.714045231794,
45,E4221000048202,壱岐市役所勝本庁舎,長崎県壱岐市勝本町西戸触182-5,1,,1,1,1,1,,,1,33.848797,129.692729,
46,E4221000049201,霞翠小学校,長崎県壱岐市勝本町西戸触550,1,1,1,1,1,1,,,,33.84435158,129.7008073,
47,E4221000050201,勝本町ふれあいセンターかざはや,長崎県壱岐市勝本町大久保触1736-2,1,1,1,1,1,1,,,1,33.8439394,129.6918469,
48,E4221000051201,勝本中学校,長崎県壱岐市勝本町仲触1846,1,1,1,1,1,1,,,,33.85087428,129.6977904,
49,E4221000052201,布気地区老人憩いの家,長崎県壱岐市勝本町百合畑触398,1,1,1,,1,1,,,1,33.80351709,129.6983131,
50,E4221000053201,湯本地区公民館,長崎県壱岐市勝本町布気触818-10,1,1,,,,1,,,1,33.8048256,129.6901383,
51,E4221000054201,新城地区老人憩いの家,長崎県壱岐市勝本町北触37,1,1,1,,1,1,,,1,33.83092618,129.714956,
52,E4221000055201,鯨伏小学校,長崎県壱岐市勝本町立石南触1137-10,1,1,,1,,1,,,1,33.80408577,129.689233,
53,E4221000057201,立石地区老人憩いの家,長崎県壱岐市勝本町立石南触583,1,1,1,,1,1,,,1,33.79941294,129.6847558,
54,E4221000058201,久喜地区住民センター,長崎県壱岐市石田町久喜触181,1,1,1,,,1,,,1,33.73880962,129.732845,
55,E4221000059201,石田小学校,長崎県壱岐市石田町石田西触1238,1,1,1,1,,1,,,,33.74797694,129.7564523,
56,E4221000060201,石田スポーツセンター,長崎県壱岐市石田町石田西触1264-4,1,1,1,1,,1,,,1,33.74726289,129.7552384,
57,E4221000061201,石田町総合福祉センター,長崎県壱岐市石田町石田西触1486-1,1,1,1,1,1,1,,,1,33.7451707369019,129.753176604449,
58,E4221000062201,石田中学校,長崎県壱岐市石田町石田西触1547,1,1,1,1,,1,,,1,33.74616229,129.7560468,
59,E4221000063201,石田農村環境改善センター,長崎県壱岐市石田町池田東触671-1,1,1,1,1,,1,,,1,33.74435702,129.7514751,
60,E4221000064201,筒城地区公民館,長崎県壱岐市石田町筒城西触157,1,1,1,,1,1,,,1,33.76081723,129.7733418,
61,E4221000065201,筒城小学校,長崎県壱岐市石田町筒城西触191,1,1,1,1,1,1,,,1,33.7591758826748,129.773153697186,
62,E4221000068201,筒城浜ふれあいセンター,長崎県壱岐市石田町筒城仲触1885,1,1,,1,,1,,,1,33.758848,129.789878,
63,E4221300001201,愛野運動公園,長崎県雲仙市愛野町乙1375,1,1,1,1,1,1,1,1,,32.81150556,130.1576083,
64,E4221300002201,愛野中学校,長崎県雲仙市愛野町乙1674,1,1,1,1,1,1,1,1,1,32.81218056,130.1536278,
65,E4221300004201,愛野体育館,長崎県雲仙市愛野町乙493-1,,1,1,1,1,1,1,1,1,32.81593333,130.1523083,
66,E4221300005201,愛野保健福祉センター,長崎県雲仙市愛野町乙493-6,,1,1,1,1,1,1,1,1,32.81606389,130.1519861,
67,E4221300006202,愛の夢未来センター,長崎県雲仙市愛野町乙526-1,,1,1,1,1,1,1,1,1,32.81535556,130.1529917,
68,E4221300006201,愛野武道場,長崎県雲仙市愛野町乙526-1,,1,1,1,1,1,1,1,1,32.815401,130.15353,
69,E4221300007201,愛野小学校,長崎県雲仙市愛野町乙566,,1,1,1,1,1,1,1,1,32.81620278,130.1540806,
70,E4221300009201,白山公園,長崎県雲仙市吾妻町阿母名1048-3,1,1,,1,,1,1,1,,32.828926811658,130.17060867116,
71,E4221300010201,大塚小学校,長崎県雲仙市吾妻町永中名54,1,1,1,1,1,1,1,1,1,32.83551111,130.1804472,
72,E4221300011201,吾妻保健センター,長崎県雲仙市吾妻町牛口名430,1,1,1,1,1,,1,1,,32.835775,130.1888639,
73,E4221300012201,吾妻町ふるさと会館,長崎県雲仙市吾妻町牛口名537-1,1,1,1,1,1,1,1,1,1,32.83535556,130.187875,
74,E4221300013201,鶴田小学校,長崎県雲仙市吾妻町古城名159-1,1,1,1,1,1,1,1,1,1,32.84545278,130.1976111,
75,E4221300014201,川床小学校,長崎県雲仙市吾妻町川床名129,1,1,1,1,1,1,1,1,1,32.81959444,130.2032917,
76,E4221300015201,吾妻体育館,長崎県雲仙市吾妻町大木場名170-1,,1,1,1,1,1,1,1,1,32.83766944,130.1931,
77,E4221300017201,吾妻中学校,長崎県雲仙市吾妻町大木場名190-1,,1,1,1,1,1,1,1,1,32.83684167,130.1934194,
78,E4221300017202,吾妻武道場,長崎県雲仙市吾妻町大木場名190-1,,1,1,1,1,,1,1,1,32.83642778,130.1939056,
79,E4221300018201,吾妻就業改善センター,長崎県雲仙市吾妻町大木場名63,,1,1,1,1,,1,1,,32.838037,130.190685,
80,E4221300019201,吾妻農村広場,長崎県雲仙市吾妻町田之平名200-3,,1,1,1,1,1,1,1,,32.838273,130.195722,
81,E4221300021201,サンスポーツランドあづま,長崎県雲仙市吾妻町布江名541,1,1,1,1,1,1,1,1,,32.82584,130.199897,
82,E4221300022202,遊学の館くにみ,長崎県雲仙市国見町神代丙1230-1,1,1,1,1,1,1,1,1,1,32.85495556,130.2683139,
83,E4221300022201,国見総合運動公園,長崎県雲仙市国見町神代丙1230-1,1,1,1,1,1,1,1,1,1,32.85733889,130.2677611,
84,E4221300023201,神代小学校,長崎県雲仙市国見町神代丙250,,1,1,1,1,1,1,1,1,32.86939722,130.2713417,
85,E4221300024201,国見武道館,長崎県雲仙市国見町神代丙269-1,1,1,1,1,1,1,1,1,1,32.86898889,130.2717472,
86,E4221300025201,神代地区多目的研修集会施設,長崎県雲仙市国見町神代丙286-1,1,1,1,,1,1,1,1,1,32.86900556,130.2719306,
87,E4221300026201,県立国見高等学校,長崎県雲仙市国見町多比良甲1020,1,1,1,1,1,1,1,1,1,32.86640278,130.3054111,
88,E4221300027201,多比良地区馬場集落センター,長崎県雲仙市国見町多比良丙698-2,,1,1,1,1,1,1,1,1,32.862583,130.300852,
89,E4221300029201,多比良小学校,長崎県雲仙市国見町多比良丙724,1,1,1,1,1,1,1,1,1,32.86134167,130.30225,
90,E4221300030201,土黒小学校,長崎県雲仙市国見町土黒乙100,1,1,1,1,1,1,1,1,1,32.867038,130.294572,
91,E4221300031201,国見中学校,長崎県雲仙市国見町土黒乙370,1,1,1,1,1,1,1,1,1,32.86681667,130.2882417,
92,E4221300032201,国見体育館,長崎県雲仙市国見町土黒乙392-1,1,1,1,1,1,1,1,1,1,32.86751111,130.2889083,
93,E4221300033201,八斗木小学校,長崎県雲仙市国見町土黒庚337,1,1,1,1,1,1,1,1,1,32.83601667,130.290775,
94,E4221300034201,国見町総合福祉センター,長崎県雲仙市国見町土黒甲1063,1,1,1,1,1,1,1,1,1,32.87324722,130.3028528,
95,E4221300035201,国見農村環境改善センター,長崎県雲仙市国見町土黒甲1079,1,1,1,,1,1,1,1,1,32.87301,130.301356,
96,E4221300036201,国見町文化会館（まほろば）,長崎県雲仙市国見町土黒甲1079-1,1,1,1,1,1,1,1,1,1,32.87320556,130.3021667,
97,E4221300038201,マリーナ広場,長崎県雲仙市小浜町マリーナ3,1,1,,1,,1,1,1,,32.72148333,130.2013778,
98,E4221300039201,小浜体育館,長崎県雲仙市小浜町マリーナ3-1,1,1,,1,,1,1,1,1,32.722069053875,130.2017806,
99,E4221300040202,やまびこ会館,長崎県雲仙市小浜町雲仙292-1,1,,1,1,1,1,1,1,1,32.74126667,130.2581583,
100,E4221300040201,雲仙メモリアルホール,長崎県雲仙市小浜町雲仙292-1,1,,1,1,1,1,1,1,1,32.741735,130.257679,
101,E4221300041201,旧雲仙小学校跡地,長崎県雲仙市小浜町雲仙386,1,,1,1,1,1,1,1,1,32.72816389,130.2530611,
102,E4221300042201,金浜公民館,長崎県雲仙市小浜町金浜2260-1,1,1,,,,,1,1,1,32.70863333,130.1868194,
103,E4221300043201,北串住民センター,長崎県雲仙市小浜町山畑1755,1,1,1,1,1,1,1,1,1,32.69505556,130.1948417,
104,E4221300044201,北串小学校,長崎県雲仙市小浜町山畑334-5,1,1,1,1,1,1,1,1,1,32.69658889,130.1894417,
105,E4221300045201,とけん山公園,長崎県雲仙市小浜町南本町1094,1,1,1,1,1,1,1,1,,32.72566667,130.2120528,
106,E4221300046201,温泉公園,長崎県雲仙市小浜町南本町120-8,1,,,1,,1,1,1,,32.72190833,130.2031722,
107,E4221300047201,小浜中学校,長崎県雲仙市小浜町南本町290,1,,1,1,1,1,1,1,1,32.72503333,130.2106972,
108,E4221300048201,南本町公民館,長崎県雲仙市小浜町南本町7-13,1,1,,1,,,1,1,1,32.71913889,130.2011972,
109,E4221300049201,小田山公民館,長崎県雲仙市小浜町南木指2293,,1,1,,1,,1,1,1,32.70790556,130.2286556,
110,E4221300050201,飛子公民館,長崎県雲仙市小浜町飛子1883,1,,1,,1,,1,1,1,32.69699722,130.1727806,
111,E4221300117201,木津漁民集会所,長崎県雲仙市小浜町富津1034-2,1,,1,1,1,1,1,1,,32.764575,130.1865722,
112,E4221300051201,富津漁民集会所,長崎県雲仙市小浜町富津2616-3,1,,1,1,1,,1,1,1,32.75685,130.198775,
113,E4221300052201,旧富津小学校跡地,長崎県雲仙市小浜町富津3221,1,1,1,1,1,1,1,1,1,32.76011111,130.1999639,
114,E4221300116201,旧木津保育園,長崎県雲仙市小浜町富津864,1,,1,1,1,,1,1,,32.76523056,130.1900861,
115,E4221300056202,小浜老人福祉センター,長崎県雲仙市小浜町北本町14-3,1,,1,1,1,1,1,1,1,32.730426,130.206972,
116,E4221300056201,夕日の広場駐車場,長崎県雲仙市小浜町北本町14-3,1,,,1,,1,1,1,1,32.73034444,130.2064889,
117,E4221300058201,小浜小学校,長崎県雲仙市小浜町北本町550,1,,1,1,1,1,1,1,1,32.73191944,130.2109722,
118,E4221300059201,小浜町文化館,長崎県雲仙市小浜町北本町819-1,1,,1,,1,1,1,1,1,32.72978333,130.2094667,
119,E4221300060201,小浜公会堂,長崎県雲仙市小浜町北本町848,1,,1,,1,1,1,1,1,32.72949167,130.2087944,
120,E4221300118201,小浜神社公園,長崎県雲仙市小浜町北本町901-1,1,1,1,1,1,1,1,1,,32.72713333,130.20795,
121,E4221300062201,小浜マリンパーク,長崎県雲仙市小浜町北本町905-70,1,1,,1,,1,1,1,,32.72725,130.2055806,
122,E4221300063201,旧木指小学校跡地,長崎県雲仙市小浜町北木指680-2,1,,1,1,1,1,1,1,1,32.71655833,130.1971583,
123,E4221300064201,木指自治会公民館,長崎県雲仙市小浜町北木指87,1,1,1,1,1,1,1,1,1,32.71486667,130.1960083,
124,E4221300065201,石合公園駐車場,長崎県雲仙市小浜町北野1071-8,1,,,1,,1,1,1,,32.739302,130.210063,
125,E4221300119201,山領公民館,長崎県雲仙市小浜町北野2085-2,1,,1,1,1,1,1,1,,32.75198611,130.2174111,
126,E4221300067201,県立小浜高等学校,長崎県雲仙市小浜町北野623,1,1,1,1,1,1,1,1,1,32.74782222,130.2132083,
127,E4221300068201,北野公民館,長崎県雲仙市小浜町北野820-1,1,1,1,,1,,1,1,1,32.74400833,130.2113194,
128,E4221300071201,大正小学校,長崎県雲仙市瑞穂町古部甲81,1,1,1,1,1,1,1,1,1,32.85856389,130.2265028,
129,E4221300072201,西郷小学校,長崎県雲仙市瑞穂町西郷甲1165-1,1,1,1,1,1,1,1,1,1,32.86432778,130.2506278,
130,E4221300073201,瑞穂体育館,長崎県雲仙市瑞穂町西郷辛1060,1,1,1,1,1,1,1,1,1,32.86571389,130.2392278,
131,E4221300074201,瑞穂中学校,長崎県雲仙市瑞穂町西郷辛1135-1,1,1,1,1,1,1,1,1,1,32.864483,130.239083,
132,E4221300075201,瑞穂農業者健康管理施設,長崎県雲仙市瑞穂町西郷辛1135-23,1,1,1,1,1,1,1,1,1,32.864158,130.238412,
133,E4221300076201,瑞穂町公民館,長崎県雲仙市瑞穂町西郷辛1285,1,1,1,1,1,1,1,1,1,32.86600278,130.239775,
134,E4221300077201,ヘルシー会館,長崎県雲仙市瑞穂町西郷辛621-7,1,1,1,1,1,1,1,1,1,32.87141944,130.2373167,
135,E4221300078201,ふれあい会館,長崎県雲仙市瑞穂町西郷辛621-8,1,1,1,1,1,1,1,1,1,32.87146389,130.2365556,
136,E4221300079201,岩戸小学校,長崎県雲仙市瑞穂町西郷丁487-1,,,1,1,1,1,1,1,1,32.83122222,130.2566111,
137,E4221300080201,千々石中学校,長崎県雲仙市千々石町己305,1,,1,1,1,1,1,1,1,32.78752778,130.2059889,
138,E4221300081201,千々石第二小学校,長崎県雲仙市千々石町庚1450,1,1,1,1,1,1,1,1,1,32.76275,130.2148528,
139,E4221300120201,岳地区公民館,長崎県雲仙市千々石町庚3672-5,1,,1,,1,,1,1,,32.76036944,130.2413167,
140,E4221300083201,木場ふれあいセンター,長崎県雲仙市千々石町庚669,1,1,1,1,1,,1,1,1,32.76587222,130.2146111,
141,E4221300084201,下峰多目的集会所,長崎県雲仙市千々石町丙2082-2,1,,1,1,1,1,1,1,1,32.79382778,130.18935,
142,E4221300085201,千々石第一小学校,長崎県雲仙市千々石町戊294,1,1,1,1,1,1,1,1,1,32.78379444,130.1997972,
143,E4221300086201,千々石町公民館,長崎県雲仙市千々石町戊315-6,1,,1,,1,,1,1,1,32.78508056,130.1996861,
144,E4221300087201,千々石保健センター,長崎県雲仙市千々石町戊582,1,1,1,1,1,1,1,1,1,32.78392778,130.201875,
145,E4221300088202,千々石老人福祉センター橘荘,長崎県雲仙市千々石町戊762,1,1,1,,1,,1,1,1,32.78130556,130.1989417,
146,E4221300089202,ハマユリックスホール,長崎県雲仙市南串山町乙2-15,1,,,1,,1,1,1,1,32.68516111,130.157425,
147,E4221300089201,南串山保健福祉センター,長崎県雲仙市南串山町乙2-15,1,,,1,,1,1,1,1,32.68515278,130.1567472,
148,E4221300090201,南串第一小学校,長崎県雲仙市南串山町甲2480,1,,1,1,1,1,1,1,1,32.68324167,130.1644056,
149,E4221300091201,南串山総合支所,長崎県雲仙市南串山町丙10538-4,1,1,1,1,1,1,1,1,1,32.677026,130.145982,
150,E4221300092201,南串山文化センター,長崎県雲仙市南串山町丙1515,1,,1,1,1,1,1,1,,32.67765,130.1432778,
151,E4221300093201,南串第二小学校,長崎県雲仙市南串山町丙1622,1,1,1,1,1,1,1,1,1,32.67513056,130.1418333,
152,E4221300094201,南串山コミュニティセンター,長崎県雲仙市南串山町丙9696-1,1,,1,1,1,1,1,1,1,32.68001667,130.1496639,
153,E4221300095201,南串中学校,長崎県雲仙市南串山町丙9705,1,,1,1,1,1,1,1,1,32.68056389,130.1497222,
154,E4221100001201,東公園,長崎県五島市栄町100-1,1,1,1,1,1,,1,1,,32.69613258,128.8459156,
155,E4221100002201,奥浦小学校体育館,長崎県五島市奥浦町1316-1,,1,,1,,1,,1,,32.737278,128.828055,
156,E4221100005201,下大津住民センター,長崎県五島市下大津町804-1,1,1,1,1,1,,1,1,,32.68575982,128.8522312,
157,E4221100006201,岐宿町公民館岐宿住民センター,長崎県五島市岐宿町岐宿2301,1,1,1,1,1,1,1,1,,32.753526,128.759539,
158,E4221100007201,福江島開発総合センター,長崎県五島市岐宿町岐宿2535,1,1,1,1,1,1,1,1,,32.74983288,128.7595732,
159,E4221100008201,岐宿町公民館山内住民センター,長崎県五島市岐宿町中嶽1258,1,1,1,,1,1,1,1,,32.684404711572,128.73409478541,
160,E4221100009201,岐宿中学校体育館,長崎県五島市岐宿町楠原544,1,1,1,1,1,1,1,1,,32.73007,128.74525,
161,E4221100010201,久賀小中学校,長崎県五島市久賀町245-8,1,1,1,1,1,1,1,1,,32.791836,128.868847,"洪水
土砂災害
津波高潮の場合は垂直避難とする。"
162,E4221100011201,玉之浦支所,長崎県五島市玉之浦町玉之浦763,1,1,1,1,1,1,1,1,,32.634312,128.619955,"土砂災害の場合は2階へ避難すること。
ペット同伴可能。"
163,E4221100012201,玉之浦小中学校体育館,長崎県五島市玉之浦町小川1130,1,1,1,1,1,1,1,1,,32.62996,128.66928,
164,E4221100013201,玉之浦健康増進施設,長崎県五島市玉之浦町大宝1006,1,1,1,1,1,1,1,1,,32.604522957892,128.65343016283,
165,E4221100014201,福江小学校体育館,長崎県五島市錦町1-1,1,1,1,1,1,1,1,1,,32.693347,128.843196,ペット可能
166,E4221100015201,嵯峨島小中学校,長崎県五島市三井楽町嵯峨島130,1,1,1,1,1,1,1,1,,32.72646839,128.5984647,
167,E4221100016201,三井楽町公民館,長崎県五島市三井楽町濱ノ畔1044-1,1,1,1,1,1,1,1,1,,32.746641767135,128.69218984421,
168,E4221100017201,三井楽町総合福祉センター,長崎県五島市三井楽町濱ノ畔1046-1,1,1,1,1,1,1,1,1,,32.746716749703,128.69165099662,
169,E4221100019201,三井楽中学校体育館,長崎県五島市三井楽町濱ノ畔1258,1,1,1,1,1,1,1,1,,32.743191,128.68807,ペット同伴可能。
170,E4221100020201,遣唐使ふるさと館,長崎県五島市三井楽町濱ノ畔3150-1,1,1,1,1,1,1,1,1,,32.738284296193,128.69038482339,
171,E4221100021201,多目的研修集会施設,長崎県五島市三井楽町濱ノ畔521,1,1,1,1,1,1,1,1,,32.751099468074,128.6832820454,
172,E4221100022201,中央公園市民体育館,長崎県五島市三尾野町266-1,1,1,1,1,1,1,1,1,,32.686593,128.83497,
173,E4221100023201,大浜地区公民館,長崎県五島市小泊町315-1,1,1,1,1,1,,1,1,,32.64988241,128.8155212,
174,E4221100024201,松山住民センター,長崎県五島市松山町111-1,1,1,1,1,1,1,1,1,,32.70119345,128.8417413,
175,E4221100025201,福江中学校体育館,長崎県五島市松山町75-4,1,1,1,1,1,1,1,1,,32.701287,128.840526,
176,E4221100026201,上大津住民センター,長崎県五島市上大津町80,1,1,1,1,1,,1,1,,32.68609998,128.8483669,
177,E4221100027201,長崎県立五島高等学校体育館,長崎県五島市池田町1-1,1,1,1,1,1,1,1,1,,32.692932,128.847173,
178,E4221100028201,勤労福祉センター,長崎県五島市池田町1-2,1,1,1,1,1,1,1,1,,32.6940347,128.8461504,ペット同伴可能。
179,E4221100029201,外濠公園,長崎県五島市池田町1357,1,1,1,1,1,,1,1,,32.69339719,128.8479667,
180,E4221100049201,長手スポーツセンター,長崎県五島市長手町303-1,1,1,1,1,1,1,1,1,,32.675564,128.872242,
181,E4221100031201,本山地区公民館,長崎県五島市堤町1320,1,1,1,1,1,,1,1,,32.66881514,128.8213978,
182,E4221100032201,翁頭中学校体育館,長崎県五島市堤町1765,1,1,1,1,1,1,1,1,,32.672226,128.816154,
183,E4221100033201,奈留小中学校体育館、柔剣道場,長崎県五島市奈留町浦1225-1,1,1,1,1,1,1,1,1,,32.831623,128.931729,ペット同伴可能。
184,E4221100034201,長崎県立奈留高等学校,長崎県五島市奈留町浦1246-2,1,1,1,1,1,1,1,1,,32.83011542,128.9307002,
185,E4221100052201,奈留総合体育館,長崎県五島市奈留町浦468-182,1,1,1,1,1,1,1,,,32.836616,128.932063,
186,E4221100035202,奈留テニスコート,長崎県五島市奈留町浦468-71,1,1,1,1,1,1,1,,,32.83620881,128.9324489,
187,E4221100036202,奈留保健センター,長崎県五島市奈留町浦547-14,1,1,1,1,1,1,1,1,,32.839478,128.928316,
188,E4221100037201,奈留総合グラウンドサブグラウンド,長崎県五島市奈留町浦619-33,1,1,,1,,1,1,,,32.840338,128.928144,
189,E4221100038201,大浜財産区管理センター,長崎県五島市浜町73-1,1,1,1,1,1,1,1,1,,32.650985,128.814229,
190,E4221100041201,富江中学校体育館,長崎県五島市富江町狩立464,1,1,1,1,1,1,1,1,,32.614437,128.762792,ペット同伴可能。
191,E4221100042201,富江地域福祉センター,長崎県五島市富江町狩立489,1,1,1,1,1,1,1,1,,32.61233055,128.7635785,
192,E4221100043201,富江温泉センター駐車場,長崎県五島市富江町松尾662-2,1,1,,1,,1,1,1,,32.618338,128.762109,
193,E4221100051201,富江町公民館,長崎県五島市富江町富江165-1,1,1,1,1,1,1,1,1,,32.615208,128.767181,
194,E4221100045201,丸木緑地公園,長崎県五島市福江町1190-63,1,1,,1,,1,1,1,,32.70059425,128.8492963,
195,E4221100046201,末広公園,長崎県五島市末広町100-1,1,1,1,1,1,,1,1,,32.6951385,128.8420423,
196,E4221100047201,緑丘地区公民館,長崎県五島市木場町371-1,1,1,1,1,1,,1,1,,32.69240665,128.8352,
197,E4221100048201,緑丘小学校体育館,長崎県五島市木場町765,1,1,1,1,1,1,1,1,,32.694637,128.830827,
198,E4239100001201,千本公園グラウンド,長崎県佐々町羽須和免200,1,,1,1,1,1,1,,,33.2329962695546,129.655260602486,
199,E4239100002201,神田公園グラウンド,長崎県佐々町皆瀬免1185-1,1,,1,1,1,1,1,,,33.261603,129.675363,
200,E4239100005201,北部グラウンド,長崎県佐々町市瀬免350-9,1,,1,1,1,1,1,,,33.261690205674,129.659841267852,
201,E4239100007201,サン・ビレッジさざ,長崎県佐々町小浦免41-3,,1,1,1,1,1,1,,,33.222035,129.640699,
202,E4239100010201,口石小学校グラウンド,長崎県佐々町須崎免389,1,1,1,1,1,1,1,,1,33.22787295,129.6493666,
203,E4239100011201,佐々小学校グラウンド,長崎県佐々町中川原免111-1,,,1,1,1,1,1,,1,33.25015,129.658241,
204,E4239100013201,佐々中学校グラウンド,長崎県佐々町本田原免111,,,1,1,1,1,1,,1,33.2395,129.652394,
205,E4220200002201,もみじが丘中央公園,長崎県佐世保市もみじが丘町2,,,,1,1,1,,,,33.1599,129.7743528,
206,E4220200003201,もみじが丘第一公園,長崎県佐世保市もみじが丘町28-1,,,,1,1,1,,,,33.16172778,129.7777861,
207,E4220200004201,日宇地区コミュニティセンター体育室,長崎県佐世保市もみじが丘町42-1,,1,,,,,,,1,33.160475,129.7815028,
208,E4220200005201,もみじが丘第三公園,長崎県佐世保市もみじが丘町47-60,,,,1,,1,,,,33.15896111,129.7793417,
209,E4220200006201,もみじが丘第四公園,長崎県佐世保市もみじが丘町6-4,,,,1,1,1,,,,33.158546,129.776855,
210,E4220200007201,大塔小学校,長崎県佐世保市もみじが丘町6745,,1,,1,,1,,,1,33.16146111,129.7743833,
211,E4220200001201,長崎国際大学,長崎県佐世保市ハウステンボス町2825-7,1,1,,1,,1,,,1,33.101685,129.789978,
212,E4220200008201,道の駅「させぼっくす　９９」,長崎県佐世保市愛宕町11,1,1,,1,1,1,,,1,33.201475,129.6718972,
213,E4220200009201,旧庵浦小学校,長崎県佐世保市庵浦町1446,,,,1,,1,,,,33.12499444,129.6991889,
214,E4220200010201,稲荷公園,長崎県佐世保市稲荷町165-8,,,,1,1,1,,,,33.15701389,129.7339417,
215,E4220200011201,大宮公園,長崎県佐世保市稲荷町190,,,,1,,1,,,,33.15727222,129.7370056,
216,E4220200012201,南地区コミュニティセンター,長崎県佐世保市稲荷町2-5,,1,,,,,,,1,33.157075,129.7346611,
217,E4220200013201,宇久町総合公園,長崎県佐世保市宇久町小浜３０９６－４８外,,,,1,1,1,,,,33.26016111,129.1188028,
218,E4220200015201,県立宇久高等学校,長崎県佐世保市宇久町平1042,,1,,1,1,1,,,1,33.26416667,129.1267222,
219,E4220200016201,エビスが丘中央公園,長崎県佐世保市宇久町平2253,,,,1,1,1,,,,33.26830556,129.1308111,
220,E4220200017201,宇久中学校,長崎県佐世保市宇久町平2303,,1,,1,1,1,,,1,33.26747222,129.1313111,
221,E4220200018201,宇久小学校,長崎県佐世保市宇久町平2690,,1,,1,1,1,,,1,33.266310924037,129.13042121766,
222,E4220200019201,宇久地区コミュニティセンター,長崎県佐世保市宇久町平2691,,1,,,,,,,1,33.26640278,129.1303361,
223,E4220200020201,古里公園,長崎県佐世保市宇久町本飯良1307,,,,1,1,1,,,,33.2669,129.0860056,
224,E4220200021201,烏帽子岳高原リゾートスポーツの里,長崎県佐世保市烏帽子町128,,,,1,1,1,,,,33.184025,129.7636639,
225,E4220200022201,県立佐世保青少年の天地,長崎県佐世保市烏帽子町376,,1,,1,,1,,,1,33.17572778,129.75675,
226,E4220200267201,東部スポーツ広場,長崎県佐世保市浦川内町,1,1,,1,1,1,,,,33.11929167,129.8049889,
227,E4220200023201,佐世保拘置支所（鍛錬場）,長崎県佐世保市浦川内町1,,1,,1,,1,,,1,33.117945063315,129.81247888835,
228,E4220200025201,国立佐世保工業高等専門学校,長崎県佐世保市沖新町1-1,,1,,1,,1,,,1,33.14938889,129.7487194,
229,E4220200026201,宮小学校,長崎県佐世保市荻坂町1715,1,1,,1,,1,,,1,33.08846944,129.8181917,土砂：体育館使用不可
230,E4220200027201,卸本町第二公園,長崎県佐世保市卸本町174,,,,1,1,1,,,,33.14866111,129.7721,
231,E4220200028201,下宇戸公園,長崎県佐世保市下宇戸町802-1,,,,1,1,1,,,,33.19158611,129.773975,
232,E4220200029201,船越第二公園,長崎県佐世保市下船越町306-3,,,,1,,1,,,,33.13663333,129.6975778,
233,E4220200030201,九十九地区コミュニティセンター,長崎県佐世保市下船越町306-7,,1,,,,,,,1,33.13688889,129.6980667,
234,E4220200031201,九州文化学園小中学校,長崎県佐世保市花園町10-1,1,,,1,1,1,,,1,33.18285,129.7233667,
235,E4220200032201,花高第一公園,長崎県佐世保市花高1-269-9,,,,1,1,1,,,,33.13750833,129.8048056,
236,E4220200033201,早岐児童センター,長崎県佐世保市花高1-6-45,1,1,,,,,,,1,33.138361,129.803774,
237,E4220200034201,花高第二公園,長崎県佐世保市花高3-20-3,,,,1,1,1,,,,33.14281944,129.8107667,
238,E4220200035201,花高小学校,長崎県佐世保市花高3-4-1,1,1,,1,,1,,,1,33.140675,129.8115417,
239,E4220200036202,花高中央公園,長崎県佐世保市花高3-98-11,,,,1,1,1,,,1,33.14034722,129.8096917,
240,E4220200036203,早岐地区コミュニティセンター　花高体育室,長崎県佐世保市花高3-98-11,1,,,,1,,,,1,33.140929,129.808785,
241,E4220200037201,花高第三公園,長崎県佐世保市花高4-110-142,,,,1,1,1,,,,33.14034167,129.8129361,
242,E4220200038201,皆瀬小学校,長崎県佐世保市皆瀬町207,1,1,,1,,1,,,1,33.21419444,129.6980083,
243,E4220200039201,福石中学校,長崎県佐世保市干尽町2-10,,1,,1,1,1,,,1,33.15322778,129.7326111,
244,E4220200040201,佐世保競輪場,長崎県佐世保市干尽町2-5,,1,,1,1,1,,,1,33.15534722,129.7305722,
245,E4220200041201,干尽公園,長崎県佐世保市干尽町6-21,,,,1,1,1,,,,33.15036667,129.7245417,
246,E4220200042201,祇園中学校,長崎県佐世保市祇園町14-12,1,1,,1,,1,,,1,33.17686667,129.725175,
247,E4220200043201,祇園小学校,長崎県佐世保市祇園町18-18,1,1,,1,,1,,,1,33.17466389,129.7234778,
248,E4220200044201,牧の岳公園,長崎県佐世保市吉井町前岳158-1,,,,1,1,1,,,,33.271725,129.7003944,
249,E4220200045201,吉井南小学校,長崎県佐世保市吉井町前岳27-3,1,1,,1,,1,,,1,33.27063056,129.6918194,土砂：運動場・体育館使用不可
250,E4220200046201,吉井中学校,長崎県佐世保市吉井町前岳3-2,,1,,1,,1,,,1,33.27006389,129.6921444,
251,E4220200047201,吉井北小学校,長崎県佐世保市吉井町直谷1030,1,1,,1,,1,,,1,33.286460901278,129.69877101402,
252,E4220200048201,吉井地区コミュニティセンター　吉田乃館,長崎県佐世保市吉井町田原625-1,1,1,,1,,1,,,1,33.259901,129.699692,
253,E4220200049201,吉井親水公園,長崎県佐世保市吉井町立石227-3,,,,1,1,1,,,,33.26724167,129.6860028,
254,E4220200050201,吉井地区コミュニティセンター,長崎県佐世保市吉井町立石473,,1,,,,,,,1,33.270125,129.6887861,
255,E4220200051201,吉岡第二公園,長崎県佐世保市吉岡町1023-1,,,,1,1,1,,,,33.20637778,129.6950639,
256,E4220200052201,県立佐世保商業高等学校,長崎県佐世保市吉岡町863-3,1,1,,1,,1,,,1,33.20597222,129.6982083,
257,E4220200053201,光海中学校,長崎県佐世保市金比良町1-15,1,1,,1,1,1,,,1,33.168796,129.708726,
258,E4220200054201,金比良小学校,長崎県佐世保市金比良町1-5,1,1,,1,1,1,,,1,33.169973,129.70786,
259,E4220200055201,西地区コミュニティセンター,長崎県佐世保市金比良町1-7,1,1,,,1,,,,1,33.16935278,129.7069306,
260,E4220200056201,県立武道館,長崎県佐世保市熊野町90,1,,,,1,,,,1,33.178806,129.72261,
261,E4220200057201,平松公園,長崎県佐世保市桑木場町1840-1,,,,1,1,1,,,,33.16728056,129.8083639,
262,E4220200058201,権常寺公園,長崎県佐世保市権常寺1-20,,,,1,,1,,,,33.13224444,129.7999472,
263,E4220200059201,大野小学校,長崎県佐世保市原分町1,,1,,1,,1,,,1,33.21023611,129.7262139,
264,E4220200060201,北部ふれあいスポーツ広場,長崎県佐世保市原分町1578,,,,1,1,1,,,,33.22043333,129.7275778,
265,E4220200061201,旧戸尾小学校跡,長崎県佐世保市戸尾町5-1,1,1,,1,1,1,,,1,33.16900833,129.7252306,
266,E4220200062201,琴平公園,長崎県佐世保市御船町370-1,,,,1,,1,,,,33.16996389,129.7045028,
267,E4220200064202,中部地区コミュニティセンター,長崎県佐世保市光月町6-17,1,1,,,1,,,,1,33.173004,129.724899,
268,E4220200064201,体育文化館,長崎県佐世保市光月町6-17,1,1,,1,1,1,,,1,33.17278611,129.7242083,
269,E4220200063201,新公園,長崎県佐世保市光月町１０００－９外２町,,,,1,1,1,,,,33.17233889,129.7247472,
270,E4220200065201,三川内小学校,長崎県佐世保市口の尾町698,1,1,,1,,1,,,1,33.15932222,129.8285639,
271,E4220200066201,小森公園,長崎県佐世保市広田1-129,,,,1,,1,,,,33.12884167,129.7991861,
272,E4220200067201,広田小学校,長崎県佐世保市広田1-25-4,1,1,,1,1,1,,,1,33.127462,129.802558,
273,E4220200068201,広田公園,長崎県佐世保市広田3-119,,,,1,1,1,,,,33.12295278,129.8045222,
274,E4220200069201,崎岡第一公園,長崎県佐世保市広田3-396,,,,1,,1,,,,33.12014167,129.8021889,
275,E4220200070201,江永公園,長崎県佐世保市江永町610-1,,,,1,1,1,,,,33.160625,129.8428722,
276,E4220200071201,白岳自然公園,長崎県佐世保市江迎町奥川内253-6,,,,1,1,1,,,,33.30724444,129.6643139,
277,E4220200072201,デイサービスセンター老福荘,長崎県佐世保市江迎町赤坂282-24,1,1,,,1,,,,1,33.296646,129.640384,
278,E4220200073201,江迎小学校,長崎県佐世保市江迎町中尾126,1,1,,1,1,1,,,1,33.30932222,129.6346778,
279,E4220200074201,猪調小学校,長崎県佐世保市江迎町猪調1000,1,1,,1,,1,,,1,33.28489722,129.6700889,土砂：体育館使用不可
280,E4220200075201,猪調公園,長崎県佐世保市江迎町猪調1312,,,,1,1,1,,,,33.28616111,129.6745639,
281,E4220200076201,江迎地区コミュニティセンター,長崎県佐世保市江迎町長坂104,,1,,,,,,,1,33.30706389,129.6318611,
282,E4220200077201,江迎中央公園,長崎県佐世保市江迎町長坂320,,,,1,1,1,,,,33.30995278,129.63,
283,E4220200078201,岩下公園,長崎県佐世保市江迎町田ノ元1008-6,,,,1,1,1,,,,33.283784114385,129.68284797249,
284,E4220200079201,江迎地区文化会館,長崎県佐世保市江迎町田ノ元265-1,1,1,,,,,,,1,33.28141389,129.6847722,
285,E4220200080201,高岩公園,長崎県佐世保市江迎町北平3-10,,,,1,1,1,,,,33.30109167,129.6377556,
286,E4220200081201,才木公園,長崎県佐世保市江迎町末橘1206-1,,,,1,1,1,,,,33.31830556,129.6243778,
287,E4220200082201,江迎中学校,長崎県佐世保市江迎町乱橋584,,1,,1,,1,,,1,33.29663889,129.6374861,
288,E4220200083201,東明中学校,長崎県佐世保市江上町814,,1,,1,1,1,,,1,33.108787007634,129.76965210266,
289,E4220200084201,東明公園,長崎県佐世保市江上町926-3,,,,1,,1,,,,33.10365278,129.7700167,
290,E4220200085201,相浦小学校高島分校,長崎県佐世保市高島町336,,1,,1,1,1,,,1,33.16449167,129.5891278,
291,E4220200086201,妙見公園,長崎県佐世保市高梨町446,,,,1,1,1,,,,33.17524444,129.7270083,
292,E4220200087201,黒島小中学校,長崎県佐世保市黒島町2608-10,,1,,1,,1,,,1,33.14358056,129.5397528,
293,E4220200088201,黒島地区コミュニティセンター,長崎県佐世保市黒島町3175,,1,,,,,,,1,33.14178611,129.5344806,
294,E4220200089201,上木場公園,長崎県佐世保市黒髪町2406,,,,1,1,1,,,,33.17318333,129.7858417,
295,E4220200090201,黒髪第二公園,長崎県佐世保市黒髪町4899-116,,,,1,1,1,,,,33.17021667,129.7710611,
296,E4220200091201,黒髪小学校,長崎県佐世保市黒髪町52-1,,1,,1,,1,,,1,33.16414444,129.7756694,
297,E4220200092201,椿ヶ丘公園,長崎県佐世保市黒髪町6233-3,,,,1,1,1,,,,33.16308889,129.7796444,
298,E4220200093201,黒髪第一公園,長崎県佐世保市黒髪町6361-1,,,,1,1,1,,,,33.16507222,129.7795667,
299,E4220200094201,崎岡西公園,長崎県佐世保市崎岡町971-1,,,,1,,1,,,,33.11770833,129.7983639,
300,E4220200095201,桜木公園,長崎県佐世保市桜木町694-1,,,,1,1,1,,,,33.20141944,129.7273972,
301,E4220200096201,桜木やまんた公園,長崎県佐世保市桜木町918-6,,,,1,1,1,,,,33.19892778,129.7335917,
302,E4220200097201,テクノパーク第一公園,長崎県佐世保市三川内新町１－２０外,,,,1,1,1,,,,33.13942222,129.8425444,
303,E4220200098201,三川内山公園,長崎県佐世保市三川内町1092-1,,,,1,1,1,,,,33.13411667,129.8329972,
304,E4220200099201,三川内運動広場,長崎県佐世保市三川内町987,,,,1,,1,,,,33.13023056,129.8329056,
305,E4220200100201,三川内地区コミュニティセンター,長崎県佐世保市三川内本町289-1,1,1,,,,,,,1,33.15274722,129.8293139,
306,E4220200101201,三川内焼伝統産業会館,長崎県佐世保市三川内本町343,1,1,,,1,,,,1,33.15373889,129.8294556,
307,E4220200102201,三川内地区コミュニティセンター　体育室,長崎県佐世保市三川内本町358-1,,1,,,,,,,1,33.15457778,129.8302722,
308,E4220200103201,三川内中央運動公園,長崎県佐世保市三川内本町380-1,,,,1,1,1,,,,33.15335556,129.8278556,
309,E4220200104201,白南風小学校,長崎県佐世保市山祇町387,,1,,1,,1,,,1,33.16787222,129.7331694,
310,E4220200105201,山手小学校,長崎県佐世保市山手町16-38,1,1,,1,,1,,,1,33.18654444,129.7264639,
311,E4220200106201,江上地区コミュニティセンター,長崎県佐世保市指方町1759,,1,,,,,,,1,33.10856944,129.7834389,
312,E4220200107201,江上公園,長崎県佐世保市指方町2230-2,,,,1,,1,,,,33.10815833,129.7834056,
313,E4220200108201,江上小学校,長崎県佐世保市指方町2382,,1,,1,,1,,,1,33.10923333,129.7782167,
314,E4220200109201,岩下公園,長崎県佐世保市指方町3788-141,,,,1,,1,,,,33.09728333,129.7905333,
315,E4220200110201,旧ポリテクセンター体育館,長崎県佐世保市指方町692-1,,1,,,,,,,1,33.114498110161,129.79140544666,
316,E4220200111201,枇杷坂公園,長崎県佐世保市指方町766-5,,,,1,,1,,,,33.11299167,129.7885194,
317,E4220200112201,赤崎小学校,長崎県佐世保市鹿子前町330,,1,,1,,1,,,1,33.16066111,129.688225,
318,E4220200113201,鹿子前園地,長崎県佐世保市鹿子前町918-1,,,,1,,1,,,,33.16204167,129.6822778,
319,E4220200114201,鹿町中学校,長崎県佐世保市鹿町町下歌ヶ浦1-16,,1,,1,1,1,,,1,33.27859722,129.5897111,
320,E4220200115201,歌浦小学校,長崎県佐世保市鹿町町下歌ヶ浦791-11,,1,,1,,1,,,1,33.26636667,129.5815556,
321,E4220200116201,鹿町地区コミュニティセンター,長崎県佐世保市鹿町町下歌ヶ浦8-37,,1,,,,,,,1,33.27826944,129.5933194,
322,E4220200117201,明星公園,長崎県佐世保市鹿町町上歌ヶ浦219-2,,,,1,1,1,,,,33.25734167,129.6026472,
323,E4220200118201,戸石川公園,長崎県佐世保市鹿町町深江553-10,,,,1,1,1,,,,33.30273889,129.6196833,
324,E4220200119201,鹿町小学校,長崎県佐世保市鹿町町深江730-1,1,1,,1,,1,,,1,33.29811111,129.6160139,
325,E4220200120201,長串山公園,長崎県佐世保市鹿町町長串１７４－１２外,,,,1,1,1,,,,33.25633889,129.5784278,
326,E4220200121201,県立鹿町工業高等学校,長崎県佐世保市鹿町町土肥ノ浦110,,1,,1,,1,,,1,33.30579722,129.6172472,
327,E4220200122201,若竹台北公園,長崎県佐世保市若竹台町265,,,,1,1,1,,,,33.1479,129.7892556,
328,E4220200123201,若竹台中央公園,長崎県佐世保市若竹台町312,,,,1,1,1,,,,33.14615556,129.7876972,
329,E4220200124201,崎辺地区コミュニティセンター,長崎県佐世保市十郎新町3-7,,1,,,,,,,1,33.13830833,129.7395806,
330,E4220200125201,広田中学校,長崎県佐世保市重尾町188,,1,,1,1,1,,,1,33.124649,129.809952,
331,E4220200126201,県立佐世保東翔高等学校,長崎県佐世保市重尾町425-3,,1,,1,,1,,,1,33.12605,129.8161694,
332,E4220200127201,広田地区コミュニティセンター,長崎県佐世保市重尾町63,,1,,,1,,,,1,33.124475,129.8074167,
333,E4220200128201,北地区コミュニティセンター,長崎県佐世保市春日町18-9,1,1,,,1,,,,1,33.19820833,129.7230917,
334,E4220200129201,西海学園高等学校,長崎県佐世保市春日町29-22,,1,,1,,1,,,1,33.20066111,129.7217167,
335,E4220200130201,春日公園,長崎県佐世保市春日町318,,,,1,1,1,,,,33.19979722,129.7232167,
336,E4220200131201,春日第二公園,長崎県佐世保市春日町476-2,,,,1,1,1,,,,33.19835833,129.723775,
337,E4220200132201,勝富公園,長崎県佐世保市勝富町1000-9,,,,1,1,1,,,,33.17350556,129.728425,
338,E4220200133201,小佐々スポーツセンター,長崎県佐世保市小佐々町黒石523-1,1,1,,,,,,,1,33.21459,129.628183,
339,E4220200134201,小佐々中学校,長崎県佐世保市小佐々町西川内132,,1,,1,1,1,,,1,33.21375,129.6001417,
340,E4220200135201,小佐々地区コミュニティセンター,長崎県佐世保市小佐々町西川内172-3,1,1,,,1,,,,1,33.214976,129.599076,
341,E4220200136201,小佐々小学校,長崎県佐世保市小佐々町田原290-1,,1,,1,,1,,,1,33.226752,129.619183,
342,E4220200137201,楠栖小学校,長崎県佐世保市小佐々町楠泊526,,1,,1,1,1,,,1,33.21897222,129.5737417,
343,E4220200138201,冷水岳園地,長崎県佐世保市小佐々町矢岳１６１８－１２外,,,,1,1,1,,,,33.23428056,129.5842417,
344,E4220200139201,小佐世保小学校,長崎県佐世保市小佐世保町18-1,1,1,,1,1,1,,,1,33.17648611,129.7347556,
345,E4220200140201,県立ろう学校佐世保分教室,長崎県佐世保市小舟町60,,1,,1,,1,,,1,33.20789167,129.7594278,
346,E4220200141201,小島公園,長崎県佐世保市小島町167-1,,,,1,1,1,,,,33.16555556,129.7012639,
347,E4220200142201,松浦公園,長崎県佐世保市松浦町1000-5,,,,1,,1,,,,33.17454722,129.7178583,
348,E4220200144201,聖和女子学院高等学校,長崎県佐世保市松山町495,1,1,,1,,1,,,1,33.19176111,129.7223889,
349,E4220200143201,松山公園,長崎県佐世保市松山町３００－２外,,,,1,1,1,,,,33.19350833,129.7269361,
350,E4220200145201,大野中学校,長崎県佐世保市松瀬町838,,1,,1,,1,,,1,33.210375,129.7267889,
351,E4220200146201,相浦小学校,長崎県佐世保市上相浦町3-9,,1,,1,,1,,,1,33.19324167,129.6678889,
352,E4220200148201,桧台第一公園,長崎県佐世保市上本山町1-460,,,,1,1,1,,,,33.21156944,129.6912194,
353,E4220200149201,桧台第二公園,長崎県佐世保市上本山町1-465,,,,1,1,1,,,,33.21195278,129.6880389,
354,E4220200147201,中里皆瀬地区コミュニティセンター,長崎県佐世保市上本山町1228-1,,1,,,,,,,1,33.210625,129.6955806,
355,E4220200150201,柚木小学校,長崎県佐世保市上柚木町3204,,1,,1,,1,,,1,33.21293611,129.7737972,
356,E4220200151201,宮中学校,長崎県佐世保市城間町338,,1,,1,,1,,,1,33.08759722,129.8150722,
357,E4220200152201,宮地区コミュニティセンター,長崎県佐世保市城間町345,,1,,,,,,,1,33.08686944,129.8148194,
358,E4220200153201,まちなかコミュニティセンター,長崎県佐世保市常盤町6-1,,1,,,,,,,1,33.17378333,129.7187528,
359,E4220200154201,三川内中学校,長崎県佐世保市新行江町957,,1,,1,,1,,,1,33.15521389,129.83375,
360,E4220200155201,新田公園,長崎県佐世保市新田町403-7,,,,1,1,1,,,,33.18866944,129.6743083,
361,E4220200156201,上相浦公園,長崎県佐世保市新田町67-4,,,,1,,1,,,,33.19526944,129.6700833,
362,E4220200157201,神島公園,長崎県佐世保市神島町99-1,,,,1,1,1,,,,33.16718333,129.7054556,
363,E4220200158201,針尾地区コミュニティセンター,長崎県佐世保市針尾中町1538-5,,1,,,,,,,1,33.07778333,129.7560833,
364,E4220200159201,針尾小学校,長崎県佐世保市針尾中町1863,,1,,1,1,1,,,1,33.082225,129.7546889,
365,E4220200160201,西海橋公園,長崎県佐世保市針尾東町２６７８外,,,,1,1,1,,,,33.05546389,129.7569556,
366,E4220200161201,大崎公園,長崎県佐世保市針尾北町2157-9,,,,1,1,1,,,,33.11850556,129.74825,
367,E4220200162201,針尾地区コミュニティセンター　体育室,長崎県佐世保市針尾北町756,1,1,,,1,,,,1,33.100259486338,129.75604929392,
368,E4220200163201,浦頭引揚記念平和公園,長崎県佐世保市針尾北町８２４外,,,,1,1,1,,,,33.10051111,129.7577083,
369,E4220200164201,早岐中学校,長崎県佐世保市陣の内町100,1,1,,1,,1,,,1,33.14335,129.7970056,
370,E4220200165201,陣の内公園,長崎県佐世保市陣の内町883,,,,1,1,1,,,,33.14923611,129.7910472,
371,E4220200166201,須佐公園,長崎県佐世保市須佐町57,,,,1,1,1,,,,33.17621389,129.7305722,
372,E4220200167201,潮見小学校,長崎県佐世保市須田尾町19-44,,1,,1,,1,,,1,33.16471667,129.7343389,
373,E4220200168201,山澄中学校,長崎県佐世保市須田尾町232,,1,,1,,1,,,1,33.16640556,129.7359722,
374,E4220200169201,世知原中学校,長崎県佐世保市世知原町栗迎132-1,1,1,,1,1,1,,,1,33.25461944,129.7530667,
375,E4220200170201,世知原小学校,長崎県佐世保市世知原町栗迎194-1,,1,,1,,1,,,1,33.25674722,129.7535444,
376,E4220200171201,世知原地区コミュニティセンター,長崎県佐世保市世知原町栗迎246-1,,1,,,,,,,1,33.257698563416,129.75168522588,
377,E4220200172201,板山公園,長崎県佐世保市世知原町上野原２３９５－７外,,,,1,1,1,,,,33.23174167,129.7494528,
378,E4220200173201,瀬戸越公園,長崎県佐世保市瀬戸越3-1666-4,,,,1,1,1,,,,33.20521389,129.7289056,
379,E4220200174201,春日小学校,長崎県佐世保市瀬戸越3-19-1,1,1,,1,1,1,,,1,33.202692,129.728468,
380,E4220200175201,県立佐世保工業高等学校,長崎県佐世保市瀬戸越3-3-30,,1,,1,,1,,,1,33.20808056,129.7299361,
381,E4220200176201,眼鏡岩公園,長崎県佐世保市瀬戸越町1266-1,,,,1,,1,,,,33.20366389,129.7192833,
382,E4220200177201,星和第一公園,長崎県佐世保市星和台町1460-332,,,,1,1,1,,,,33.17493056,129.6770694,
383,E4220200178201,赤崎台第一公園,長崎県佐世保市赤崎町1450-1,,,,1,1,1,,,,33.15885833,129.6924694,
384,E4220200179201,愛宕中学校,長崎県佐世保市赤崎町483-2,,1,,1,1,1,,,1,33.157098713656,129.69707598228,
385,E4220200180201,愛宕地区コミュニティセンター,長崎県佐世保市赤崎町596-26,,1,,,,,,,1,33.15556389,129.6953917,
386,E4220200181201,泉水田公園,長崎県佐世保市赤崎町630,,,,1,1,1,,,,33.15523611,129.6952667,
387,E4220200182201,赤崎公園,長崎県佐世保市赤崎町857,,,,1,1,1,,,,33.15452222,129.6999806,
388,E4220200183201,長崎県立大学佐世保校,長崎県佐世保市川下町123,,1,,1,,1,,,1,33.18688611,129.6666167,
389,E4220200184201,相浦地区コミュニティセンター,長崎県佐世保市川下町209-5,,1,,,,,,,1,33.186276287825,129.66823856129,
390,E4220200185201,相浦中学校,長崎県佐世保市川下町277,,1,,1,,1,,,1,33.19036389,129.6685778,
391,E4220200186201,浅子公園,長崎県佐世保市浅子町188-14,,,,1,,1,,,,33.19551944,129.6234472,
392,E4220200187201,浅子小中学校,長崎県佐世保市浅子町58,,1,,1,1,1,,,1,33.20325278,129.6259944,
393,E4220200188201,西海国立公園九十九島動植物園（駐車場）,長崎県佐世保市船越町2172,,,,1,1,1,,,,33.15155,129.6901194,
394,E4220200189201,船越小学校,長崎県佐世保市船越町759,,1,,1,1,1,,,1,33.14587222,129.6904833,
395,E4220200190201,早岐公園,長崎県佐世保市早岐1-377-1,,,,1,,1,,,,33.13590556,129.7976278,
396,E4220200191201,早岐地区コミュニティセンター,長崎県佐世保市早岐1-6-38,,1,,,,,,,1,33.13631111,129.7975667,
397,E4220200192201,早岐小学校,長崎県佐世保市早岐2-32-12,,1,,1,1,1,,,1,33.13987222,129.7980417,
398,E4220200193201,早苗公園,長崎県佐世保市早苗町771,,,,1,1,1,,,,33.14598056,129.803425,
399,E4220200194201,相浦西小学校,長崎県佐世保市相浦町794,1,1,,1,1,1,,,1,33.19128889,129.6625,
400,E4220200195201,大岳台第二公園,長崎県佐世保市大岳台町2-389,,,,1,1,1,,,,33.148675,129.7626444,
401,E4220200196201,大岳台第三公園,長崎県佐世保市大岳台町2-605,,,,1,1,1,,,,33.14568333,129.7640194,
402,E4220200197201,大潟公園,長崎県佐世保市大潟町135,,,,1,1,1,,,,33.18305556,129.6593222,
403,E4220200198201,美崎が丘第二公園,長崎県佐世保市大潟町254-46,,,,1,1,1,,,,33.17936667,129.6567944,
404,E4220200199201,相浦西小学校大崎分校,長崎県佐世保市大潟町467,,1,,1,1,1,,,1,33.17344167,129.64535,
405,E4220200200201,福石小学校,長崎県佐世保市大宮町32-1,,1,,1,,1,,,1,33.156375,129.7426583,
406,E4220200201201,大黒公園,長崎県佐世保市大黒町62-6,,,,1,1,1,,,,33.156,129.7358889,
407,E4220200202201,大塔公園,長崎県佐世保市大塔町2394-9,,,,1,,1,,,,33.14500278,129.7797917,
408,E4220200203201,陽光台第一公園,長崎県佐世保市大塔町648-187,,,,1,1,1,,,,33.15031111,129.7751056,
409,E4220200204201,池野公園,長崎県佐世保市大野町166-3,,,,1,1,1,,,,33.21223333,129.737325,
410,E4220200205201,ひうみの丘公園,長崎県佐世保市大和町545-1,,,,1,1,1,,,,33.15653056,129.7541194,
411,E4220200206201,真申中央公園,長崎県佐世保市棚方町207-21,,,,1,,1,,,,33.20841667,129.6550139,
412,E4220200207201,棚方第一公園,長崎県佐世保市棚方町405-122,,,,1,1,1,,,,33.20319722,129.6578944,
413,E4220200208201,棚方第三公園,長崎県佐世保市棚方町424-223,,,,1,1,1,,,,33.20027222,129.6526278,
414,E4220200209201,棚方中央公園,長崎県佐世保市棚方町675,,,,1,1,1,,,,33.19993611,129.6564639,
415,E4220200210201,中央公園,長崎県佐世保市谷郷町,,,,1,1,1,,,,33.177225,129.7207444,
416,E4220200211201,知見寺公園,長崎県佐世保市知見寺町１１４３－２外,,,,1,1,1,,,,33.22393889,129.7365722,
417,E4220200212201,県立佐世保特別支援学校,長崎県佐世保市竹辺町810,1,1,,1,,1,,,1,33.1966,129.6730667,
418,E4220200213201,中里小学校,長崎県佐世保市中里町356,1,1,,1,,1,,,1,33.20297778,129.6837611,
419,E4220200214201,中里中学校,長崎県佐世保市中里町905,,1,,1,,1,,,1,33.20453333,129.6902889,
420,E4220200215201,山澄地区コミュニティセンター,長崎県佐世保市潮見町14-14,1,1,,,1,,,,1,33.16422222,129.7289722,
421,E4220200216201,長坂公園,長崎県佐世保市長坂町662-1,,,,1,1,1,,,,33.16691111,129.6908306,
422,E4220200217202,九州文化学園高等学校,長崎県佐世保市椎木町600,1,1,,1,,1,,,1,33.17979722,129.6723944,
423,E4220200217201,長崎短期大学,長崎県佐世保市椎木町600,1,1,,1,,1,,,1,33.18025556,129.674325,
424,E4220200218201,総合グラウンド,長崎県佐世保市椎木町無番地,,1,,1,,1,,,1,33.17928056,129.6673306,
425,E4220200219201,天神小学校,長崎県佐世保市天神1-11-13,,1,,1,,1,,,1,33.15009444,129.7390278,
426,E4220200220201,天神公園,長崎県佐世保市天神町1131,,,,1,1,1,,,,33.14823889,129.7318139,令和１２年３月末まで工事中のため使用中止（予定）
427,E4220200221201,港小学校,長崎県佐世保市天神町1603,,1,,1,1,1,,,1,33.13964167,129.7296444,
428,E4220200222201,崎辺中学校,長崎県佐世保市天神町1706,,1,,1,1,1,,,1,33.14053611,129.731925,
429,E4220200224201,大野地区コミュニティセンター,長崎県佐世保市田原町13-29,,1,,,,,,,1,33.20851389,129.7211667,
430,E4220200223201,県立佐世保西高等学校,長崎県佐世保市田原町130-1,,1,,1,,1,,,1,33.20943611,129.7201972,
431,E4220200225201,島瀬公園,長崎県佐世保市島瀬町1000-14,,,,1,,1,,,,33.17241389,129.7207444,
432,E4220200226201,東公園,長崎県佐世保市東山町182-1,,,,1,1,1,,,,33.15433333,129.7416917,
433,E4220200227201,大久保小学校,長崎県佐世保市東大久保町9-10,,1,,1,,1,,,1,33.17793056,129.7099444,
434,E4220200228201,東浜公園,長崎県佐世保市東浜町10-2,,,,1,1,1,,,,33.13334722,129.7408222,
435,E4220200229201,楠木公園,長崎県佐世保市楠木町619,,,,1,1,1,,,,33.21943611,129.7214278,
436,E4220200230201,日宇中学校,長崎県佐世保市日宇町2181,,1,,1,,1,,,1,33.164325,129.7638667,
437,E4220200231201,県立佐世保南高等学校,長崎県佐世保市日宇町2526,,1,,1,,1,,,1,33.161325,129.7668667,
438,E4220200232201,日宇ヶ丘第二公園,長崎県佐世保市日宇町2810-255,,,,1,1,1,,,,33.15881111,129.7701417,
439,E4220200233201,日宇小学校,長崎県佐世保市日宇町284,,1,,1,,1,,,1,33.16390278,129.7563889,
440,E4220200234201,日宇スポーツセンター,長崎県佐世保市日宇町522-1,,1,,,,,,,1,33.15650833,129.7546917,
441,E4220200235201,日宇地区コミュニティセンター,長崎県佐世保市日宇町675-2,,1,,,,,,,1,33.15776111,129.7583889,
442,E4220200236201,日野小学校,長崎県佐世保市日野町1308,1,1,,1,,1,,,1,33.1724,129.6781222,
443,E4220200237201,日野中学校,長崎県佐世保市日野町2079,1,1,,1,1,1,,,1,33.17088889,129.6680472,
444,E4220200238201,日野第二公園,長崎県佐世保市日野町52-176,,,,1,1,1,,,,33.17293056,129.6820611,
445,E4220200239201,日野東公園,長崎県佐世保市日野町80-1,,,,1,1,1,,,,33.17004722,129.6813222,
446,E4220200240201,県立佐世保中央高等学校,長崎県佐世保市梅田町10-14,,1,,1,,1,,,1,33.18880278,129.7171917,
447,E4220200241201,梅田公園,長崎県佐世保市梅田町166-1,,,,1,1,1,,,,33.19143333,129.7173111,
448,E4220200242201,宮地区コミュニティセンター　体育室,長崎県佐世保市萩坂町1782-1,,1,,,,,,,1,33.086530227589,129.81540023995,
449,E4220200243201,白岳公園,長崎県佐世保市白岳町104,,,,1,,1,,,,33.152925,129.7507528,
450,E4220200244201,県立佐世保北高等学校,長崎県佐世保市八幡町6-31,1,1,,1,,1,,,1,33.18111111,129.7188306,
451,E4220200245201,比良公園,長崎県佐世保市比良町1000-5,,,,1,1,1,,,,33.176825,129.7131,
452,E4220200246201,久田学園佐世保女子高等学校,長崎県佐世保市比良町21-1,,,,1,,1,,,1,33.18040833,129.7107611,
453,E4220200247201,旧俵浦小学校,長崎県佐世保市俵ヶ浦町442,,,,1,1,1,,,,33.123325,129.6751111,
454,E4220200248201,俵ヶ浦公園,長崎県佐世保市俵ヶ浦町623-1,,,,1,1,1,,,,33.11931944,129.6715028,
455,E4220200249201,浜田公園,長崎県佐世保市浜田町1000-5,,,,1,,1,,,,33.17515833,129.7164806,
456,E4220200250201,佐世保公園,長崎県佐世保市平瀬町13,,,,1,,1,,,,33.17088056,129.7177556,
457,E4220200251201,清水小学校,長崎県佐世保市保立町10-1,1,1,,1,,1,,,1,33.18793056,129.7149222,
458,E4220200252202,清水地区コミュニティセンター,長崎県佐世保市保立町12-31,1,1,,,,,,,1,33.18631111,129.7142361,
459,E4220200252201,総合教育センター,長崎県佐世保市保立町12-31,1,1,,,,,,,1,33.18610278,129.7144472,
460,E4220200253201,佐世保実業高等学校,長崎県佐世保市母ヶ浦町888-1,1,1,,1,,1,,,1,33.17981389,129.6809222,
461,E4220200254201,清水中学校,長崎県佐世保市万徳町9-7,,1,,1,,1,,,1,33.18436111,129.7153361,
462,E4220200255201,木場田公園,長崎県佐世保市木場田町1000-6,,,,1,1,1,,,,33.17980278,129.7143444,
463,E4220200256201,木風小学校,長崎県佐世保市木風町180,,1,,1,,1,,,1,33.16707222,129.7416111,
464,E4220200257201,旧野崎中学校,長崎県佐世保市野崎町2916,1,1,,1,1,1,,,1,33.11911389,129.6866722,
465,E4220200258201,野中東公園,長崎県佐世保市野中町５６０外,,,,1,1,1,,,,33.21409167,129.7120583,
466,E4220200259201,矢峰公園,長崎県佐世保市矢峰町100-2,,,,1,1,1,,,,33.21041111,129.7440278,
467,E4220200260201,汐見台第四公園,長崎県佐世保市有福町4149-31,,,,1,,1,,,,33.12775278,129.7927444,
468,E4220200261201,汐見台第一公園,長崎県佐世保市有福町4169-68,,,,1,1,1,,,,33.134375,129.7929278,
469,E4220200262201,有福第一公園,長崎県佐世保市有福町589-2,,,,1,1,1,,,,33.13246667,129.7883028,
470,E4220200263201,江上地区コミュニティセンター　体育室,長崎県佐世保市有福町827,,1,,,,,,,1,33.133225,129.7846722,
471,E4220200264201,柚木地区コミュニティセンター　体育室,長崎県佐世保市柚木町1434-1,,1,,,,,,,1,33.209475,129.7628333,
472,E4220200265201,柚木中学校,長崎県佐世保市柚木町2063,,1,,1,,1,,,1,33.21125833,129.7657,
473,E4220200266201,柚木地区コミュニティセンター,長崎県佐世保市柚木町2088-2,,1,,,,,,,1,33.21042222,129.7642083,
474,E4230800001201,時津町役場,長崎県時津町浦郷274-1,1,1,1,1,1,1,1,1,1,32.82885861,129.8485069,
475,E4230800002201,時津中央公園,長崎県時津町浦郷292,1,1,1,1,1,1,1,1,,32.82977222,129.8501583,
476,E4230800003201,時津図書館,長崎県時津町浦郷31-14,1,1,1,1,1,1,1,1,1,32.82922583,129.8459342,
477,E4230800004201,時津公民館別館,長崎県時津町浦郷436-7,1,1,1,,,1,1,1,,32.83077861,129.8477397,
478,E4230800005201,久留里児童公園,長崎県時津町久留里郷1009-3,1,1,1,1,1,1,1,1,,32.83683694,129.8385283,
479,E4230800006201,鏡島公園,長崎県時津町久留里郷268-4,1,1,1,1,,1,1,1,,32.841795,129.8381197,
480,E4230800007201,久留里緑地公園,長崎県時津町久留里郷373-2,1,1,1,1,1,1,1,1,,32.83878583,129.8402944,
481,E4230800008201,永ノ浦公園,長崎県時津町久留里郷376-26,1,1,1,1,1,1,1,1,,32.83986389,129.8402442,
482,E4230800009202,鳴北中学校体育館,長崎県時津町久留里郷53-5,1,1,1,1,1,1,1,1,1,32.83970944,129.83337,
483,E4230800009201,鳴北中学校グラウンド,長崎県時津町久留里郷53-5,1,,1,1,1,1,1,1,1,32.84027778,129.8344444,
484,E4230800010201,時津公民館,長崎県時津町元村郷429-2,1,1,1,1,1,1,1,1,1,32.82729278,129.8485681,
485,E4230800011201,元村下街区公園,長崎県時津町元村郷46-1,1,,1,1,1,1,1,1,,32.82595806,129.8513972,
486,E4230800012201,左底下街区公園,長崎県時津町左底郷110-2,1,,1,1,1,1,1,1,,32.83289167,129.8416997,
487,E4230800013201,左底中街区公園,長崎県時津町左底郷1118-2,1,,1,1,1,1,1,1,,32.82889694,129.8355139,
488,E4230800014201,時津町総合福祉センター,長崎県時津町左底郷367,1,1,1,1,1,1,1,1,1,32.83054556,129.8361583,
489,E4230800015201,いこい運動公園,長崎県時津町左底郷462-2,1,,1,1,1,1,1,1,,32.8313025,129.8353056,
490,E4230800016202,鳴鼓小学校体育館,長崎県時津町左底郷79-9,1,1,1,1,1,1,1,1,1,32.832509934446,129.84151756135,
491,E4230800016201,鳴鼓小学校グラウンド,長崎県時津町左底郷79-9,1,,1,1,1,1,1,1,1,32.83148583,129.8409728,
492,E4230800017201,金堀公園,長崎県時津町西時津郷1000-122,1,1,1,1,1,1,1,1,,32.83932778,129.8516222,
493,E4230800018201,崎野自然公園,長崎県時津町西時津郷1379-1,1,1,1,1,1,1,1,1,1,32.85422111,129.8532978,
494,E4230800019201,福島街区公園,長崎県時津町西時津郷185-1,1,1,1,1,1,1,1,1,,32.83508028,129.8633167,
495,E4230800020201,中通り街区公園,長崎県時津町西時津郷199-1,1,1,1,1,1,1,1,1,,32.83654139,129.8616608,
496,E4230800021201,前開街区公園,長崎県時津町西時津郷448-20,1,1,1,1,1,1,1,1,,32.83541111,129.8582747,
497,E4230800022201,十工区岩山街区公園,長崎県時津町日並郷1085-109,1,1,1,1,,1,1,1,,32.85219444,129.8243139,
498,E4230800023201,時津町北部コミュニティセンター,長崎県時津町日並郷1317-1,1,1,1,1,1,1,1,1,1,32.849972238673,129.82607601971,
499,E4230800024201,十工区中央街区公園,長崎県時津町日並郷1320-104,1,1,1,1,1,1,1,1,,32.8519,129.8273667,
500,E4230800025201,中島公園,長崎県時津町日並郷2093-3,1,1,1,1,1,1,1,1,,32.84463944,129.8250219,
501,E4230800026201,時津北小学校グラウンド,長崎県時津町日並郷2192,1,1,1,1,,1,1,1,1,32.8476575,129.8294358,
502,E4230800026202,時津北小学校体育館,長崎県時津町日並郷2192,1,1,1,1,1,1,1,1,1,32.84812,129.8294797,
503,E4230800027201,十工区中曽根街区公園,長崎県時津町日並郷2195-20,1,1,1,1,1,1,1,1,,32.84841667,129.8291306,
504,E4230800028201,時津町Ｂ＆Ｇ海洋センター,長崎県時津町日並郷3630,1,1,1,1,1,1,1,1,1,32.84772,129.8315897,
505,E4230800029201,とぎつ海と緑の運動公園,長崎県時津町日並郷3765,1,1,1,1,,1,1,1,,32.848825,129.8335544,
506,E4230800030201,木場崎公園,長崎県時津町日並郷794-1,1,1,1,1,1,1,1,1,,32.85370278,129.8220639,
507,E4230800031201,時津東小学校グラウンド,長崎県時津町浜田郷1334,1,,1,1,1,1,1,1,1,32.82936028,129.85765,
508,E4230800031202,時津東小学校体育館,長崎県時津町浜田郷1334,1,1,1,1,1,1,1,1,1,32.82932,129.85677,
509,E4230800032201,坊ノ前公園,長崎県時津町浜田郷1643-4,1,,1,1,1,1,1,1,,32.82917222,129.8534303,
510,E4230800033201,浜田公園,長崎県時津町浜田郷210-1,1,1,1,1,1,1,1,1,,32.83236667,129.8550414,
511,E4230800034201,神崎緑地公園,長崎県時津町浜田郷517,1,1,1,1,,1,1,1,,32.83488333,129.8495942,
512,E4230800035201,時津町コスモス会館,長崎県時津町浜田郷520-12,1,1,1,1,1,1,1,1,1,32.83428667,129.8546036,
513,E4230800036201,時津町東部コミュニティセンター,長崎県時津町浜田郷520-37,1,1,1,1,1,1,1,1,1,32.83414083,129.8539658,
514,E4230800037202,時津中学校体育館,長崎県時津町浜田郷530-1,1,1,1,1,1,1,1,1,1,32.83464,129.85424,
515,E4230800037201,時津中学校グラウンド,長崎県時津町浜田郷530-1,1,1,1,1,1,1,1,1,1,32.834570562585,129.85338039769,
516,E4230800038201,札の元公園,長崎県時津町浜田郷767,1,1,1,1,1,1,1,1,,32.83018056,129.8639331,
517,E4230800039201,大園公園,長崎県時津町浜田郷844,1,1,1,1,1,1,1,1,,32.83039722,129.8664139,
518,E4230800040201,時津小学校グラウンド,長崎県時津町野田郷2,,1,1,1,,1,,1,1,32.82754806,129.8465756,
519,E4230800040202,時津小学校体育館,長崎県時津町野田郷2,,1,1,1,1,1,,1,1,32.82775,129.8472197,
520,E4230800041201,野田街区公園,長崎県時津町野田郷216-2,1,1,1,1,1,1,1,1,,32.82442,129.8435353,
521,E4230800042201,文化の森公園,長崎県時津町野田郷62,1,1,1,1,1,1,1,1,1,32.8249125,129.8467597,
522,E4230800042202,とぎつカナリーホール,長崎県時津町野田郷62,1,1,1,1,1,1,1,1,1,32.82481222,129.8460172,
523,E4230800043201,南公園,長崎県時津町野田郷826-1,1,1,1,1,1,1,1,1,,32.81919444,129.8440772,
524,E4238300001201,小値賀町総合体育館,長崎県小値賀町前方郷256-1,1,1,1,1,,1,,,1,33.19368417,129.0695114,
525,E4238300002201,愛宕山園地,長崎県小値賀町前方郷3452-12,,,,1,1,,,,,33.210231663234,129.07586782672,
526,E4238300003201,小値賀町総合運動場,長崎県小値賀町前方郷354,,,,1,,,,,1,33.193354831801,129.07147436766,
527,E4238300003202,小値賀町若者交流センター,長崎県小値賀町前方郷354,1,1,1,1,,1,,,1,33.19205472,129.0715194,
528,E4238300006202,小値賀町立小値賀小学校　大島分校体育館,長崎県小値賀町大島郷72-1,1,1,1,1,1,1,,,1,33.17320694,129.0245397,
529,E4238300006201,小値賀町立小値賀小学校大島分校（多目的室）,長崎県小値賀町大島郷72-1,1,1,1,1,1,1,,,1,33.172997,129.024792,
530,E4238300008201,長崎県立北松西高等学校校庭,長崎県小値賀町中村郷19-1,,,,1,1,,,,1,33.198607651699,129.06016516647,
531,E4238300008203,長崎県立北松西高等学校体育館,長崎県小値賀町中村郷19-1,1,1,1,1,1,1,,,1,33.19817778,129.0600178,
532,E4238300008202,長崎県立北松西高等学校武道場,長崎県小値賀町中村郷19-1,1,1,1,1,1,1,,,1,33.19828139,129.0604419,
533,E4238300009203,小値賀町立小値賀小中学校,長崎県小値賀町中村郷71-2,1,1,1,1,1,1,,,1,33.19980917,129.0598275,
534,E4238300009202,小値賀町立小値賀小学校体育館,長崎県小値賀町中村郷71-2,1,1,1,1,1,1,,,1,33.200484531008,129.05968798166,
535,E4238300009201,小値賀小中学校校庭,長崎県小値賀町中村郷71-2,,,,1,1,,,,1,33.199451792231,129.06023252673,
536,E4238300014201,小値賀町地域福祉センター,長崎県小値賀町笛吹郷2367,1,1,1,1,1,1,,,1,33.19119639,129.0581869,
537,E4238300016201,番岳園地,長崎県小値賀町笛吹郷2573-6,,,,1,1,,,,,33.200369302267,129.05470438303,
538,E4238300017201,長崎県立北松西高等学校セミナーハウス,長崎県小値賀町笛吹郷2657-3,1,1,1,1,1,1,,,1,33.197796757141,129.05902461847,
539,E4220800001201,大崎体育館,長崎県松浦市御厨町高野免627,1,,1,,1,1,1,,1,33.356702,129.643296,
540,E4220800002201,御厨小学校,長崎県松浦市御厨町前田免10,1,1,1,1,1,1,1,,1,33.363189,129.662074,
541,E4220800003201,御厨地域運動場,長崎県松浦市御厨町前田免677-1,,1,1,1,1,,,,,33.356664,129.665923,
542,E4220800004201,田代体育館,長崎県松浦市御厨町田代免601,1,,1,1,1,1,1,,1,33.33873898,129.6662074,
543,E4220800006201,長嶺街区公園,長崎県松浦市御厨町里免195,,1,1,1,1,,,,,33.36937,129.667414,
544,E4220800007201,御厨公民館,長崎県松浦市御厨町里免385,1,1,1,,1,,1,,1,33.364114,129.664718,
545,E4220800008201,御厨中学校,長崎県松浦市御厨町里免577,1,1,1,1,1,1,1,,1,33.362967,129.666129,
546,E4220800009201,今福高齢者コミュニティセンター,長崎県松浦市今福町浦免375,1,1,1,1,1,,1,,1,33.351768,129.765218,
547,E4220800010201,東部交流センター（今福公民館）,長崎県松浦市今福町浦免382-2,,1,1,1,1,,,,1,33.351315,129.765456,
548,E4220800011201,今福中学校,長崎県松浦市今福町浦免431-5,,1,,1,,1,,,1,33.353051,129.766132,
549,E4220800012201,今福小学校,長崎県松浦市今福町東免16,1,1,1,1,1,1,1,,1,33.349976,129.768337,
550,E4220800013201,松浦市文化会館,長崎県松浦市志佐町浦免1110,,1,,1,,1,,,1,33.344442,129.705915,
551,E4220800014201,生涯学習センター（中央公民館）,長崎県松浦市志佐町浦免1483-1,1,1,1,1,1,,1,,1,33.341223,129.707523,
552,E4220800015201,志佐小学校,長崎県松浦市志佐町浦免1590,1,1,1,1,1,1,1,,1,33.336674,129.706795,
553,E4220800016201,勤労青少年ホーム,長崎県松浦市志佐町浦免1676-1,1,1,1,,1,,1,,1,33.33778887,129.7074491,
554,E4220800017201,松浦スポーツセンター,長崎県松浦市志佐町浦免1692-1,,1,1,,1,,,,1,33.33751549,129.7072667,
555,E4220800018201,松浦市民運動公園,長崎県松浦市志佐町浦免357,,,1,1,1,1,,,,33.34444166,129.7143598,
556,E4220800019201,松浦高等学校,長崎県松浦市志佐町浦免738-1,1,1,1,1,1,1,1,,1,33.341634,129.711167,
557,E4220800020201,志佐中学校,長崎県松浦市志佐町浦免808,1,1,1,1,1,1,1,,1,33.339918,129.711356,
558,E4220800021201,不老山総合公園,長崎県松浦市志佐町高野免367-1,,,1,,1,,,,,33.333155,129.721016,
559,E4220800052201,松浦警察署武道場,長崎県松浦市志佐町庄野免131,1,,1,,1,,1,,,33.343897,129.702769,
560,E4220800022201,黒住街区公園,長崎県松浦市志佐町庄野免69,,,1,1,1,1,,,,33.34261998,129.7029805,
561,E4220800023201,上志佐小学校,長崎県松浦市志佐町笛吹免901,1,1,1,1,1,1,1,,1,33.306633,129.728289,
562,E4220800024201,上志佐公民館,長崎県松浦市志佐町笛吹免920-1,1,,1,1,1,,1,,1,33.308105,129.7287,
563,E4220800025201,星鹿公民館,長崎県松浦市星鹿町下田免448-4,1,1,1,1,1,1,1,,1,33.383603,129.673304,
564,E4220800026201,星鹿地域運動場,長崎県松浦市星鹿町下田免476,,1,1,1,1,1,,,,33.384207,129.673122,
565,E4220800027201,星鹿小学校,長崎県松浦市星鹿町下田免700,1,1,1,1,1,1,1,,1,33.384529,129.671345,
566,E4220800028201,城山公園,長崎県松浦市星鹿町岳崎免2283-12,,,1,,1,,,,,33.38728611,129.682188,
567,E4220800030201,青島小中学校,長崎県松浦市星鹿町青島免701,1,1,1,1,1,1,1,,1,33.41335745,129.6861953,
568,E4220800051201,青島住民センター,長崎県松浦市星鹿町青島免765-2,1,1,1,,,,,,,33.411607,129.686813,
569,E4220800031201,宮地嶽史跡公園,長崎県松浦市鷹島町阿翁免1011-2,,,1,,1,,,,,33.45956036,129.7639042,
570,E4220800032201,黒島住民センター,長崎県松浦市鷹島町黒島免244,1,1,1,1,1,,1,,1,33.457494958577,129.72606247715,
571,E4220800033201,牧の岳史跡公園,長崎県松浦市鷹島町三里免267,,,1,,1,,,,,33.420193,129.730554,
572,E4220800034201,松浦市高齢者生活福祉センター（水仙苑）,長崎県松浦市鷹島町神崎免137-1,1,1,1,1,1,,1,,1,33.436196,129.761074,
573,E4220800035201,鷹島開発総合センター（鷹島公民館）,長崎県松浦市鷹島町神崎免146,1,1,1,,1,1,1,,1,33.436389,129.761995,
574,E4220800037202,鷹島小学校　鷹島中学校,長崎県松浦市鷹島町中通免1974,1,1,1,1,1,1,1,,1,33.435602,129.758898,
575,E4220800037201,鷹島体育館,長崎県松浦市鷹島町中通免1974,1,1,1,1,1,1,1,,1,33.435506,129.759521,
576,E4220800038202,鷹島スポーツ・文化交流センター,長崎県松浦市鷹島町里免1102-1,1,1,1,1,1,1,1,,1,33.442798,129.760907,
577,E4220800038201,鷹島総合運動公園,長崎県松浦市鷹島町里免1102-1,,,1,1,1,1,,,1,33.443349,129.761539,
578,E4220800039201,調川中学校,長崎県松浦市調川町下免1009,1,,1,1,1,1,1,,1,33.35285496,129.7327316,
579,E4220800040201,調川公民館,長崎県松浦市調川町下免592-7,1,1,1,1,1,,1,,1,33.34791,129.73003,
580,E4220800042201,調川小学校,長崎県松浦市調川町下免986,1,,1,1,1,1,1,,1,33.35250993,129.7339439,
581,E4220800043201,福島保健センター,長崎県松浦市福島町塩浜免2944-41,1,1,,1,1,,1,,1,33.366088,129.820777,
582,E4220800044201,福島養源小学校　福島中学校,長崎県松浦市福島町塩浜免2950,1,1,1,1,1,1,1,,1,33.366471,129.822569,
583,E4220800045201,福島公民館,長崎県松浦市福島町塩浜免2993-3,1,1,1,,,,1,,1,33.36508,129.825686,
584,E4220800046201,福島総合運動公園,長崎県松浦市福島町塩浜免2993-67,,,,1,,1,,,,33.36298569,129.8258525,
585,E4220800047201,福島武道館,長崎県松浦市福島町塩浜免2993-89,1,1,,1,,1,1,,1,33.364139,129.826641,
586,E4220800047202,福島体育館,長崎県松浦市福島町塩浜免2993-89,1,1,,1,,1,1,,1,33.36468822,129.825992,
587,E4220800048201,養源体育館,長崎県松浦市福島町原免1051,1,1,1,1,1,,1,,1,33.399932,129.817963,
588,E4220800049201,大山公園,長崎県松浦市福島町端免1517-1,,,1,,1,,,,,33.38210137,129.8286635,
589,E4220800050201,蛙鼻公園,長崎県松浦市福島町里免1669-1,,,1,,1,,,,,33.38242389,129.8337972,
590,E4241100001201,東浦小学校,長崎県新上五島町阿瀬津郷422-2,1,1,1,1,1,,1,,1,32.965724,129.100685,
591,E4241100002201,奥浦公民館,長崎県新上五島町阿瀬津郷554-4,,,1,,,,1,,1,32.962366,129.103512,
592,E4241100003201,阿瀬津公民館,長崎県新上五島町阿瀬津郷660-42,1,1,1,1,,,1,,1,32.953337,129.109182,
593,E4241100004201,浦桑生活館,長崎県新上五島町浦桑郷1281,1,1,1,,,,1,,1,32.985614,129.087462,
594,E4241100005201,上五島高校体育館,長崎県新上五島町浦桑郷306,1,,1,1,1,,1,,1,32.988076,129.081631,
595,E4241100006201,榎津生活館,長崎県新上五島町榎津郷195-22,1,,1,,,,,,1,32.996724,129.092118,
596,E4241100007201,魚目小学校,長崎県新上五島町榎津郷401,1,1,1,1,1,,1,,1,32.999099,129.089082,
597,E4241100008201,離島開発総合センター,長崎県新上五島町榎津郷488-2,1,1,1,1,1,,1,,1,33.001587,129.089409,
598,E4241100009201,新魚目支所,長崎県新上五島町榎津郷491,1,1,1,1,1,,1,,1,33.002158,129.089565,
599,E4241100010201,滝ヶ原集会所,長崎県新上五島町間伏郷1200,1,1,1,,,,,,1,32.87174487881,128.9816332881,
600,E4241100011201,鵜ノ瀬地区集会所,長崎県新上五島町間伏郷167-1,1,1,1,,1,,1,,1,32.875872305772,128.99953636217,
601,E4241100012201,若松中央小学校,長崎県新上五島町間伏郷74,1,1,1,1,,,1,,1,32.881723,129.004523,
602,E4241100013201,堤地区集会所,長崎県新上五島町間伏郷897,1,,1,,,,1,,1,32.879120123088,128.97468100067,
603,E4241100014201,若松総合運動公園,長崎県新上五島町間伏郷無,1,1,,1,,,1,,,32.878814216921,129.00327536151,
604,E4241100015201,新魚目総合体育館,長崎県新上五島町丸尾郷335-3,1,1,1,1,,,1,,1,33.003694740037,129.09232007828,
605,E4241100016201,魚目中学校,長崎県新上五島町丸尾郷412,1,,1,1,1,,1,,1,33.003881,129.089581,
606,E4241100017201,丸尾生活館,長崎県新上五島町丸尾郷731-2,1,,1,,,,1,,1,33.006266,129.092408,
607,E4241100018201,須崎公民館,長崎県新上五島町岩瀬浦郷245-20,1,1,1,,1,,1,,1,32.871816,129.092027,
608,E4241100019201,福見公民館,長崎県新上五島町岩瀬浦郷33-1,,1,1,1,1,,1,,1,32.863053838514,129.07668773371,
609,E4241100020201,中山公民館,長崎県新上五島町岩瀬浦郷545-17,1,1,1,1,1,,1,,1,32.877156306569,129.07628003953,
610,E4241100021201,清和園,長崎県新上五島町岩瀬浦郷596-3,1,1,1,1,1,,1,,1,32.8778083078263,129.075839617173,
611,E4241100022201,浜串生活館,長崎県新上五島町岩瀬浦郷754-7,,,1,,1,,1,,1,32.892703296828,129.08247472131,
612,E4241100023201,岩瀬浦公民館,長崎県新上五島町岩瀬浦郷776-1,,1,,1,,,1,,1,32.881299,129.082355,
613,E4241100024201,漁生浦集会所,長崎県新上五島町漁生浦郷165-1,1,,1,,,,1,,1,32.908411,128.964788,
614,E4241100025201,桐古里集会所,長崎県新上五島町桐古里郷429-1,1,,1,,1,,1,,1,32.86559412888,129.04834884756,
615,E4241100026201,江ノ浜地区交流センター,長崎県新上五島町江ノ浜郷417-3,,1,1,,,,1,,1,32.990330026769,129.1741214909,
616,E4241100027201,荒川郷集会所,長崎県新上五島町荒川郷126-10,1,,1,,,,1,,1,32.921903,129.051241,
617,E4241100028201,荒川体育館,長崎県新上五島町荒川郷143-2,1,1,,,,,1,,1,32.922047,129.049777,
618,E4241100029201,郷ノ首地区集会所,長崎県新上五島町荒川郷330-4,1,,1,,,,1,,1,32.925793,129.036757,
619,E4241100030201,高仏地区集会所,長崎県新上五島町荒川郷537,1,,1,,,,1,,1,32.930737710932,129.04113633142,
620,E4241100031201,今里公民館,長崎県新上五島町今里郷195-13,1,,,,,,1,,1,32.960619137614,129.04862809872,
621,E4241100033201,小浜公民館,長崎県新上五島町今里郷字観音平無,1,,1,,,,1,,1,32.971876,129.036924,
622,E4241100034201,真手ノ浦公民館,長崎県新上五島町今里郷字仏崎無,1,,1,,,,,,1,32.939336,129.038613,
623,E4241100035201,月ノ浦地区集会所,長崎県新上五島町榊ノ浦郷244-6,1,,,,,,1,,1,32.907647275613,128.98856759649,
624,E4241100036201,榊ノ浦地区集会所,長崎県新上五島町榊ノ浦郷646,1,,1,,1,,1,,1,32.902871,129.003219,
625,E4241100037201,跡次公民館,長崎県新上五島町三日ノ浦郷1-391,1,,1,,1,,1,,1,32.972167948401,129.05238318947,
626,E4241100038201,三日ノ浦公民館,長崎県新上五島町三日ノ浦郷142-12,1,,1,,,,,,1,32.962348,129.054278,
627,E4241100039201,似首公民館,長崎県新上五島町似首郷373-10,1,,1,,,,1,,1,33.017414469867,129.08923220473,
628,E4241100040201,七目区コミュニティセンター,長崎県新上五島町七目郷65-13,,,1,1,,,1,,1,32.980255,129.090509,
629,E4241100041201,消防本部,長崎県新上五島町七目郷902-1,1,1,1,1,1,,1,,1,32.97792526,129.0973672,
630,E4241100042201,若松地区集会所,長崎県新上五島町若松郷160,1,,,,,,1,,1,32.88906963906,129.02138740696,
631,E4241100043201,若松みなと公園,長崎県新上五島町若松郷277-12,1,1,,1,,,1,,,32.888115514601,129.02182000056,
632,E4241100044201,若松支所,長崎県新上五島町若松郷277-7,1,1,,,,,1,,1,32.887975,129.021179,
633,E4241100045201,神部地区集会所,長崎県新上五島町若松郷630-1,,1,,1,,,,,1,32.874834,129.020353,
634,E4241100046201,神部漁協,長崎県新上五島町若松郷639-18,1,1,1,,,,1,,1,32.874915,129.021292,
635,E4241100047201,土井ノ浦地区集会所,長崎県新上五島町若松郷８３３－２地先,1,1,,,,,1,,1,32.866868,129.009581,
636,E4241100048201,中ノ浦地区集会所,長崎県新上五島町宿ノ浦郷1105-16,1,,1,,,,,,1,32.903907,129.068193,
637,E4241100049201,中五島高校体育館,長崎県新上五島町宿ノ浦郷162-1,1,,1,1,1,,1,,1,32.883516,129.059781,
638,E4241100050201,白魚地区集会所,長崎県新上五島町宿ノ浦郷162-69,1,,1,,1,,1,,1,32.883133,129.059524,
639,E4241100051201,消防署若松支署,長崎県新上五島町宿ノ浦郷209-8,1,,1,1,1,,1,,1,32.886961163737,129.0597193143,
640,E4241100052201,宿ノ浦地区集会所,長崎県新上五島町宿ノ浦郷452-1,1,,,,,,1,,1,32.894097,129.046413,
641,E4241100053201,若松東小学校,長崎県新上五島町宿ノ浦郷646-1,1,1,1,1,,,1,,1,32.895068382229,129.06134968794,
642,E4241100054201,築地地区集会所,長崎県新上五島町宿ノ浦郷66,1,,,,,,1,,1,32.873938,129.051005,
643,E4241100055201,大浦地区集会所,長崎県新上五島町宿ノ浦郷684-1,1,1,1,,1,,1,,1,32.891633,129.064159,
644,E4241100056201,笛吹地区集会所,長崎県新上五島町宿ノ浦郷822-2,1,1,1,,,,1,,1,32.897511,129.063381,
645,E4241100057201,笛吹漁港緑地広場,長崎県新上五島町宿ノ浦郷無,1,1,,1,,,1,,1,32.895869069983,129.06172069594,
646,E4241100057202,梼ノ木地区集会所,長崎県新上五島町宿ノ浦郷無,,1,,,,,,,1,32.909064,129.063708,
647,E4241100058201,小河原漁村センター,長崎県新上五島町小河原郷616-2,1,,1,,1,,1,,1,32.987405,129.131375,
648,E4241100059201,新魚目高齢者生活福祉センターやすらぎの里,長崎県新上五島町小串郷1448,1,1,1,1,1,,1,,1,33.054613,129.097123,
649,E4241100060201,北魚目小学校,長崎県新上五島町小串郷1665,1,1,1,1,1,,1,,1,33.057432,129.100057,
650,E4241100061201,小串公民館,長崎県新上五島町小串郷420-3,1,1,1,,,,1,,1,33.048948,129.100851,
651,E4241100062201,北魚目体育館,長崎県新上五島町小串郷770,1,1,1,1,1,,1,,1,33.052432,129.096705,
652,E4241100064201,大平地区集会所,長崎県新上五島町西神ノ浦郷50-80,1,,1,,1,,1,,1,32.920083,129.002849,
653,E4241100063201,西神ノ浦地区集会所,長崎県新上五島町西神ノ浦郷２８１－２地先,1,,,,,,1,,1,32.902281,129.020739,
654,E4241100065201,新上五島町総合福祉センター,長崎県新上五島町青方郷1379-1,,1,1,,,,,,1,32.985034,129.068509,
655,E4241100066201,新上五島町友愛センター,長崎県新上五島町青方郷1380,,,1,,,,,,1,32.985376,129.068606,
656,E4241100067201,青方小学校,長崎県新上五島町青方郷1460-1,,1,1,1,1,,1,,1,32.986681,129.072737,
657,E4241100068201,新上五島町石油備蓄記念会館,長崎県新上五島町青方郷1549-6,1,1,1,1,,,1,,1,32.983225,129.069968,
658,E4241100069201,大曽公民館,長崎県新上五島町青方郷2088-8,1,,1,,,,,,1,32.986825,129.050029,
659,E4241100070201,上五島中学校,長崎県新上五島町青方郷538,1,1,1,1,1,,1,,1,32.992566,129.06705,
660,E4241100071201,赤尾区コミュニティセンター,長崎県新上五島町赤尾郷326-2,1,,1,,1,,1,,1,33.000516,129.161528,
661,E4241100072201,船崎地区街なみ交流センター,長崎県新上五島町船崎郷493-2,1,,1,,,,1,,1,32.995207,129.050371,
662,E4241100073201,大水集会所,長崎県新上五島町曽根郷436-2,1,,1,,1,,1,,1,33.073266,129.098639,
663,E4241100074201,曽根公教倶楽部,長崎県新上五島町曽根郷630-9,1,1,1,,1,,1,,1,33.056551,129.088873,
664,E4241100075201,曽根公民館,長崎県新上五島町曽根郷985,1,,1,,1,,1,,1,33.057572,129.080059,
665,E4241100077201,相河公民館,長崎県新上五島町相河郷240,1,,1,,,,1,,1,32.975247,129.060549,
666,E4241100079201,上五島海洋青少年の家,長崎県新上五島町続浜ノ浦郷172-1,1,,1,1,1,,1,,1,32.960836,129.027488,
667,E4241100080201,浜ノ浦児童館,長崎県新上五島町続浜ノ浦郷406-10,,1,1,,,,1,,1,32.965183,129.024307,
668,E4241100081201,太田区コミュニティセンター,長崎県新上五島町太田郷1670-10,1,1,1,,,,1,,1,32.956681,129.148407,
669,E4241100082201,中野地区コミュニティ消防センター,長崎県新上五島町鯛ノ浦郷338-14,1,1,1,1,1,,1,,1,32.966236170613,129.10004604209,
670,E4241100083201,鯛ノ浦公民館,長崎県新上五島町鯛ノ浦郷78-10,,,,,,,1,,1,32.950379,129.100835,
671,E4241100084201,津和崎公民館,長崎県新上五島町津和崎郷166,1,1,1,,1,,1,,1,33.151117829843,129.11183013248,
672,E4241100085201,米山集会所,長崎県新上五島町津和崎郷570-2,1,1,1,,1,,1,,1,33.139963,129.110958,
673,E4241100086201,青空デイサービスセンター,長崎県新上五島町津和崎郷978-1,1,1,1,1,1,,1,,1,33.117447,129.102321,
674,E4241100087201,神ノ浦漁村センター,長崎県新上五島町東神ノ浦郷162-4,1,,,,,,,,1,32.926423,129.084356,
675,E4241100088201,佐野原公民館,長崎県新上五島町東神ノ浦郷188,,,1,,1,,1,,1,32.935185,129.071519,
676,E4241100089201,大瀬良公民館,長崎県新上五島町東神ノ浦郷247-244,1,1,1,,1,,1,,1,32.937748539352,129.09253216856,
677,E4241100090201,船隠公民館,長崎県新上五島町東神ノ浦郷50-12,,,1,,,,1,,1,32.910163,129.088964,
678,E4241100091201,道土井地区漁民研修集会施設,長崎県新上五島町道土井郷149-4,,1,1,1,,,,,1,32.945486,129.033662,
679,E4241100092201,上郷小学校,長崎県新上五島町奈摩郷10-1,1,,1,1,1,,1,,1,33.019059,129.068606,
680,E4241100093201,青砂ヶ浦公民館,長崎県新上五島町奈摩郷1402-8,1,,,,,,,,1,33.026453,129.087816,
681,E4241100094201,奈摩老人クラブ,長崎県新上五島町奈摩郷159-10,1,,1,,,,1,,1,33.017165,129.071192,
682,E4241100095201,奈摩地区水産物荷捌所・漁民研修集会施設,長崎県新上五島町奈摩郷162-78,1,1,,1,,,1,,1,33.019014,129.070827,
683,E4241100096201,地域福祉センターしおさい,長崎県新上五島町奈良尾郷1069-1,1,1,1,1,1,,1,,1,32.848533645034,129.05575434458,
684,E4241100097201,消防会館,長崎県新上五島町奈良尾郷190-9,1,1,1,,,,,,1,32.83854698,129.0622421,
685,E4241100098201,奈良尾支所,長崎県新上五島町奈良尾郷379,1,1,1,1,,,1,,1,32.839979573696,129.06089881994,
686,E4241100099201,奈良尾総合体育館,長崎県新上五島町奈良尾郷473-3,1,1,1,1,,,1,,1,32.839915,129.06329,
687,E4241100100201,小奈良尾公民館,長崎県新上五島町奈良尾郷879,1,1,1,,,,,,1,32.84996750368,129.05811795429,
688,E4241100101201,高井旅公民館,長崎県新上五島町奈良尾郷914-5,1,1,1,1,1,,,,1,32.864809,129.064969,
689,E4241100102201,日島地区集会所,長崎県新上五島町日島郷無,1,1,1,,,,1,,1,32.919066,128.961827,
690,E4241100103201,網上公民館,長崎県新上五島町網上郷362-5,1,,1,,,,1,,1,33.022019,129.069223,
691,E4241100104201,冷水公民館,長崎県新上五島町網上郷645-5,1,,1,,1,,1,,1,33.033328763371,129.06624128738,
692,E4241100105201,友住公民館,長崎県新上五島町友住郷142-1,1,,1,,1,,1,,1,32.999185,129.173437,
693,E4241100106201,白浜公園ビジターセンター,長崎県新上五島町友住郷607-1,1,1,1,1,1,,1,,1,33.013409,129.183077,
694,E4241100107201,有川小学校,長崎県新上五島町有川郷1719-2,1,,1,1,1,,1,,1,32.978415,129.120163,
695,E4241100108201,地域福祉センターふれあい,長崎県新上五島町有川郷2360-8,1,1,1,,1,,1,,1,32.979418,129.110148,
696,E4241100109201,有川総合体育館,長崎県新上五島町有川郷2525-1,1,1,1,,,,1,,1,32.979706,129.106554,
697,E4241100110201,有川港港湾緑地広場,長崎県新上五島町有川郷426-28,1,1,1,1,,,1,,,32.985914862875,129.11439381764,
698,E4241100111201,有川港多目的ターミナル鯨賓館,長崎県新上五島町有川郷578-36,1,1,1,1,,,1,,1,32.986735,129.11275,
699,E4241100112201,有川総合文化センター,長崎県新上五島町有川郷733-1,1,1,1,1,,,1,,1,32.982474,129.117706,
700,E4241100113201,有川中学校,長崎県新上五島町有川郷809,1,1,1,1,1,,1,,1,32.983968,129.118237,
701,E4241100114201,有福地区集会所,長崎県新上五島町有福郷287,1,1,1,,,,1,,1,32.912527,128.953925,
702,E4241100115201,報徳会館,長崎県新上五島町立串郷1331-7,1,,1,,1,,1,,1,33.075374,129.107643,
703,E4241100116201,大瀬良新生館,長崎県新上五島町立串郷1682-1,1,1,1,,1,,1,,1,33.084656,129.111108,
704,E4241100117201,立串生活館,長崎県新上五島町立串郷570-6,1,1,,,,,,,1,33.062625,129.10738,
705,E4221200001201,江島住民センター,長崎県西海市崎戸町江島1475,1,1,1,1,1,,1,1,1,33.00473,129.34834,
706,E4221200002202,江島小中学校運動場,長崎県西海市崎戸町江島204,1,1,1,1,1,1,1,1,1,33.003434,129.348577,
707,E4221200002201,江島小中学校体育館,長崎県西海市崎戸町江島204,1,1,1,1,1,1,1,1,1,33.003576,129.348764,
708,E4221200003201,平島小中学校体育館,長崎県西海市崎戸町平島741,1,1,,1,,1,1,1,1,32.99933,129.23983,
709,E4221200003202,平島小中学校運動場,長崎県西海市崎戸町平島741,1,1,,1,,1,1,1,1,33.000145,129.239866,
710,E4221200004201,平島住民センター,長崎県西海市崎戸町平島830-1,1,,,1,,1,1,1,1,33.00024,129.23866,
711,E4221200005201,崎戸さんさん元気らんど,長崎県西海市崎戸町蠣浦郷1001-1,1,1,1,1,1,1,1,1,,33.01571,129.57495,
712,E4221200006201,崎戸歴史民俗資料館,長崎県西海市崎戸町蠣浦郷1224-1,1,1,1,1,1,1,1,1,1,33.01968,129.57443,
713,E4221200007201,崎戸体育館,長崎県西海市崎戸町蠣浦郷1396-1,1,1,1,1,1,1,1,1,1,33.024292,129.577738,
714,E4221200008201,崎戸中央公民館,長崎県西海市崎戸町蠣浦郷1645,1,,,1,1,1,1,1,1,33.02253,129.57029,
715,E4221200009201,崎戸小学校運動場,長崎県西海市崎戸町蠣浦郷1771,1,1,1,1,1,1,1,1,,33.021751,129.568092,
716,E4221200010201,崎戸ターミナルビル,長崎県西海市崎戸町蠣浦郷1791-15,1,1,,1,,1,1,1,,33.02103,129.56666,
717,E4221200011201,崎戸社会福祉センター,長崎県西海市崎戸町蠣浦郷1791-7,1,1,,1,,1,1,1,1,33.020602,129.569008,
718,E4221200012201,横瀬浦公園グラウンド,長崎県西海市西海町横瀬郷2933-17,1,1,1,1,1,1,1,1,,33.08107,129.70413,
719,E4221200013202,西海北小学校運動場,長崎県西海市西海町横瀬郷660,1,1,1,1,1,1,1,1,1,33.080852,129.689057,
720,E4221200013201,西海北小学校体育館,長崎県西海市西海町横瀬郷660,1,1,1,1,1,1,1,1,1,33.081085072259,129.68853811905,
721,E4221200014201,西海公民館,長崎県西海市西海町黒口郷488-1,1,1,1,1,1,1,1,1,1,33.064656,129.687371,
722,E4221200015202,西海中学校運動場,長崎県西海市西海町黒口郷518,1,1,1,1,1,1,1,1,1,33.062469225191,129.69053124525,
723,E4221200015201,西海中学校体育館,長崎県西海市西海町黒口郷518,1,1,1,1,1,1,1,1,1,33.061759983312,129.69119795701,
724,E4221200016201,西海小学校体育館,長崎県西海市西海町太田和郷812,1,1,1,1,1,1,1,1,1,33.036563,129.666605,
725,E4221200016202,西海小学校運動場,長崎県西海市西海町太田和郷812,1,1,1,1,1,1,1,1,1,33.037064,129.666884,
726,E4221200017201,西海東小学校体育館,長崎県西海市西海町丹納郷2030,1,1,1,1,1,1,1,1,1,33.058785608637,129.7011895668,
727,E4221200017202,西海東小学校運動場,長崎県西海市西海町丹納郷2030,1,1,1,1,1,1,1,1,1,33.058639,129.701688,
728,E4221200018201,西海南体育館,長崎県西海市西海町中浦南郷215,1,,1,1,1,1,1,1,1,33.005274,129.661926,
729,E4221200019202,西海中学校第２体育館,長崎県西海市西海町中浦北郷2012,1,,1,1,1,1,,,1,33.03057,129.65693,
730,E4221200020201,西海保健センター,長崎県西海市西海町木場郷2235,1,1,1,1,1,1,1,1,1,33.065234,129.688887,
731,E4221200021202,西海スポーツガーデン運動場,長崎県西海市西海町木場郷401,1,1,1,1,1,1,1,1,1,33.043386927087,129.69767708906,
732,E4221200021201,西海スポーツガーデン体育館,長崎県西海市西海町木場郷401,1,1,1,1,1,1,1,1,1,33.044295269096,129.6970333589,
733,E4221200022201,ときわ台小学校体育館,長崎県西海市西彼町下岳郷2118,1,1,1,1,1,1,1,1,1,32.99651997314,129.78160883069,
734,E4221200022202,ときわ台小学校運動場,長崎県西海市西彼町下岳郷2118,1,1,1,1,1,1,1,1,1,32.996095489342,129.78169455225,
735,E4221200023201,西彼農村環境改善センター,長崎県西海市西彼町喰場郷1150,1,1,1,1,1,1,1,1,1,32.995295939282,129.75972074483,
736,E4221200024201,西彼中央運動公園,長崎県西海市西彼町喰場郷1154-4,1,1,,1,,1,1,1,,32.993922,129.760376,
737,E4221200025201,西彼総合体育館,長崎県西海市西彼町喰場郷1156-1,1,1,1,1,1,1,1,1,1,32.994659139101,129.76095143904,
738,E4221200026201,西彼中学校体育館,長崎県西海市西彼町喰場郷1173,1,1,1,1,1,1,1,1,1,32.993753,129.761452,
739,E4221200026202,西彼中学校運動場,長崎県西海市西彼町喰場郷1173,1,1,1,1,1,1,1,1,1,32.992612,129.761641,
740,E4221200027201,西彼多目的運動公園,長崎県西海市西彼町喰場郷930-1,,1,,1,,1,1,1,,32.997449846188,129.76291811301,
741,E4221200028202,西彼北小学校運動場,長崎県西海市西彼町小迎郷2530,1,1,1,1,1,1,1,1,1,33.042987,129.742986,
742,E4221200028201,西彼北小学校体育館,長崎県西海市西彼町小迎郷2530,1,1,1,1,1,1,1,1,1,33.042558,129.743077,
743,E4221200029201,西海橋公園,長崎県西海市西彼町小迎郷337-3,1,1,1,1,1,1,1,1,,33.048948346506,129.75957370959,
744,E4221200030201,活き活き交流館,長崎県西海市西彼町上岳郷307-5,1,1,1,1,1,1,1,1,1,32.98717,129.77665,
745,E4221200031201,西彼農業高等学校体育館,長崎県西海市西彼町上岳郷323,1,1,1,1,1,1,1,1,1,32.98854,129.77692,
746,E4221200032201,西彼教育文化センター,長崎県西海市西彼町大串郷1916-17,1,1,,1,,1,1,1,1,33.001968,129.731326,
747,E4221200033201,西彼保健福祉センター,長崎県西海市西彼町鳥加郷2218,1,1,1,1,1,1,1,1,1,32.990209,129.748138,
748,E4221200034202,白似田運動場,長崎県西海市西彼町白似田郷934,1,1,1,1,1,1,1,1,,32.977008,129.798071,
749,E4221200035201,大串小学校体育館,長崎県西海市西彼町平山郷2333,1,1,1,1,1,1,1,1,1,32.999191,129.731094,
750,E4221200035202,大串小学校運動場,長崎県西海市西彼町平山郷2333,1,1,1,1,1,1,1,1,1,32.999052,129.730449,
751,E4221200036201,松島地区公民館,長崎県西海市大瀬戸町松島内郷1297,1,,1,1,1,1,1,1,1,32.938088,129.615171,
752,E4221200037201,松島離島住民センター,長崎県西海市大瀬戸町松島内郷1384-11,1,1,,1,,1,1,1,1,32.939899,129.615015,
753,E4221200038202,松島運動場,長崎県西海市大瀬戸町松島内郷416,1,1,1,1,1,1,1,1,1,32.93683,129.61574,
754,E4221200038201,松島体育館,長崎県西海市大瀬戸町松島内郷416,1,,1,1,1,1,1,1,1,32.936982,129.615194,
755,E4221200039201,大瀬戸中学校体育館,長崎県西海市大瀬戸町瀬戸樫浦郷1624,1,1,1,1,1,1,1,1,1,32.939690253339,129.65239730423,
756,E4221200039202,大瀬戸中学校運動場,長崎県西海市大瀬戸町瀬戸樫浦郷1624,1,1,1,1,1,1,1,1,1,32.939838,129.653211,
757,E4221200040201,大瀬戸小学校体育館,長崎県西海市大瀬戸町瀬戸樫浦郷2161,1,,1,1,1,1,1,1,1,32.934087760395,129.64392828142,
758,E4221200040202,大瀬戸小学校運動場,長崎県西海市大瀬戸町瀬戸樫浦郷2161,1,,1,1,1,1,1,1,1,32.934485,129.643949,
759,E4221200041201,大瀬戸コミュニティセンター,長崎県西海市大瀬戸町瀬戸樫浦郷2222,1,,,1,,1,1,1,1,32.933406,129.643235,
760,E4221200042201,西彼杵高等学校体育館,長崎県西海市大瀬戸町瀬戸西濱郷663,1,1,1,1,1,1,1,1,1,32.93726,129.65189,
761,E4221200043201,大瀬戸総合運動公園体育館,長崎県西海市大瀬戸町瀬戸西濱郷950,1,1,1,1,1,1,1,1,1,32.936682,129.654705,
762,E4221200043202,大瀬戸総合運動公園陸上競技場,長崎県西海市大瀬戸町瀬戸西濱郷950,1,1,1,1,1,1,1,1,1,32.938653,129.655676,
763,E4221200044201,大瀬戸保健センター,長崎県西海市大瀬戸町瀬戸板浦郷1128-14,1,1,,1,,1,1,1,1,32.942923,129.638591,
764,E4221200045201,雪浦地区公民館,長崎県西海市大瀬戸町雪浦下郷1312-3,1,1,,1,,1,1,1,1,32.919861,129.664629,
765,E4221200046201,雪浦小学校体育館,長崎県西海市大瀬戸町雪浦下郷1318-2,1,1,1,1,1,1,1,1,1,32.919870067401,129.66563272884,
766,E4221200046202,雪浦小学校運動場,長崎県西海市大瀬戸町雪浦下郷1318-2,1,1,1,1,1,1,1,1,1,32.919750092121,129.66521737301,
767,E4221200047201,多以良地区公民館,長崎県西海市大瀬戸町多以良内郷2167,1,,1,1,1,1,1,1,1,32.969221,129.645934,
768,E4221200048202,多以良運動場,長崎県西海市大瀬戸町多以良内郷2170,1,1,1,1,1,1,1,1,,32.967802,129.645745,
769,E4221200049201,大瀬戸社会福祉センター,長崎県西海市大瀬戸町多以良内郷434-2,1,1,1,1,1,1,1,1,1,32.95865,129.64497,
770,E4221200050201,大島体育館,長崎県西海市大島町1812-8,1,1,,1,,1,1,1,1,33.036114,129.624753,
771,E4221200051201,大島離島開発総合センター,長崎県西海市大島町1815,1,1,1,1,1,1,1,1,1,33.040129,129.623041,
772,E4221200052201,大島農村勤労福祉センター,長崎県西海市大島町1818-1,1,1,1,1,1,1,1,1,1,33.039863,129.622592,
773,E4221200053201,大島保健センター,長崎県西海市大島町1820,1,1,1,1,1,1,1,1,1,33.039402820265,129.62330852192,
774,E4221200054201,大島中央運動公園,長崎県西海市大島町1823-5,1,1,1,1,1,1,1,1,,33.03991,129.62177,
775,E4221200055201,大島東小学校体育館,長崎県西海市大島町2147-3,1,1,,1,,1,1,1,1,33.033775,129.622685,
776,E4221200055202,大島東小学校運動場,長崎県西海市大島町2147-3,1,1,,1,,1,1,1,1,33.033403,129.623577,
777,E4221200056201,大崎高等学校体育館,長崎県西海市大島町3468-1,1,1,,1,,1,1,1,1,33.02798,129.58785,
778,E4221200057202,大島西小学校運動場,長崎県西海市大島町7720,1,,1,1,1,1,1,1,1,33.050966,129.611205,
779,E4221200057201,大島西小学校体育館,長崎県西海市大島町7720,1,,1,1,1,1,1,1,1,33.051782,129.610405,
780,E4232200001201,川棚中央公園,長崎県川棚町下組郷,1,1,,1,,1,1,1,,33.0638768255534,129.858237616448,
781,E4232200004201,小串小学校グラウンド,長崎県川棚町小串郷1207,1,1,1,1,1,1,1,1,1,33.0638004917198,129.839749718459,
782,E4232200005201,県立川棚特別支援学校グラウンド,長崎県川棚町小串郷1600,1,,1,1,1,1,1,1,1,33.0680622848518,129.839480441455,
783,E4232200006201,惣津防災広場,長崎県川棚町小串郷2313-6,1,1,,1,,1,1,1,,33.0633283732393,129.828201644183,
784,E4232200007201,石木小学校グラウンド,長崎県川棚町石木郷120-2,1,1,1,1,1,1,1,1,1,33.08277,129.87094,
785,E4232200008201,川棚中学校グラウンド,長崎県川棚町中組郷1370-3,,1,1,1,1,1,1,1,1,33.0743737484341,129.861732047435,
786,E4232200010201,川棚小学校グラウンド,長崎県川棚町中組郷1555-1,,1,1,1,1,1,1,1,1,33.0739673989109,129.862846600826,
787,E4232200011201,県立川棚高等学校グラウンド,長崎県川棚町白石郷5-3,1,1,1,1,1,1,1,1,,33.0654728354973,129.854007285473,
788,E4232200013201,川棚港緑地,長崎県川棚町百津郷,1,1,,1,,1,1,1,,33.0612518333042,129.864833263453,
789,E4220900001203,阿連体育館,長崎県対馬市厳原町阿連113,1,1,1,1,1,,,,1,34.268637,129.203001,
790,E4220900002201,阿連へき地保健福祉館,長崎県対馬市厳原町阿連457,1,,1,1,1,,,,,34.27056183,129.2043079,
791,E4220900003201,阿連漁民集会所,長崎県対馬市厳原町阿連644,1,1,1,,,,,,,34.26846166,129.199442,
792,E4220900004201,安神自治公民館,長崎県対馬市厳原町安神460,1,1,1,1,1,,,,1,34.145344495659,129.27309890553,
793,E4220900005201,下原地区活動促進施設,長崎県対馬市厳原町下原241,1,,1,1,1,,,,,34.230396007655,129.21503564323,
794,E4220900006201,金田小学校体育館,長崎県対馬市厳原町下原31,1,1,1,1,1,,,,1,34.230663912573,129.2060226008,
795,E4220900006202,金田小学校,長崎県対馬市厳原町下原31,1,1,1,1,1,,,,1,34.23106307887,129.20637665239,
796,E4220900007201,床谷住民集会所,長崎県対馬市厳原町下原441,1,,1,,,,,,,34.2294785,129.2212236,
797,E4220900008201,日掛公民館,長崎県対馬市厳原町下原934,1,,1,,,,,,,34.202717100779,129.24774091776,
798,E4220900009201,上山自治公民館,長崎県対馬市厳原町樫根29,1,,1,,,,,,,34.216855559693,129.23628252084,
799,E4220900010201,樫根部落公民館,長崎県対馬市厳原町樫根364,1,,1,,,,,,,34.226386486259,129.21533605064,
800,E4220900011201,久根へき地保健福祉館,長崎県対馬市厳原町久根田舎467,1,,1,,,,,,,34.174273294864,129.19260006484,
801,E4220900230201,大調体育館,長崎県対馬市厳原町久根田舎670,1,,1,,,,,,,34.177287020698,129.19632998461,
802,E4220900013201,久田中学校体育館,長崎県対馬市厳原町久田381-1,1,1,1,1,1,,,,1,34.182592930718,129.27897720331,
803,E4220900013202,久田中学校,長崎県対馬市厳原町久田381-1,1,1,1,1,1,,,,1,34.182419859391,129.27968530649,
804,E4220900014201,久田小学校体育館,長崎県対馬市厳原町久田426,1,1,1,1,1,,,,1,34.185218958372,129.28023834301,
805,E4220900014202,久田小学校,長崎県対馬市厳原町久田426,1,1,1,1,1,,,,1,34.184801824476,129.27994330002,
806,E4220900015201,ありあけ会館,長崎県対馬市厳原町久田53,1,1,1,1,1,,,,1,34.187002662353,129.28098011229,
807,E4220900016201,久田公民館,長崎県対馬市厳原町久田718,1,1,1,,,,,,,34.186669911779,129.28397117772,
808,E4220900017201,久和生活館,長崎県対馬市厳原町久和3,1,,1,,,,,,,34.129955982371,129.25935848908,
809,E4220900019201,対馬市交流センター（厳原地区公民館）,長崎県対馬市厳原町今屋敷661-3,1,1,1,1,1,,,,1,34.2038108245,129.289129678,
810,E4220900020201,厳原体育館,長崎県対馬市厳原町今屋敷670-1,1,,1,1,1,,,,1,34.204771051761,129.28588856537,
811,E4220900021202,厳原中学校,長崎県対馬市厳原町桟原27,1,1,1,1,1,,,,1,34.218158384796,129.28576271802,
812,E4220900021201,厳原中学校体育館,長崎県対馬市厳原町桟原27,1,1,1,1,1,,,,1,34.218637455247,129.28529064923,
813,E4220900022201,日新館武道場,長崎県対馬市厳原町桟原52-1,1,1,1,1,1,,,,1,34.214467676665,129.28752224713,
814,E4220900023202,厳原北小学校,長崎県対馬市厳原町小浦228-1,1,1,1,1,1,,,,1,34.227391094014,129.30500448086,
815,E4220900023201,厳原北小学校体育館,長崎県対馬市厳原町小浦228-1,1,1,1,1,1,,,,1,34.227315692793,129.3043339286,
816,E4220900024201,小浦公民館,長崎県対馬市厳原町小浦306,1,,1,,,,,,,34.224082974627,129.30202069543,
817,E4220900386201,佐須ふれあい体育館,長崎県対馬市厳原町小茂田,1,1,1,1,1,,,,,34.2337,129.19696,
818,E4220900026201,対馬市小茂田ふれあい館,長崎県対馬市厳原町小茂田613,,1,,1,,,,,,34.232527,129.195791,
819,E4220900027201,対馬市佐須窓口センター,長崎県対馬市厳原町小茂田713,1,1,1,1,,,,,,34.2326195,129.193654,
820,E4220900028201,上槻自治公民館,長崎県対馬市厳原町上槻309,,1,,,,,,,,34.189955064011,129.18096280185,
821,E4220900029201,浅藻へき地保健福祉館,長崎県対馬市厳原町浅藻10,1,1,1,,,,,,,34.108219862064,129.20928936847,
822,E4220900030201,椎根地区集会所,長崎県対馬市厳原町椎根309,1,,1,1,1,,,,,34.221767591206,129.1914784676,
823,E4220900031202,厳原小学校,長崎県対馬市厳原町天道茂446,1,1,1,1,1,,,,1,34.207947601589,129.29399956065,
824,E4220900031201,厳原小学校体育館,長崎県対馬市厳原町天道茂446,1,1,1,1,1,,,,1,34.207699163515,129.293092974,
825,E4220900032202,対馬高等学校,長崎県対馬市厳原町東里120,1,1,1,1,1,,,,1,34.212337155824,129.29372785481,
826,E4220900032201,対馬高等学校体育館,長崎県対馬市厳原町東里120,1,1,1,1,1,,,,1,34.212683175328,129.29293392094,
827,E4220900033201,桟原団地集会所,長崎県対馬市厳原町東里4,1,1,1,,,,,,1,34.216976222446,129.28949098853,
828,E4220900034201,対馬市豆酘住民センター,長崎県対馬市厳原町豆酘3075,1,1,1,,,,,,,34.121869542533,129.18325516802,
829,E4220900035202,豆酘中学校,長崎県対馬市厳原町豆酘510,1,1,1,1,1,,,,1,34.1194218213,129.189392778,
830,E4220900035201,豆酘中学校体育館,長崎県対馬市厳原町豆酘510,1,1,1,1,1,,,,1,34.119760082301,129.18987485987,
831,E4220900036202,豆酘小学校,長崎県対馬市厳原町豆酘626,1,1,1,1,1,,,,1,34.119511384575,129.18706390482,
832,E4220900036201,豆酘小学校体育館,長崎県対馬市厳原町豆酘626,1,1,1,1,1,,,,1,34.11905839755,129.18709609133,
833,E4220900037201,対馬市瀬ふれあいセンター,長崎県対馬市厳原町豆酘瀬213,1,,1,1,1,,,,,34.149634896133,129.18507826613,
834,E4220900038202,内山老人憩いの家,長崎県対馬市厳原町内山146-7,1,,1,1,1,,,,,34.160420719944,129.23126651083,
835,E4220900038201,内山老人憩いの家,長崎県対馬市厳原町内山151,1,,1,1,1,,,,,34.160420719944,129.23126651083,
836,E4220900039201,南室地区漁民研修集会施設,長崎県対馬市厳原町南室152,1,1,1,1,1,,,,1,34.22516300441,129.29825329018,
837,E4220900040201,厳原幼稚園,長崎県対馬市厳原町日吉238,1,,1,1,1,,,,,34.210943979461,129.29046652909,
838,E4220900041201,尾浦老人憩いの家,長崎県対馬市厳原町尾浦75,1,,1,,,,,,,34.163949828592,129.27997805677,
839,E4220900042201,内院へき地保健福祉館,長崎県対馬市厳原町与良内院353,1,1,1,,,,,,,34.116633123813,129.23173370397,
840,E4220900043201,伊奈老人憩いの家,長崎県対馬市上県町伊奈1215,1,,1,,,,,,,34.561022580197,129.31575832658,
841,E4220900044201,伊奈住民センター,長崎県対馬市上県町伊奈1279-3,1,1,1,,,,,,,34.5602261,129.3137003,
842,E4220900045201,越高地区集落センター,長崎県対馬市上県町越高330,1,,1,,,,,,,34.551437142205,129.3297584008,
843,E4220900328201,仁田地区コミュニティーセンター,長崎県対馬市上県町樫滝1061-1,1,1,1,1,,,,,1,34.530822140281,129.34954720994,
844,E4220900047201,仁田小学校体育館,長崎県対馬市上県町樫滝326,1,1,1,1,1,,,,1,34.531118907346,129.35407051286,
845,E4220900047202,仁田小学校,長崎県対馬市上県町樫滝326,1,1,1,1,1,,,,1,34.531551998254,129.35441383561,
846,E4220900048201,仁田窓口センター,長崎県対馬市上県町樫滝495,1,1,1,,,,,,,34.533655550621,129.34969314774,
847,E4220900050201,仁田保育所,長崎県対馬市上県町樫滝675,1,1,1,1,,,,,,34.5296383689,129.34987403,
848,E4220900051202,仁田中学校,長崎県対馬市上県町樫滝702,1,1,1,1,1,,,,1,34.529899169825,129.34787997446,
849,E4220900051201,仁田中学校体育館,長崎県対馬市上県町樫滝702,1,1,1,1,1,,,,1,34.530270396179,129.34851297578,
850,E4220900052201,久原地区多目的研修集会施設,長崎県対馬市上県町久原160-1,,,,1,,,,,,34.51529202,129.3115183,
851,E4220900053201,対馬市久原体育館,長崎県対馬市上県町久原212,1,1,1,,,,,,,34.512440497067,129.31061188827,
852,E4220900054201,犬ケ浦地区研修集会施設,長崎県対馬市上県町犬ケ浦194,1,,1,,1,,,,,34.539731893706,129.33650939897,
853,E4220900055201,御園地区健康管理推進施設,長崎県対馬市上県町御園698,,,,1,,,,,,34.54461606,129.3286509,
854,E4220900056201,上県町ふれあいプラザ,長崎県対馬市上県町佐護東里81-1,,1,,1,1,,,,1,34.612381570831,129.36038159978,
855,E4220900057201,若宮神社,長崎県対馬市上県町佐護南里,1,,1,,,,,,,34.6117400483,129.354525081,
856,E4220900058201,中山地区多目的集会施設,長崎県対馬市上県町佐護南里1464,1,1,1,,,,,,,34.595102257173,129.32570699461,
857,E4220900059201,仁田ノ内地区集会施設,長崎県対馬市上県町佐護南里527,,,,1,1,,,,1,34.612662428215,129.35348251768,
858,E4220900060201,東雲寺,長崎県対馬市上県町佐護北里244,1,1,1,,,,,,,34.63154473049,129.3420943846,
859,E4220900061201,井口地区集会施設,長崎県対馬市上県町佐護北里667,1,,1,,,,,,,34.6269987284,129.347663917,
860,E4220900062201,佐護住民センター,長崎県対馬市上県町佐護北里914-1,1,1,1,,,,,,,34.61873382531,129.35431930616,
861,E4220900063201,佐護体育館,長崎県対馬市上県町佐護北里993,1,1,1,1,1,,,,1,34.618093682964,129.35366794281,
862,E4220900064201,佐須奈小中学校体育館,長崎県対馬市上県町佐須奈乙321,1,1,1,1,1,,,,1,34.639679133473,129.40140527394,
863,E4220900064202,佐須奈小中学校,長崎県対馬市上県町佐須奈乙321,1,1,1,1,1,,,,1,34.639299568426,129.40071326402,
864,E4220900065201,佐須奈保育所,長崎県対馬市上県町佐須奈乙330,,,,1,,,,,,34.64034982,129.4003006,
865,E4220900066201,佐須奈地区集会施設,長崎県対馬市上県町佐須奈乙335,,,,1,,,,,,34.64066097,129.4002832,
866,E4220900389201,上県町地域福祉センター「喜多の苑」,長崎県対馬市上県町佐須奈乙339,1,1,1,1,,,,,1,34.641128,129.4002,
867,E4220900067201,佐須奈地区ふるさとセンター,長崎県対馬市上県町佐須奈甲538-1,1,,1,,,,,,,34.638986205275,129.39577799943,
868,E4220900069202,上県地区公民館,長崎県対馬市上県町佐須奈甲567-3,1,1,1,,,,,,,34.637203102277,129.39724784996,
869,E4220900068201,あがたの里,長崎県対馬市上県町佐須奈甲５６５－イ,1,1,1,1,,,,,,34.6379816995,129.397856934,
870,E4220900072201,田ノ浜地区多目的研修集会施設,長崎県対馬市上県町志多留3978,1,1,1,,,,,,,34.569153657745,129.29211210118,
871,E4220900073201,飼所地区集落センター,長崎県対馬市上県町飼所127-3,1,,1,,,,,,,34.530097368282,129.36075884362,
872,E4220900074201,南部住民センター,長崎県対馬市上県町鹿見833,1,1,1,,,,,,,34.51470414,129.3142005,
873,E4220900075201,女連地区集会施設,長崎県対馬市上県町女連147,1,1,1,,,,,,,34.508043321829,129.30394929331,
874,E4220900076201,瀬田地区集落センター,長崎県対馬市上県町瀬田1161,1,,1,1,,,,,,34.539153731821,129.35437746074,
875,E4220900077201,西津屋地区集会施設,長崎県対馬市上県町西津屋955-2,,,,1,,,,,,34.66937049,129.4054318,
876,E4220900078201,芦見研修集会施設,長崎県対馬市上対馬町芦見318,1,1,1,1,1,,,,1,34.53747970616,129.45131839801,
877,E4220900080201,一重地区集会施設,長崎県対馬市上対馬町一重514-10,1,1,1,1,,,,,,34.53030244,129.4447456,
878,E4220900081201,河内地区集会施設,長崎県対馬市上対馬町河内554-1,,,,1,,,,,,34.672027373247,129.42894821014,
879,E4220900083201,琴住民センター,長崎県対馬市上対馬町琴820,1,1,1,,,,,,,34.554588436378,129.45453538034,
880,E4220900084201,玖須地区集会施設,長崎県対馬市上対馬町玖須89,1,,1,1,,,,,,34.6355716231,129.437902184,
881,E4220900085201,古里地区集会施設,長崎県対馬市上対馬町古里307,1,,1,1,1,,,,1,34.66033831,129.4676264,
882,E4220900086201,五根緒漁村センター,長崎県対馬市上対馬町五根緒４９４先埋立地,,,,1,,,,,,34.5973589767,129.47291905701,
883,E4220900089201,小鹿漁村センター,長崎県対馬市上対馬町小鹿151-1,1,1,1,,,,,,,34.513950453,129.43332525,
884,E4220900090201,西泊地区多目的集会施設,長崎県対馬市上対馬町西泊267,1,,1,1,,,,,,34.656950705319,129.47832120801,
885,E4220900091201,泉漁村センター,長崎県対馬市上対馬町泉1634,1,1,1,,,,,,,34.678044958573,129.4710608623,
886,E4220900092202,上対馬高等学校,長崎県対馬市上対馬町大浦230,1,1,1,1,1,,,,1,34.664103463684,129.43861149764,
887,E4220900092201,上対馬高等学校体育館,長崎県対馬市上対馬町大浦230,1,1,1,1,1,,,,1,34.663591642643,129.43823598838,
888,E4220900093201,大浦地区集会施設,長崎県対馬市上対馬町大浦２３－２地先,,1,,1,,,,,,34.67262053,129.4341736,
889,E4220900094201,大増地区コミュニティー消防センター,長崎県対馬市上対馬町大増1087-1,,1,,1,,,,,,34.6240664,129.4364014,
890,E4220900096202,比田勝中学校,長崎県対馬市上対馬町比田勝351,1,1,1,1,1,,,,1,34.65201774,129.4564694,
891,E4220900096201,比田勝中学校体育館,長崎県対馬市上対馬町比田勝351,1,1,1,1,1,,,,1,34.651803561611,129.45707293187,
892,E4220900097201,比田勝小学校体育館,長崎県対馬市上対馬町比田勝379,1,,1,1,1,,,,1,34.653171546724,129.45705147419,
893,E4220900097202,比田勝小学校,長崎県対馬市上対馬町比田勝379,1,1,1,1,1,,,,1,34.65364166,129.45679128,
894,E4220900098201,上対馬総合センター,長崎県対馬市上対馬町比田勝575-1,1,1,1,1,1,,,,1,34.654033375371,129.45833791723,
895,E4220900100201,比田勝集会施設,長崎県対馬市上対馬町比田勝654,1,,1,1,,,,,,34.654320205114,129.46000088682,
896,E4220900101201,浜久須地区集会施設,長崎県対馬市上対馬町浜久須2-1,,,,1,,,,,,34.63144031,129.4461755,
897,E4220900102201,上対馬総合運動公園体育館,長崎県対馬市上対馬町浜久須33,,,,1,,,,,,34.632044952329,129.44495372676,
898,E4220900103201,富浦地区集会施設,長崎県対馬市上対馬町冨浦103-2,,,,1,,,,,,34.62864332,129.4803499,
899,E4220900104201,豊地区集会施設,長崎県対馬市上対馬町豊1313-8,1,1,1,1,,,,,,34.69082548,129.4572868,
900,E4220900106201,網代漁村センター,長崎県対馬市上対馬町網代436-17,1,1,1,1,,,,,,34.64968329,129.4758993,
901,E4220900107201,鰐浦住民センター,長崎県対馬市上対馬町鰐浦511,1,1,1,,,,,,,34.691303023857,129.44090359114,
902,E4220900108201,芦浦生活館,長崎県対馬市美津島町芦浦237,,1,,,,,,,,34.34795486,129.3695096,
903,E4220900109201,美津島北部小学校体育館,長崎県対馬市美津島町芦浦60,1,1,1,1,1,,,,1,34.347832206073,129.36420252894,
904,E4220900109202,美津島北部小学校,長崎県対馬市美津島町芦浦60,1,1,1,1,1,,,,1,34.3476338308,129.364778974,
905,E4220900110201,加志老人憩いの家,長崎県対馬市美津島町加志624,1,1,1,,,,,,,34.28465256449,129.23578885737,
906,E4220900111201,賀谷コミュニティーセンター,長崎県対馬市美津島町賀谷120,,1,,1,,,,,,34.37094211,129.3748051,
907,E4220900113201,赤島コミュニティーセンター,長崎県対馬市美津島町鴨居瀬564,1,,1,1,,,,,,34.35444319,129.4062176,
908,E4220900114201,住吉老人憩いの家,長崎県対馬市美津島町鴨居瀬613-1,1,1,1,,,,,,,34.341330165303,129.39060619448,
909,E4220900112201,鴨居瀬住民センター,長崎県対馬市美津島町鴨居瀬１８３先埋立地,1,1,1,,,,,,,34.33372296,129.3826032,
910,E4220900115201,久須保生活館,長崎県対馬市美津島町久須保305,,,,1,,,,,,34.2948176,129.3614252,
911,E4220900116201,平瀬原地区集会施設,長崎県対馬市美津島町久須保567-17,1,1,1,1,1,,,,,34.278491,129.365735,
912,E4220900117201,女護島ふれあいセンター,長崎県対馬市美津島町久須保668-1,1,1,1,1,,,,,,34.30021563,129.3566204,
913,E4220900118201,犬吠生活館,長崎県対馬市美津島町犬吠155,,,,1,,,,,,34.31280001,129.3659209,
914,E4220900119201,今里漁民センター,長崎県対馬市美津島町今里168-1,1,,1,1,,,,,,34.287235173052,129.21857695167,
915,E4220900120201,今里小学校体育館,長崎県対馬市美津島町今里291,1,1,1,1,,,,,,34.29045188607,129.22468695312,
916,E4220900120202,今里小学校,長崎県対馬市美津島町今里291,1,1,1,1,,,,,,34.290602,129.224273,
917,E4220900121201,根緒離島体験施設,長崎県対馬市美津島町根緒73-1,1,1,1,1,,,,,,34.242417969044,129.31504976801,
918,E4220900122201,洲藻へき地保健福祉館,長崎県対馬市美津島町洲藻248-1,1,1,1,,,,,,,34.271578467842,129.27992979849,
919,E4220900123201,緒方コミュニティーセンター,長崎県対馬市美津島町緒方190,,,,1,,,,,,34.29095417,129.3791226,
920,E4220900124201,緒方体育館,長崎県対馬市美津島町緒方266,,1,,1,,,,,,34.2903054,129.3775258,
921,E4220900125201,小船越コミュニティーセンター,長崎県対馬市美津島町小船越389-4,,,,1,,,,,,34.339086,129.364631,
922,E4220900126201,浅海体育館,長崎県対馬市美津島町小船越389-7,1,1,1,1,1,,,,1,34.342570375479,129.36555436227,
923,E4220900127201,吹崎地区多目的集会施設,長崎県対馬市美津島町吹崎30-3,,1,,1,,,,,,34.29742602,129.2493946,
924,E4220900128201,大山生活館,長崎県対馬市美津島町大山171,,1,,,,,,,,34.3310314,129.3492642,
925,E4220900129201,玉調コミュニティセンター,長崎県対馬市美津島町大山731,1,1,1,1,,,,,,34.312733924778,129.35795996168,
926,E4220900130201,大船越へき地保育所,長崎県対馬市美津島町大船越391-8,1,,1,1,1,,,,,34.281322245379,129.35499860032,
927,E4220900131201,大船越小学校体育館,長崎県対馬市美津島町大船越563,1,1,1,1,1,,,,1,34.276096139708,129.35875369294,
928,E4220900131202,大船越小学校,長崎県対馬市美津島町大船越563,1,1,1,1,1,,,,1,34.275940991656,129.35837818368,
929,E4220900132202,大船越中学校,長崎県対馬市美津島町大船越607,1,1,1,1,1,,,,1,34.2748454676,129.359808829,
930,E4220900132201,大船越中学校体育館,長崎県対馬市美津島町大船越607,1,1,1,1,1,,,,1,34.274429391366,129.36014844163,
931,E4220900133201,美津島町漁村青少年研修センター,長崎県対馬市美津島町大船越813-3,,1,,1,,,,,,34.28446469,129.3469584,
932,E4220900134201,竹敷地区コミュニティーセンター,長崎県対馬市美津島町竹敷212-24,1,1,1,,,,,,,34.29914753,129.3011746,
933,E4220900135201,西地区体育館,長崎県対馬市美津島町竹敷427-37,1,1,1,1,1,,,,1,34.295355656139,129.30043447165,
934,E4220900136201,島山コミュニティーセンター,長崎県対馬市美津島町島山71,,,,1,,,,,,34.31995449,129.3160653,
935,E4220900137201,尾崎住民センター,長崎県対馬市美津島町尾崎338,1,1,1,,,,,,,34.311370039671,129.22240983833,
936,E4220900138201,美津島自治コミュニティセンター,長崎県対馬市美津島町鷄知乙484-5,,1,,1,,,,,,34.27487387,129.3172877,
937,E4220900139201,高浜生活館,長崎県対馬市美津島町鷄知甲310,,1,,,,,,,,34.26136142,129.3152063,
938,E4220900141202,鶏鳴小学校,長崎県対馬市美津島町雞知乙573-3,1,1,1,1,1,,,,1,34.269230646774,129.31736281958,
939,E4220900141201,鶏鳴小学校体育館,長崎県対馬市美津島町雞知乙573-3,1,1,1,1,1,,,,1,34.268707532341,129.31758812514,
940,E4220900142201,鶏鳴幼稚園,長崎県対馬市美津島町雞知乙588-3,1,1,1,1,1,,,,,34.270267999668,129.31589296905,
941,E4220900143201,美津島文化会館,長崎県対馬市美津島町雞知甲1287-1,1,1,1,,,,,,1,34.267949453954,129.31651524154,
942,E4220900143202,美津島体育館,長崎県対馬市美津島町雞知甲1287-1,1,1,1,1,1,,,,1,34.268020385555,129.31623629181,
943,E4220900144202,鶏知中学校,長崎県対馬市美津島町雞知甲550-7,1,1,1,1,1,,,,1,34.26831793,129.3105036,
944,E4220900144201,鶏知中学校体育館,長崎県対馬市美津島町雞知甲550-7,1,1,1,1,1,,,,1,34.267829756743,129.3101959571,
945,E4220900145201,高齢者コミュニティセンター,長崎県対馬市美津島町雞知甲738-46,1,1,1,1,1,,,,1,34.26679237377,129.30681100933,
946,E4220900146201,賀佐公民館,長崎県対馬市峰町賀佐18,1,,1,,,,,,,34.44930322326,129.30167143618,
947,E4220900147201,吉田生活館,長崎県対馬市峰町吉田201,1,,1,1,,,,,,34.445814834708,129.31904286351,
948,E4220900148201,櫛多目的集会施設,長崎県対馬市峰町櫛埋立地,,1,,1,,,,,,34.43464721,129.3646018,
949,E4220900149202,東部中学校,長崎県対馬市峰町佐賀111,1,1,1,1,1,,,,1,34.460357825024,129.37714977901,
950,E4220900149201,東部中学校体育館,長崎県対馬市峰町佐賀111,1,1,1,1,1,,,,1,34.460729361118,129.37706394831,
951,E4220900387201,佐賀生活館,長崎県対馬市峰町佐賀153-1,1,1,1,1,,,,,,34.46083,129.37632,
952,E4220900150201,東小学校体育館,長崎県対馬市峰町佐賀412,1,1,1,1,,,,,,34.45858427,129.3773823,
953,E4220900150202,東小学校,長崎県対馬市峰町佐賀412,1,1,1,1,,,,,,34.45837195,129.377039,
954,E4220900151201,中対馬開発総合センター,長崎県対馬市峰町佐賀608-1,1,1,1,1,1,,,,1,34.457374028739,129.36866506719,
955,E4220900152201,対馬青年の家,長崎県対馬市峰町三根1186,1,1,1,,,,,,,34.474629461894,129.32617893359,
956,E4220900153201,三根浜生活館,長崎県対馬市峰町三根2-14,,,,1,,,,,,34.46392734,129.3101344,
957,E4220900154201,対馬市峰保健福祉センター,長崎県対馬市峰町三根29,,,,1,,,,,,34.46851,129.312683,
958,E4220900155201,西部中学校体育館,長崎県対馬市峰町三根328-15,1,1,1,1,1,,,,1,34.46368408,129.3144152,
959,E4220900155202,西部中学校,長崎県対馬市峰町三根328-15,1,1,1,1,1,,,,1,34.46338333,129.3149516,
960,E4220900156201,シャインドームみね,長崎県対馬市峰町三根353,1,1,1,1,1,,,,1,34.4650308342,129.315427856,
961,E4220900157201,西小学校体育館,長崎県対馬市峰町三根361-30,1,1,1,1,1,,,,1,34.467859180966,129.31656093215,
962,E4220900157202,西小学校,長崎県対馬市峰町三根361-30,1,1,1,1,1,,,,1,34.46798302,129.3158099,
963,E4220900158201,峰地区公民館,長崎県対馬市峰町三根451,1,,1,1,1,,,,1,34.4690917,129.315888,
964,E4220900159201,三根下生活館,長崎県対馬市峰町三根622,1,,1,1,,,,,,34.471286677237,129.32141244013,
965,E4220900160201,三根保育所,長崎県対馬市峰町三根65,,1,,1,,,,,,34.46872973,129.3130329,
966,E4220900161201,志多賀漁村センター,長崎県対馬市峰町志多賀127-4,,1,,1,,,,,,34.48110392,129.3973272,
967,E4220900163201,狩尾漁村センター,長崎県対馬市峰町狩尾120,,,,1,,,,,,34.45563788,129.2960485,
968,E4220900164201,青海ふるさと館,長崎県対馬市峰町青海85,1,,1,1,1,,,,1,34.4707969619,129.278115824,
969,E4220900165201,津柳多目的集会施設,長崎県対馬市峰町津柳158,1,,1,1,1,,,,1,34.488448550894,129.29455608939,
970,E4220900167201,木坂多目的集会施設,長崎県対馬市峰町木坂602-3,1,,1,1,1,,,,,34.458929084924,129.28121551835,
971,E4220900169201,豊玉町漁協塩浜出張所,長崎県対馬市豊玉町横浦98,1,1,1,,,,,,,34.39067967,129.3839175,
972,E4220900168201,横浦生活館,長崎県対馬市豊玉町横浦３１５－１先埋立地,,1,,1,,,,,,34.39029675,129.3584257,
973,E4220900170201,廻集落センター,長崎県対馬市豊玉町廻220,1,1,1,,,,,,,34.363188610736,129.24116912942,
974,E4220900171201,貝口地区集会施設,長崎県対馬市豊玉町貝口63,1,,1,1,,,,,,34.365841636316,129.27580752588,
975,E4220900172201,東加藤生活館,長崎県対馬市豊玉町貝鮒１－２６先埋立地,,,,1,,,,,,34.35477076,129.2735276,
976,E4220900173201,佐保生活館,長崎県対馬市豊玉町佐保389-1,1,,1,1,1,,,,,34.3965673323,129.284949014,
977,E4220900176201,水崎へき地保健福祉館,長崎県対馬市豊玉町嵯峨648-4,1,1,1,,,,,,,34.35741022,129.2681065,
978,E4220900174201,嵯峨生活館,長崎県対馬市豊玉町嵯峨３１９先埋立地,,1,,1,,,,,,34.35679466,129.311392,
979,E4220900177201,志多浦生活館,長崎県対馬市豊玉町志多浦143-3,,,,1,,,,,,34.41258317,129.2802304,
980,E4220900178201,糸瀬コミュニティーセンター,長崎県対馬市豊玉町糸瀬8,,,,1,,,,,,34.3699956,129.3198328,
981,E4220900179201,綱島体育館,長崎県対馬市豊玉町小綱19-2,1,1,1,1,1,,,,1,34.417856774505,129.2869513818,
982,E4220900180201,豊玉町漁協綱島支所,長崎県対馬市豊玉町小綱331,1,1,1,,,,,,,34.41677718,129.2780019,
983,E4220900181201,小綱生活館,長崎県対馬市豊玉町小綱５２４－１先埋立地,,1,,1,,,,,,34.41710466,129.285158,
984,E4220900182202,豊玉高等学校,長崎県対馬市豊玉町仁位1331-2,1,1,1,1,1,,,,,34.397697245016,129.31701026144,
985,E4220900182201,豊玉高等学校体育館,長崎県対馬市豊玉町仁位1331-2,1,1,1,1,1,,,,,34.398370051392,129.3173857707,
986,E4220900183201,仁位生活館,長崎県対馬市豊玉町仁位1366,1,,1,1,,,,,,34.397050991694,129.31664548101,
987,E4220900185201,豊玉保健センター,長崎県対馬市豊玉町仁位165-1,1,1,1,1,,,,,,34.38943722069,129.31442461196,
988,E4220900186201,豊玉小学校体育館,長崎県対馬市豊玉町仁位1903,1,1,1,1,1,,,,1,34.39028073,129.310484,
989,E4220900187202,豊玉文化会館,長崎県対馬市豊玉町仁位370,1,1,1,1,1,,,,1,34.394421663022,129.31951008024,
990,E4220900187201,対馬市公会堂,長崎県対馬市豊玉町仁位370,1,1,1,1,1,,,,1,34.394403956825,129.31993923369,
991,E4220900189201,豊玉中学校体育館,長崎県対馬市豊玉町仁位500,1,1,1,1,1,,,,1,34.395466322014,129.3198855895,
992,E4220900189202,豊玉中学校,長崎県対馬市豊玉町仁位500,1,1,1,1,1,,,,1,34.395563704815,129.32110867681,
993,E4220900190201,豊玉総合運動公園体育館,長崎県対馬市豊玉町仁位74-3,1,,1,1,1,,,,,34.3866415958,129.312741185,
994,E4220900278201,千尋藻漁村センター,長崎県対馬市豊玉町千尋藻241-10,,1,,1,,,,,,34.40550898,129.371441,
995,E4220900193201,豊玉町漁協,長崎県対馬市豊玉町千尋藻355-9,1,1,1,,,,,,,34.40689219,129.373637,
996,E4220900195201,位之端漁村センター,長崎県対馬市豊玉町曽1052,,,,1,,,,,,34.43169172,129.3658967,
997,E4220900197201,大綱ふれあいセンター,長崎県対馬市豊玉町大綱631,,,,1,,,,,,34.41605142,129.2858232,
998,E4220900198201,田集会施設,長崎県対馬市豊玉町田286,1,,1,1,1,,,,,34.428166009534,129.30101734689,
999,E4220900199201,豊玉町漁協水崎支所,長崎県対馬市豊玉町唐洲323-5,1,1,1,,,,,,,34.35568595,129.2660897,
1000,E4220900200203,加志々体育館,長崎県対馬市豊玉町唐洲423,1,1,1,1,1,,,,1,34.358255,129.26083,
1001,E4220900201201,豊玉町漁協唐洲出張所,長崎県対馬市豊玉町唐洲67,1,1,1,,,,,,,34.35585904,129.2492,
1002,E4220900202201,唐洲生活館,長崎県対馬市豊玉町唐洲６７－２先埋立地,,1,,,,,,,,34.35607604,129.2485295,
1003,E4220900306201,銘部落公民館,長崎県対馬市豊玉町銘117,,,,1,,,,,,34.42824191,129.2819341,
1004,E4220900204201,鑓川多目的集会施設,長崎県対馬市豊玉町鑓川無番地,,,,1,,,,,,34.3983398,129.3626931,
1005,E4220900205201,和板集会施設,長崎県対馬市豊玉町和坂110-1,1,,1,1,1,,,,,34.384499154983,129.34007857025,
1006,E4220500162201,福重出張所,長崎県大村市皆同町512-2,,1,,1,1,,,,1,32.96055556,129.9480556,
1007,E4220500164201,岩松公園,長崎県大村市岩松町929-1,1,,,1,1,,,,,32.89083333,129.9838889,
1008,E4220500165201,鬼橋公園,長崎県大村市鬼橋町106-1,1,1,,1,1,,,,,32.94777778,129.9536111,
1009,E4220500166201,長瀬公園,長崎県大村市久原1-1173-1,1,,,1,1,,,,,32.89194444,129.9675,
1010,E4220500171201,久原公園,長崎県大村市久原2-1201-3,1,1,,1,1,,,,,32.89305556,129.9697222,
1011,E4220500174201,宮小路公園,長崎県大村市宮小路3-1368-1,1,1,,1,1,,,,,32.95111111,129.9427778,
1012,E4220500179201,大村公園,長崎県大村市玖島1-43,1,1,,1,1,,,,,32.89861111,129.9594444,
1013,E4220500181201,上小路公園,長崎県大村市玖島2-329-1,1,1,,1,1,,,,,32.90333333,129.9652778,
1014,E4220500182201,玖島公園,長崎県大村市玖島3-571-82,1,1,,1,1,,,,,32.90583333,129.9655556,
1015,E4220500183201,上原口公園,長崎県大村市原口町632-4,1,1,,1,1,,,,,32.93555556,129.95,
1016,E4220500184201,下原口公園,長崎県大村市原口町837,1,1,,1,1,,,,,32.93638889,129.9452778,
1017,E4220500187201,古賀島スポーツ広場,長崎県大村市古賀島町595-2,,,,1,1,,,,,32.92583333,129.9397222,
1018,E4220500189201,幸町公園,長崎県大村市幸町25-173,1,1,,1,1,,,,,32.90361111,129.9530556,
1019,E4220500035201,体育文化センター（駐車場）,長崎県大村市幸町25-33,1,,,1,1,,,,1,32.90055556,129.9575,
1020,E4220500036201,新城公園,長崎県大村市杭出津1-940-1,1,1,,1,1,,,,,32.90833333,129.9519444,
1021,E4220500193201,杭出津公園,長崎県大村市杭出津3-439-1,1,1,,1,1,,,,,32.91527778,129.9525,
1022,E4220500194201,溝陸公園,長崎県大村市溝陸町1029-284,1,1,,1,1,,,,,32.84638889,130.0027778,
1023,E4220500195201,大村純忠史跡公園,長崎県大村市荒瀬町1116,1,1,,1,1,,,,,32.93972222,129.9672222,
1024,E4220500196201,ＪＡ長崎県央中部集出荷場,長崎県大村市荒瀬町805-1,,1,,1,1,,,,,32.95055556,129.9683333,
1025,E4220500197201,総合運動公園,長崎県大村市黒丸町5-1,,1,,1,1,,,,,32.959167,129.9325,
1026,E4220500198201,黒丸公園,長崎県大村市黒丸町565,1,1,,1,1,,,,,32.95083333,129.935,
1027,E4220500200201,桜馬場第一公園,長崎県大村市桜馬場1-224-3,1,1,,1,1,,,,,32.9275,129.9497222,
1028,E4220500053201,桜馬場公園,長崎県大村市桜馬場2-333-18,1,1,,1,1,,,,,32.93055556,129.9511111,
1029,E4220500055201,寿古公園,長崎県大村市寿古町440-1,,1,,1,1,,,,,32.96388889,129.9413889,
1030,E4220500056201,上小路口公園,長崎県大村市小路口町328-5,1,1,,1,1,,,,,32.93833333,129.9561111,
1031,E4220500057201,小路口本町公園,長崎県大村市小路口本町426-3,1,1,,1,1,,,,,32.94222222,129.9569444,
1032,E4220500059201,梶の尾公園,長崎県大村市松原1-457,1,1,,1,1,,,,,32.97388889,129.9480556,
1033,E4220500061201,松原公園,長崎県大村市松原本町27-6,,1,,1,,,,,,32.97583333,129.9430556,
1034,E4220500062201,松原出張所,長崎県大村市松原本町296-4,1,,,1,1,,,,1,32.97583333,129.945,
1035,E4220500069201,慰霊塔公園,長崎県大村市松並2-857,1,1,,1,1,,,,,32.91972222,129.9472222,
1036,E4220500070201,岳ノ木場公園,長崎県大村市上諏訪町1698,1,1,,1,1,,,,,32.92916667,129.9808333,
1037,E4220500071201,植松ふれあい公園,長崎県大村市植松1-81-1,1,1,,1,1,,,,,32.93222222,129.9608333,
1038,E4220500073201,植松第二公園,長崎県大村市植松2-436-1,1,1,,1,1,,,,,32.92944444,129.9566667,
1039,E4220500074201,植松公園,長崎県大村市植松3-842,1,1,,1,1,,,,,32.93277778,129.955,
1040,E4220500076201,森園公園,長崎県大村市森園町1484,1,1,,1,1,,,,,32.92,129.9386111,
1041,E4220500077201,中諏訪公園,長崎県大村市諏訪1-48-1,1,1,,1,1,,,,,32.92444444,129.9633333,
1042,E4220500080201,諏訪公園,長崎県大村市諏訪2-274-4,1,1,,1,1,,,,,32.925,129.9613889,
1043,E4220500081201,椋木原公園,長崎県大村市諏訪2-507-81,1,1,,1,1,,,,,32.92722222,129.9630556,
1044,E4220500083201,水主町第二公園,長崎県大村市水主町1-978-99,1,1,,1,1,,,,,32.90611111,129.9527778,
1045,E4220500084201,水主町公園,長崎県大村市水主町2-635-1,,1,,1,1,,,,,32.90944444,129.9563889,
1046,E4220500088201,松並公園,長崎県大村市西大村本町356,1,1,,1,1,,,,,32.92361111,129.9508333,
1047,E4220500094201,伊勢町公園,長崎県大村市西本町493-2,,1,,1,1,,,,,32.905,129.9583333,
1048,E4220500095201,赤佐古公園,長崎県大村市赤佐古町154-1,1,1,,1,1,,,,,32.90833333,129.9730556,
1049,E4220500097201,竹松出張所,長崎県大村市大川田町417-1,,,,1,1,,,,1,32.94333333,129.9472222,
1050,E4220500100201,大川田公園,長崎県大村市大川田町875-4,1,1,,1,1,,,,,32.94194444,129.9472222,
1051,E4220500103201,鈴田出張所,長崎県大村市大里町33-2,1,1,,1,1,,,,1,32.88944444,129.9922222,
1052,E4220500104201,池田湖公園,長崎県大村市池田1-1007,1,1,,1,1,,,,,32.93166667,129.9675,
1053,E4220500108201,池田新町公園,長崎県大村市池田新町763-84,1,1,,1,1,,,,,32.92777778,129.9655556,
1054,E4220500109201,竹松公園,長崎県大村市竹松町703-3,1,1,,1,1,,,,,32.95083333,129.9466667,
1055,E4220500110201,竹松本町公園,長崎県大村市竹松本町958-1,1,1,,1,1,,,,,32.93972222,129.9505556,
1056,E4220500111201,萱瀬出張所,長崎県大村市田下町1577,1,1,,1,1,,,,1,32.9525,130.0044444,
1057,E4220500117201,駅前公園,長崎県大村市東三城町7-10,1,1,,1,1,,,,,32.91111111,129.9605556,
1058,E4220500125201,野岳湖公園,長崎県大村市東野岳町1097-1,,1,,1,1,,,,,32.97777778,129.9794444,
1059,E4220500136201,三浦出張所,長崎県大村市日泊町791,,1,,1,1,,,,1,32.8625,129.9877778,
1060,E4220500137201,富ノ原第二公園,長崎県大村市富の原1-1171-5,1,1,,1,1,,,,,32.93916667,129.9413889,
1061,E4220500138201,富ノ原一丁目公園,長崎県大村市富の原1-1279-82,1,1,,1,1,,,,,32.93722222,129.9388889,
1062,E4220500142201,富ノ原二丁目公園,長崎県大村市富の原2-482,1,1,,1,1,,,,,32.94611111,129.9386111,
1063,E4220500144201,小佐古公園,長崎県大村市武部町489-1,1,1,,1,1,,,,,32.91222222,129.9655556,
1064,E4220500147201,市民交流プラザ,長崎県大村市本町326-1,1,1,,1,1,,,,1,32.906389,129.96,
1065,E4220500154201,上久原公園,長崎県大村市木場1-1112-3,1,1,,1,1,,,,,32.89777778,129.9763889,
1066,E4220500201201,ますらがはら展望公園,長崎県大村市雄ケ原町1298-29,1,1,,1,1,,,,,32.9375,129.9794444,
1067,E4220500158201,アルカディア記念公園,長崎県大村市雄ケ原町147-34,1,1,,1,1,,,,,32.9425,129.9838889,
1068,E4220100004201,矢上団地近隣公園,長崎県長崎市かき道2-2000,1,,1,,1,1,1,,,32.770988,129.958512,
1069,E4220100005201,矢上団地第１公園,長崎県長崎市かき道2-2001,1,1,1,,1,1,1,,,32.77276,129.95731,
1070,E4220100008201,さくらの里第１公園,長崎県長崎市さくらの里1-3-479,1,1,1,1,1,1,1,,,32.832706,129.770933,
1071,E4220100009201,さくらの里東公園,長崎県長崎市さくらの里1-3-606,1,1,1,1,1,1,1,,,32.831447,129.769662,
1072,E4220100010201,さくらの里第３公園,長崎県長崎市さくらの里2-123-134,1,1,1,1,1,1,1,,,32.831327,129.762675,
1073,E4220100011201,さくらの里第２公園,長崎県長崎市さくらの里2-123-87,1,1,1,1,1,1,1,,,32.831931,129.765172,
1074,E4220100012201,さくらの里西公園,長崎県長崎市さくらの里2-123-98,1,1,1,1,1,1,1,,,32.830825,129.765606,
1075,E4220100013201,さくらの里中央公園,長崎県長崎市さくらの里2-401-264,1,1,1,1,1,1,1,,,32.83508,129.767516,
1076,E4220100019201,つつじが丘中央公園,長崎県長崎市つつじが丘3-1230-99,1,1,1,,1,1,1,,,32.8081,129.96002,
1077,E4220100021201,みなと坂星空公園,長崎県長崎市みなと坂1-28-44,1,1,1,1,1,1,1,,,32.728758,129.835483,
1078,E4220100023201,みなと坂やしのき公園,長崎県長崎市みなと坂1-740-15,1,,1,1,1,1,1,,,32.731201,129.838844,
1079,E4220100025201,みなと坂くすのき公園,長崎県長崎市みなと坂2-525-13,1,1,1,1,1,1,1,,,32.737082,129.836848,
1080,E4220100024201,みなと坂船の公園,長崎県長崎市みなと坂１－９２番５外５筆,1,1,1,1,1,1,1,,,32.731397,129.833744,
1081,E4220100002201,エミネント葉山中央公園,長崎県長崎市エミネント葉山町165-6,1,1,1,,1,1,1,,,32.8015,129.84484,
1082,E4220100014201,南部地区公園,長崎県長崎市ダイヤランド1-400-157,1,,1,,1,1,1,,,32.70086,129.86057,
1083,E4220100016201,おりおん座公園,長崎県長崎市ダイヤランド3-80-89,1,1,1,,1,1,1,,,32.70143,129.85208,
1084,E4220100029201,愛宕中央公園,長崎県長崎市愛宕3-819-3,1,1,1,1,1,1,1,,,32.735167,129.889907,
1085,E4220100030201,以下宿広場,長崎県長崎市以下宿町1932,1,1,,,,1,1,,,32.62074819,129.7919065,
1086,E4220100031201,伊王島小中学校グランド,長崎県長崎市伊王島１－甲3273,1,1,1,,1,1,1,,,32.70608826,129.7768164,
1087,E4220100036201,風頭公園,長崎県長崎市伊良林3-510-6,1,1,1,,1,1,1,,,32.74612,129.886004,
1088,E4220100037201,為石小学校グランド,長崎県長崎市為石町2119,1,1,1,,1,1,1,,,32.64327772,129.8383999,
1089,E4220100038201,三和中学校グランド,長崎県長崎市為石町2600,1,1,1,,1,1,1,,1,32.64399141,129.83428,
1090,E4220100041201,稲佐児童公園,長崎県長崎市稲佐町2400,1,1,1,,1,1,1,,,32.755734,129.861767,
1091,E4220100043201,仁田中央公園,長崎県長崎市稲田町53-2,1,1,1,,1,1,1,,,32.737806,129.878518,
1092,E4220100044201,黒崎永田湿地自然公園,長崎県長崎市永田町１５１４外,1,,1,1,1,1,1,,,32.829801,129.720884,
1093,E4220100046201,飽の浦公園,長崎県長崎市塩浜町52,1,,1,1,1,1,1,,,32.741895,129.852805,
1094,E4220100047201,秋寄公園,長崎県長崎市横尾2-1446-207,1,,1,,1,1,1,,,32.813745,129.83505,
1095,E4220100048201,築廻公園,長崎県長崎市横尾2-1446-444,1,,1,,1,1,1,,,32.811937,129.833022,
1096,E4220100053201,外海黒崎小学校グランド,長崎県長崎市下黒崎町1428,1,1,1,,1,1,1,,,32.83550724,129.7160751,
1097,E4220100055201,外海総合公園,長崎県長崎市下黒崎町252-1,1,1,1,,1,1,1,,,32.84014,129.72162,
1098,E4220100056201,黒崎地区公民館運動広場,長崎県長崎市下黒崎町5169,1,1,1,,1,1,1,,1,32.83865556,129.7149029,
1099,E4220100059201,家野町公園,長崎県長崎市家野町2400-1,1,1,1,,1,1,1,,,32.78775,129.86288,
1100,E4220100060201,かめ焼公園,長崎県長崎市花園町2400-3,1,1,1,,1,1,1,,,32.772398,129.850325,
1101,E4220100061201,花園公園,長崎県長崎市花園町2400-5,1,1,1,,1,1,1,,,32.770754,129.849126,
1102,E4220100063201,蚊焼小学校グランド,長崎県長崎市蚊焼町1778,1,1,,,,1,1,,,32.65231143,129.8177147,
1103,E4220100065201,岳路運動公園,長崎県長崎市蚊焼町3816,1,1,1,,1,1,1,,,32.64103,129.80944,
1104,E4220100069201,天神籠公園,長崎県長崎市界町2400-2,1,1,1,,1,1,1,,,32.757,129.94272,
1105,E4220100070201,手熊公園,長崎県長崎市柿泊町1008-3,1,1,1,1,1,1,1,,,32.777923,129.800963,
1106,E4220100071201,長崎市総合運動公園,長崎県長崎市柿泊町2210,1,,1,1,1,1,1,,,32.772911,129.816162,
1107,E4220100078201,滑石平宗公園,長崎県長崎市滑石2-89-9,1,1,1,,1,1,1,,,32.80762,129.846135,
1108,E4220100079201,北陽公園,長崎県長崎市滑石4-1456-6,1,,1,,1,1,1,,,32.806838,129.835078,
1109,E4220100084201,滑石中央公園,長崎県長崎市滑石6-1916-25,1,,1,,1,1,1,,,32.80439,129.83496,
1110,E4220100086201,丸尾公園,長崎県長崎市丸尾町23-27,1,1,,,,1,1,,,32.748843,129.862532,
1111,E4220100090201,岩見が丘公園,長崎県長崎市岩見町99-3,1,1,1,1,1,1,1,,,32.768221,129.850683,
1112,E4220100092201,山王公園,長崎県長崎市岩川町2400,1,1,,,,1,1,,,32.76696,129.8655,
1113,E4220100094201,丸山公園,長崎県長崎市寄合町1-2,1,1,1,,1,1,1,,,32.741051,129.879473,
1114,E4220100095201,川原小学校グランド,長崎県長崎市宮崎町127,1,1,1,,1,1,1,,,32.62560515,129.8344088,
1115,E4220100097201,木場運動公園,長崎県長崎市宮崎町1919,1,1,1,,1,1,1,,,32.60834,129.81884,
1116,E4220100099201,三和記念公園,長崎県長崎市宮崎町966-6,1,1,1,1,1,1,1,,,32.62684,129.830232,
1117,E4220100102201,魚の町公園,長崎県長崎市魚の町5-2,1,1,1,,1,1,1,,,32.748897,129.880781,
1118,E4220100104201,京泊公園,長崎県長崎市京泊3-1-53,1,,1,,1,1,1,,,32.8254,129.77367,
1119,E4220100109201,琴海中央公園,長崎県長崎市琴海戸根原町1360,1,1,1,,1,1,1,,,32.90231,129.78764,
1120,E4220100110201,やすらぎの小径,長崎県長崎市琴海村松町699-1,1,1,1,1,,1,1,,,32.868143,129.788453,
1121,E4220100112201,琴海南部運動公園運動場,長崎県長崎市琴海村松町703-15,1,1,,,,1,1,,,32.865942,129.787378,
1122,E4220100114201,あさひが丘運動公園,長崎県長崎市琴海大平町1794-129,1,1,1,1,1,1,1,,,32.95853,129.788654,
1123,E4220100115201,さざなみの丘公園,長崎県長崎市琴海大平町2062-1,1,1,1,1,1,1,1,,,32.951171,129.787692,
1124,E4220100116201,琴海北部運動公園,長崎県長崎市琴海大平町638-11,1,1,,,,1,1,,,32.95418,129.80127,
1125,E4220100118201,琴海赤水公園,長崎県長崎市琴海町戸根原郷1212-1,1,,1,1,1,1,1,,,32.909751,129.753044,
1126,E4220100119201,琴海中部運動公園運動場,長崎県長崎市琴海長浦町3774-1,1,1,,,,1,1,,,32.90596,129.78521,
1127,E4220100122201,瓊の浦公園,長崎県長崎市恵美須町5-100,1,1,,,,1,1,,,32.75023,129.875184,
1128,E4220100124201,どんの山公園,長崎県長崎市元町129,1,1,1,,1,1,1,,,32.732813,129.878016,
1129,E4220100126201,古賀団地北公園,長崎県長崎市古賀町1210-5,1,1,1,,1,1,1,,,32.80531,129.96074,
1130,E4220100132201,長崎東公園,長崎県長崎市戸石町194-7,1,,1,,1,1,1,,,32.76759,129.96958,
1131,E4220100133201,しおさい公園,長崎県長崎市戸石町500-122,1,1,1,1,1,1,1,,,32.766062,129.972419,
1132,E4220100134201,おひさま公園,長崎県長崎市戸石町500-221,1,1,1,1,1,1,1,,,32.766298,129.970709,
1133,E4220100135201,くつろぎ公園,長崎県長崎市戸石町500-484,1,1,1,1,1,1,1,,,32.769612,129.972789,
1134,E4220100137201,戸町２丁目公園,長崎県長崎市戸町2-22-22,1,1,1,1,1,1,1,,,32.725702,129.86945,
1135,E4220100139201,鶴見公園,長崎県長崎市戸町3-212-49,1,1,,,,1,1,,,32.722213,129.861955,
1136,E4220100142201,出島表門橋公園,長崎県長崎市江戸町8-1,,1,,1,1,1,1,,,32.744016,129.873104,
1137,E4220100144201,江平公園,長崎県長崎市江平1-466-2,1,1,1,1,1,1,1,,,32.772278,129.871737,
1138,E4220100147201,香焼第１児童公園,長崎県長崎市香焼町1060,1,1,1,,1,1,1,,,32.687097,129.808331,
1139,E4220100149201,香焼第５児童公園,長崎県長崎市香焼町132-14,1,1,,,,1,1,,,32.698175,129.817436,
1140,E4220100150201,香焼第６児童公園,長崎県長崎市香焼町1613,1,1,1,,1,1,1,,,32.681809,129.807524,
1141,E4220100151201,香焼第３児童公園,長崎県長崎市香焼町1975,1,1,1,,1,1,1,,,32.68508,129.80082,
1142,E4220100152201,香焼総合公園グランド,長崎県長崎市香焼町2582,1,1,1,,1,1,1,,,32.68969,129.79928,
1143,E4220100153201,香焼第２児童公園,長崎県長崎市香焼町444-1,1,1,,,,1,1,,,32.692351,129.814271,
1144,E4220100154201,香焼第４児童公園,長崎県長崎市香焼町477-1,1,1,1,,1,1,1,,,32.691403,129.812391,
1145,E4220100155201,香焼小学校グランド,長崎県長崎市香焼町493,1,1,,,,1,1,,1,32.6897735,129.8146999,
1146,E4220100157201,香焼中学校グランド,長崎県長崎市香焼町563-10,1,1,,,,1,1,,1,32.68807595,129.8121464,
1147,E4220100159201,風の子公園,長崎県長崎市高城台1-126-67,1,1,1,1,1,1,1,,,32.77861,129.948201,
1148,E4220100160201,海風公園,長崎県長崎市高城台1-1471-54,1,1,1,1,1,1,1,,,32.774669,129.945554,
1149,E4220100163201,平間３号緑地公園,長崎県長崎市高城台2-16-102,1,1,1,1,1,1,1,,,32.779125,129.945179,
1150,E4220100164201,フィットネスパーク,長崎県長崎市高城台2-16-104,1,1,1,1,1,1,1,,,32.777686,129.94601,
1151,E4220100165201,平間１号緑地公園,長崎県長崎市高城台2-16-96,1,1,1,1,1,1,1,,,32.780603,129.942181,
1152,E4220100162201,陽だまり公園,長崎県長崎市高城台2-1657-129,1,1,1,1,1,1,1,,,32.777754,129.9442,
1153,E4220100167201,先ノ谷公園グランド,長崎県長崎市高島町964,1,1,1,,1,1,1,,,32.66258,129.75123,
1154,E4220100170201,旧野母崎高校グランド,長崎県長崎市高浜町1995,1,1,1,,1,1,1,,,32.60618027,129.7892779,
1155,E4220100171201,高浜運動公園,長崎県長崎市高浜町2509,1,1,1,,1,1,1,,,32.60888,129.79073,
1156,E4220100172201,旧高浜小学校グランド,長崎県長崎市高浜町3114,1,1,1,,1,1,1,,,32.60772573,129.7844821,
1157,E4220100174201,高浜農村公園,長崎県長崎市高浜町3427-2,1,1,1,,1,1,1,,,32.603153,129.787199,
1158,E4220100175201,黒浜広場,長崎県長崎市黒浜町1161-1,1,1,,,,1,1,,,32.628304,129.794326,
1159,E4220100178201,桜町公園,長崎県長崎市桜町10-1000,1,1,1,,1,1,1,,,32.750963,129.878094,
1160,E4220100183201,三京中央公園,長崎県長崎市三京町815-147,1,1,1,1,1,1,1,,,32.823646,129.753863,
1161,E4220100184201,三京南公園,長崎県長崎市三京町815-401,1,1,1,1,1,1,1,,,32.820584,129.754991,
1162,E4220100185201,三景台第４公園,長崎県長崎市三景台町476,1,1,1,,1,1,1,,,32.72447,129.8974,
1163,E4220100186201,三原公園,長崎県長崎市三原1-2-158,1,1,1,,1,1,1,,,32.78269,129.88121,
1164,E4220100189201,三原台南公園,長崎県長崎市三原台3-120-9,1,1,1,1,1,1,1,,,32.778809,129.878058,
1165,E4220100193201,三重公園,長崎県長崎市三重町1398,1,,1,,1,1,1,,,32.826183,129.748127,
1166,E4220100200201,式見公園,長崎県長崎市式見町18-3,1,1,,,,1,1,,,32.78759,129.7888,
1167,E4220100207201,住吉中央公園,長崎県長崎市住吉町1513-1,1,1,1,1,1,1,1,,,32.791001,129.861086,
1168,E4220100208201,住吉公園,長崎県長崎市住吉町2400-2,1,1,1,,1,1,1,,,32.7932,129.86118,
1169,E4220100209201,日見公園,長崎県長崎市宿町2400-2,1,1,1,,1,1,1,,,32.75936,129.94242,
1170,E4220100211201,鍋冠山公園,長崎県長崎市出雲2-144-1,1,1,1,,1,1,1,,,32.72934,129.86901,
1171,E4220100212201,出雲近隣公園,長崎県長崎市出雲町1-223-2,1,,1,1,1,1,1,,,32.72867,129.874147,
1172,E4220100214201,稲佐近隣公園,長崎県長崎市曙町299-3,1,1,1,,1,1,1,,,32.754275,129.857087,
1173,E4220100216201,稲佐公園,長崎県長崎市曙町7-72,1,,1,1,1,1,1,,,32.752557,129.859299,
1174,E4220100217201,おたけ公園,長崎県長崎市女の都2-1606-260,1,1,1,,1,1,1,,,32.80239,129.88097,
1175,E4220100224201,小江原公園,長崎県長崎市小江原1-183-128,1,,1,,1,1,1,,,32.78384,129.8382,
1176,E4220100225201,いちょう公園,長崎県長崎市小江原2-23-281,1,1,1,,1,1,1,,,32.778318,129.841104,
1177,E4220100229201,小江原台近隣公園,長崎県長崎市小江原3-330-1077,1,1,1,,1,1,1,,,32.77886,129.82874,
1178,E4220100230201,にじの夢公園,長崎県長崎市小江原5-1452-115,1,,1,1,1,1,1,,,32.778272,129.823948,
1179,E4220100231201,そらの夢公園,長崎県長崎市小江原5-654-54,1,,1,1,1,1,1,,,32.780495,129.823971,
