NO,共通ID,施設・場所名,住所,指定緊急避難場所との住所同一,その他市町村長が必要と認める事項,受入対象者,緯度,経度,備考
1,E4421100001111,総合保健福祉センター,大分県宇佐市安心院町下毛2111-1,1,,,33.4393551,131.3549139,
2,E4421100002111,安心院中学校体育館,大分県宇佐市安心院町下毛2222-1,1,,,33.436104,131.356284,
3,E4421100002112,安心院中学校,大分県宇佐市安心院町下毛2222-1,1,,,33.435746,131.356765,
4,E4421100003112,津房小学校,大分県宇佐市安心院町五郎丸380-2,1,,,33.390954,131.396734,
5,E4421100003111,津房小学校体育館,大分県宇佐市安心院町五郎丸380-2,1,,,33.390669,131.396176,
6,E4421100004111,佐田小学校体育館,大分県宇佐市安心院町佐田215,1,,,33.441905,131.395887,
7,E4421100004112,佐田小学校,大分県宇佐市安心院町佐田215,1,,,33.441606,131.395751,
8,E4421100005111,佐田地区公民館,大分県宇佐市安心院町佐田246-1,1,,,33.44228,131.395863,
9,E4421100081111,安心院高等学校（体育館）,大分県宇佐市安心院町折敷田64,,,,33.437082,131.353043,
10,E4421100006111,安心院小学校体育館,大分県宇佐市安心院町木裳115-1,1,,,33.435612,131.357844,
11,E4421100006112,安心院小学校,大分県宇佐市安心院町木裳115-1,1,,,33.435369,131.358269,
12,E4421100007111,深見地区公民館,大分県宇佐市安心院町矢畑25-1,1,,,33.394318,131.341364,
13,E4421100008112,深見小学校,大分県宇佐市安心院町矢畑40-2,1,,,33.393461,131.341067,
14,E4421100008111,深見小学校体育館,大分県宇佐市安心院町矢畑40-2,1,,,33.393927,131.341494,
15,E4421100009111,津房地区公民館,大分県宇佐市安心院町六郎丸666-2,1,,,33.392869,131.394046,
16,E4421100010111,羽馬礼分校,大分県宇佐市院内町羽馬礼212-1,1,,,33.352293,131.275393,
17,E4421100011111,南院内地区コミュニティーセンター,大分県宇佐市院内町下恵良672,1,,,33.38579516,131.2932694,
18,E4421100012112,南院内小学校,大分県宇佐市院内町下恵良687,1,,,33.384441,131.29176,
19,E4421100012111,南院内小学校体育館,大分県宇佐市院内町下恵良687,1,,,33.38462,131.291238,
20,E4421100013112,院内北部小学校,大分県宇佐市院内町櫛野646,1,,,33.461423,131.328777,
21,E4421100013111,院内北部小学校体育館,大分県宇佐市院内町櫛野646,1,,,33.461459,131.328242,
22,E4421100014111,院内地区コミュニティーセンター,大分県宇佐市院内町景平235,1,,,33.401136,131.299641,
23,E4421100015111,両川地区公民館,大分県宇佐市院内町香下207-2,1,,,33.478602,131.332176,
24,E4421100016111,山村開発センター（院内支所庁舎）,大分県宇佐市院内町山城39,1,,,33.42054,131.316765,
25,E4421100017111,院内中学校体育館,大分県宇佐市院内町山城54,1,,,33.41898482,131.3168799,
26,E4421100017112,院内中学校,大分県宇佐市院内町山城54,1,,,33.419708,131.316011,
27,E4421100018111,中部小学校体育館,大分県宇佐市院内町山城91,1,,,33.418152,131.316204,
28,E4421100018112,中部小学校,大分県宇佐市院内町山城91,1,,,33.418224,131.315812,
29,E4421100019111,高並地区多目的共同利用施設,大分県宇佐市院内町小稲22-1,1,,,33.439673,131.304785,
30,E4421100020111,高並体育館,大分県宇佐市院内町小稲24-1,1,,,33.44014671,131.3058837,
31,E4421100021111,老人憩いの家,大分県宇佐市院内町上余160,1,,,33.377126,131.307707,
32,E4421100022111,上院内分校,大分県宇佐市院内町定別当44,1,,,33.392239,131.252552,
33,E4421100082111,宇佐産業科学高等学校（体育館）,大分県宇佐市四日市292,,,,33.53661,131.324265,
34,E4421100023111,糸口山老人憩の家,大分県宇佐市大字猿渡1160-36,1,,,33.538496,131.302785,
35,E4421100025111,宇佐市立北部中学校体育館,大分県宇佐市大字下時枝369-1,1,,,33.560245,131.308376,
36,E4421100025112,宇佐市立北部中学校,大分県宇佐市大字下時枝369-1,1,,,33.559933,131.307697,
37,E4421100026111,下拝田地区コミュニティ消防センター,大分県宇佐市大字下拝田233-2,1,,,33.509018,131.332097,
38,E4421100027111,天津農村婦人の家,大分県宇佐市大字下敷田1103-2,1,,,33.556274,131.291033,
39,E4421100028111,天津小学校体育館,大分県宇佐市大字下敷田264-1,1,,,33.560993,131.289692,
40,E4421100028112,天津小学校,大分県宇佐市大字下敷田264-1,1,,,33.561387,131.289523,
41,E4421100029111,天津地区コミュニティ消防センター,大分県宇佐市大字下敷田76-1,1,,,33.560478,131.289364,
42,E4421100030111,封戸小学校体育館,大分県宇佐市大字刈宇田59,1,,,33.540682,131.420519,
43,E4421100030112,封戸小学校,大分県宇佐市大字刈宇田59,1,,,33.540722,131.419937,
44,E4421100031112,北馬城小学校,大分県宇佐市大字岩崎781,1,,,33.53083968,131.4038926,
45,E4421100031111,北馬城小学校体育館,大分県宇佐市大字岩崎781,1,,,33.531378,131.403849,
46,E4421100032111,宇佐中学校体育館,大分県宇佐市大字橋津434,1,,,33.533094,131.394946,
47,E4421100032112,宇佐中学校,大分県宇佐市大字橋津434,1,,,33.532905,131.395478,
48,E4421100033111,江須賀老人憩の家,大分県宇佐市大字江須賀1401-1,1,,,33.557343,131.36674,
49,E4421100034111,柳ヶ浦小学校体育館,大分県宇佐市大字江須賀2406,1,,,33.560671,131.364804,
50,E4421100034112,柳ヶ浦小学校,大分県宇佐市大字江須賀2406,1,,,33.560104,131.364681,
51,E4421100035112,駅川中学校,大分県宇佐市大字閤153,1,,,33.524459,131.338638,
52,E4421100035111,駅川中学校体育館,大分県宇佐市大字閤153,1,,,33.524882,131.338462,
53,E4421100036111,長峰地区活性化センター,大分県宇佐市大字佐野629,1,,,33.540003,131.274055,
54,E4421100037112,長峰小学校,大分県宇佐市大字佐野686-2,1,,,33.54025,131.275073,
55,E4421100037111,長峰小学校体育館,大分県宇佐市大字佐野686-2,1,,,33.539922,131.275041,
56,E4421100038111,山地区コミュニティ消防センター,大分県宇佐市大字山389-1,1,,,33.532474,131.416206,
57,E4421100039111,四日市コミュニティセンター,大分県宇佐市大字四日市111-2,1,,,33.533861,131.326874,
58,E4421100040111,四日市北小学校体育館,大分県宇佐市大字四日市1351-1,1,,,33.532586,131.326462,
59,E4421100040112,四日市北小学校,大分県宇佐市大字四日市1351-1,1,,,33.533075,131.326704,
60,E4421100041112,四日市南小学校,大分県宇佐市大字四日市1726,1,,,33.52665,131.327983,
61,E4421100041111,四日市南小学校体育館,大分県宇佐市大字四日市1726,1,,,33.527345,131.327818,
62,E4421100042111,西部中学校体育館・道場,大分県宇佐市大字四日市3315,1,,,33.528598,131.318757,
63,E4421100042112,西部中学校,大分県宇佐市大字四日市3315,1,,,33.529001,131.319349,
64,E4421100043111,出光地区コミュニティ消防センター,大分県宇佐市大字出光408-4,1,,,33.522861,131.410352,
65,E4421100044111,小向野地区コミュニティ消防センター,大分県宇佐市大字小向野367,1,,,33.51713,131.357899,
66,E4421100045111,和間小学校体育館,大分県宇佐市大字松崎1514,1,,,33.553761,131.398175,
67,E4421100045112,和間小学校,大分県宇佐市大字松崎1514,1,,,33.553732,131.397636,
68,E4421100046111,和間地区コミュニティ消防センター,大分県宇佐市大字松崎1795,1,,,33.559464,131.400359,
69,E4421100047112,八幡小学校,大分県宇佐市大字上乙女283-1,1,,,33.562902,131.332974,
70,E4421100047111,八幡小学校体育館,大分県宇佐市大字上乙女283-1,1,,,33.563006,131.332392,
71,E4421100048111,横山小学校体育館,大分県宇佐市大字上元重859-1,1,,,33.517969,131.299929,
72,E4421100048112,横山小学校,大分県宇佐市大字上元重859-1,1,,,33.517517,131.300028,
73,E4421100049112,糸口小学校,大分県宇佐市大字上時枝600-1,1,,,33.55364,131.307678,
74,E4421100049111,糸口小学校体育館,大分県宇佐市大字上時枝600-1,1,,,33.553423,131.307145,
75,E4421100050111,駅館小学校体育館,大分県宇佐市大字上田394-2,1,,,33.532196,131.347183,
76,E4421100050112,駅館小学校,大分県宇佐市大字上田394-2,1,,,33.531993,131.34673,
77,E4421100051111,上田老人憩の家,大分県宇佐市大字上田488,1,,,33.533776,131.346772,
78,E4421100052111,上拝田公民館,大分県宇佐市大字上拝田372,1,,,33.501798,131.325186,
79,E4421100053111,西馬城小学校体育館,大分県宇佐市大字上矢部1069,1,,,33.502058,131.371341,
80,E4421100053112,西馬城小学校,大分県宇佐市大字上矢部1069,1,,,33.501754,131.370762,
81,E4421100054111,上矢部公民館,大分県宇佐市大字上矢部1308-1,1,,,33.503496,131.368224,
82,E4421100055111,清水地区コミュニティ消防センター,大分県宇佐市大字清水153-5,1,,,33.546477,131.260744,
83,E4421100056111,上赤尾老人憩の家,大分県宇佐市大字赤尾2715,1,,,33.528338,131.281806,
84,E4421100076121,宇佐市総合運動場（武道場）,大分県宇佐市大字川部,,,個別避難計画作成済の要配慮者及び支援者等,33.538426,131.359593,
85,E4421100057111,宇佐市総合体育館,大分県宇佐市大字川部1571-1,1,,,33.536368,131.361174,
86,E4421100059112,豊川小学校,大分県宇佐市大字大塚542-2,1,,,33.515598,131.335901,
87,E4421100059111,豊川小学校体育館,大分県宇佐市大字大塚542-2,1,,,33.515566,131.335318,
88,E4421100060112,長洲中学校,大分県宇佐市大字長洲1527,1,,,33.567129,131.38069,
89,E4421100060111,長洲中学校体育館,大分県宇佐市大字長洲1527,1,,,33.567187,131.381476,
90,E4421100075111,長洲公民館複合施設,大分県宇佐市大字長洲2285-1,,,,33.570327,131.377135,暴風、洪水、がけ崩れ、土砂流及び滑り、高潮、地震、津波、火事、内水氾濫、対応施設
91,E4421100062111,東の東老人憩の家,大分県宇佐市大字長洲3135-2,1,,,33.574108,131.382474,
92,E4421100063111,長洲小学校体育館,大分県宇佐市大字長洲630,1,,,33.5696367,131.3755233,
93,E4421100063112,長洲小学校,大分県宇佐市大字長洲630,1,,,33.57001989,131.3757942,
94,E4421100064111,シルバーセンター平成館,大分県宇佐市大字長洲674,1,,,33.569485,131.376683,
95,E4421100065112,高家小学校,大分県宇佐市大字東高家288,1,,,33.571347,131.30985,
96,E4421100065111,高家小学校体育館,大分県宇佐市大字東高家288,1,,,33.571501,131.309276,
97,E4421100066111,宇佐小学校体育館,大分県宇佐市大字南宇佐2007,1,,,33.530478,131.371013,
98,E4421100066112,宇佐小学校,大分県宇佐市大字南宇佐2007,1,,,33.530799,131.371451,
99,E4421100067111,宇佐公民館,大分県宇佐市大字南宇佐2150-1,1,,,33.528641,131.370862,
100,E4421100068111,日足地区コミュニティ消防センター,大分県宇佐市大字日足747,1,,,33.522616,131.391238,
101,E4421100069111,畑田老人憩の家,大分県宇佐市大字畑田1337,1,,,33.543677,131.346455,
102,E4421100070111,尾永井地区コミュニティ消防センター,大分県宇佐市大字尾永井1022,1,,,33.572677,131.327618,
103,E4421100071111,駅川公民館,大分県宇佐市大字法鏡寺224,1,,,33.529089,131.348152,
104,E4421100072111,四日市公民館麻生分館（旧麻生小学校）,大分県宇佐市大字麻生5041,1,,,33.466352,131.269556,
105,E4421100073111,麻生地区活性化センター,大分県宇佐市大字麻生8-1,1,,,33.485058,131.275779,
106,E4420600002111,臼杵支援学校,大分県臼杵市大字井村911,1,,,33.142328,131.777347,
107,E4420600003111,下北小学校,大分県臼杵市大字稲田892,1,,,33.145104,131.790109,
108,E4420600004111,臼杵市中央公民館,大分県臼杵市大字臼杵2-107-562,1,,,33.123266,131.807496,
109,E4420600005111,社会福祉センター,大分県臼杵市大字臼杵4-1,1,,,33.12165,131.798483,
110,E4420600006111,臼杵小学校,大分県臼杵市大字臼杵65,1,,,33.124709,131.800189,
111,E4420600007111,東中学校,大分県臼杵市大字臼杵71-18,1,,,33.125321,131.802909,
112,E4420600008111,臼杵市民会館,大分県臼杵市大字臼杵72-83,1,,,33.125483,131.80638,
113,E4420600009111,臼杵市柔剣道場,大分県臼杵市大字臼杵81-95,1,,,33.124515,131.802442,
114,E4420600013111,臼杵高等学校,大分県臼杵市大字海添2521,1,,,33.117863,131.804969,
115,E4420600015111,臼杵市文化財管理センター,大分県臼杵市大字吉小野4296,1,,,33.109312,131.730537,
116,E4420600016111,市浜小学校,大分県臼杵市大字戸室503,1,,,33.118408,131.787184,
117,E4420600017111,西中学校,大分県臼杵市大字戸室535,1,,,33.1193864,131.785757,
118,E4420600018111,北中学校,大分県臼杵市大字江無田132-1,1,,,33.130531,131.790164,
119,E4420600021111,佐志生小学校,大分県臼杵市大字佐志生3015-1,1,,,33.177042,131.827601,
120,E4420600022111,上浦・深江地区コミュニティセンター,大分県臼杵市大字深江1509,1,,,33.12155299,131.8797016,
121,E4420600023111,海洋科学高等学校,大分県臼杵市大字諏訪254-1-2,1,,,33.135546,131.804835,
122,E4420600058112,諏訪山体育館,大分県臼杵市大字諏訪595-5,,,,33.132787,131.797373,
123,E4420600027111,市浜地区コミュニティセンター,大分県臼杵市大字前田1851-8,1,,,33.117441,131.780078,
124,E4420600028111,臼杵南小学校,大分県臼杵市大字掻懐1483,1,,,33.091472,131.757472,
125,E4420600029111,南中学校,大分県臼杵市大字掻懐2227-1,1,,,33.09706,131.749497,
126,E4420600031111,海辺小学校,大分県臼杵市大字大浜173,1,,,33.136764,131.80845,
127,E4420600032111,下ノ江小学校,大分県臼杵市大字大野1955,1,,,33.152453,131.80617,
128,E4420600033111,宮本地域体育館,大分県臼杵市大字東神野3402,1,,,33.03947018,131.7739776,
129,E4420600034111,中臼杵農村環境改善センター,大分県臼杵市大字武山1838,1,,,33.104091,131.730527,
130,E4420600035111,福良ヶ丘小学校,大分県臼杵市大字福良360-1,1,,,33.1147484,131.7943117,
131,E4420600036111,下南小学校,大分県臼杵市大字望月815,1,,,33.102842,131.772911,
132,E4420600037111,上北小学校,大分県臼杵市大字末広2487-2,1,,,33.139763,131.757102,
133,E4420600039111,田野地区公民館,大分県臼杵市野津町大字亀甲4010-2,1,,,33.046466,131.721203,
134,E4420600040111,旧田野小学校,大分県臼杵市野津町大字亀甲4014,1,,,33.046131,131.721112,
135,E4420600041111,南野津地区公民館,大分県臼杵市野津町大字吉田161,1,,,33.015548,131.665151,
136,E4420600043111,野津小学校,大分県臼杵市野津町大字山頭3100,1,,,33.045407,131.699531,
137,E4420600044111,川登小学校,大分県臼杵市野津町大字清水原1341,1,,,33.005674,131.717915,
138,E4420600045111,戸上ふれあい広場,大分県臼杵市野津町大字西寒田2989,1,,,33.064619,131.660103,
139,E4420600046111,西神野ふれ愛センター,大分県臼杵市野津町大字西神野1070,1,,,33.031848,131.76163,
140,E4420600047111,南野津小学校,大分県臼杵市野津町大字西畑600,1,,,33.012827,131.66721,
141,E4420600048111,都松地区ふれあいセンター,大分県臼杵市野津町大字都原1014,1,,,33.06671627,131.7119231,
142,E4420600049111,野津中央公民館,大分県臼杵市野津町大字野津市184,1,,,33.045051,131.693936,
143,E4420600050111,野津中学校,大分県臼杵市野津町大字野津市666,1,,,33.037686,131.687526,
144,E4421000006111,上村の郷,大分県杵築市山香町久木野尾3792-1,,,,33.423217100459,131.44207299764,
145,E4421000009112,市営向野体育館,大分県杵築市山香町向野2535-1,1,,,33.497892976461,131.43530214947,
146,E4421000014111,東山香地区コミュニティセンター,大分県杵築市山香町広瀬311-8,1,,,33.437561601916,131.52120776241,
147,E4421000020111,市営東山香体育館,大分県杵築市山香町広瀬512,1,,,33.441641550865,131.52153734537,
148,E4421000245111,向野地区コミュニティセンター,大分県杵築市山香町大字向野,,,,33.49792667668,131.4357766272,
149,E4421000236111,山浦地区コミュニティセンター,大分県杵築市山香町大字山浦2508,1,,,33.458048,131.441082,
150,E4421000236112,市営山浦体育館,大分県杵築市山香町大字山浦2508,1,,,33.458485992461,131.44102479068,
151,E4421000201111,山香中央公民館,大分県杵築市山香町大字野原1010-2,,,,33.446124,131.501569,
152,E4421000037111,山香小学校体育館,大分県杵築市山香町内河野2500-1,1,,,33.4501411,131.5007228,
153,E4421000042121,特別養護老人ホーム広寿苑,大分県杵築市山香町野原1662-1,1,原則として、事前の受入調整を行い、避難行動要支援者個別避難計画の作成を行った方を対象,高齢者,33.446274215732,131.50682281257,
154,E4421000050111,山香中学校体育館,大分県杵築市山香町野原700-5,1,,,33.443587822871,131.49717275451,
155,E4421000053111,市営立石体育館,大分県杵築市山香町立石2457,1,,,33.484087,131.47285,
156,E4421000054111,立石地区コミュニティーセンター,大分県杵築市山香町立石2464,1,,,33.484160220819,131.47220247372,
157,E4421000194111,勤労者体育センター,大分県杵築市大字杵築1-4,1,,,33.416828,131.624247,
158,E4421000195111,生涯学習館,大分県杵築市大字杵築126-1,,,,33.41552,131.622346,
159,E4421000066111,杵築小学校体育館,大分県杵築市大字杵築216,1,,,33.417748066269,131.62079007232,
160,E4421000071121,特別養護老人ホーム心助園,大分県杵築市大字熊野1427-1,1,原則として、事前の受入調整を行い、避難行動要支援者個別避難計画の作成を行った方を対象,高齢者,33.391068931867,131.63349434319,
161,E4421000079111,北杵築小学校体育館,大分県杵築市大字溝井454,1,,,33.440658856132,131.59412166489,
162,E4421000080111,北杵築地区コミュニティセンター,大分県杵築市大字溝井795-1,1,,,33.440863536059,131.58903291761,
163,E4421000083111,デンケン,大分県杵築市大字守江1300-1,1,,,33.420296,131.670284,
164,E4421000200111,奈狩江地区コミュニティセンター,大分県杵築市大字狩宿2113-1,,,,33.420002,131.686284,
165,E4421000244121,三楽園デイサービスセンター,大分県杵築市大字大内121-1,,原則として、事前の受入調整を行い、避難行動要支援者個別避難計画の作成を行った方を対象,高齢者,33.43914288763,131.64705368753,
166,E4421000196111,ＪＡいこいの村,大分県杵築市大字大内7707-2,,,,33.424197,131.631988,
167,E4421000123111,豊洋小学校体育館,大分県杵築市大字奈多231-1,1,,,33.428645430608,131.70539446593,
168,E4421000130111,宗近中学校体育館,大分県杵築市大字南杵築2063,1,,,33.4156437,131.6072502,
169,E4421000137112,杵築市隣保館,大分県杵築市大字南杵築338-1,1,,,33.415605466174,131.61377178653,
170,E4421000147121,特別養護老人ホーム菩提樹,大分県杵築市大字日野1921-15,1,原則として、事前の受入調整を行い、避難行動要支援者個別避難計画の作成を行った方を対象,高齢者,33.394073,131.596662,
171,E4421000161111,八坂地区コミュニティセンター,大分県杵築市大字八坂1941-1,1,,,33.411257140589,131.57752192456,
172,E4421000154111,八坂小学校体育館,大分県杵築市大字八坂2782-1,1,,,33.411587640773,131.58632390411,
173,E4421000158111,東小学校多目的ホール,大分県杵築市大字片野1129-2,1,,,33.403005566251,131.62988595983,
174,E4421000158112,東小学校体育館,大分県杵築市大字片野1129-2,1,,,33.403233,131.629883,
175,E4421000197111,東地区コミュニティセンター,大分県杵築市大字片野1150-227,,,,33.406117,131.634499,
176,E4421000198111,杵築市文化体育館,大分県杵築市大字本庄2005,,,,33.416971,131.601137,
177,E4421000189111,市営田原体育館,大分県杵築市大田沓掛10-1,1,,,33.5086196,131.5537916,
178,E4421000185111,杵築市役所大田庁舎,大分県杵築市大田石丸445-1,1,,,33.495553,131.557297,
179,E4446100001111,南山田地区体育館,大分県九重町大字引治1230,1,,,33.21715224,131.1734609,
180,E4446100002111,南山田ふれあい交流センター,大分県九重町大字引治1230-1,1,,,33.21736465,131.1739511,
181,E4446100003111,ここのえみつばこども園,大分県九重町大字引治508-1,1,,,33.230589,131.18008,
182,E4446100004111,隣保館,大分県九重町大字右田3088-2,1,,,33.253877,131.17433,
183,E4446100005111,野上ふれあい交流センター,大分県九重町大字右田740-15,,,,33.22688,131.207325,
184,E4446100008111,東飯田小学校,大分県九重町大字恵良938,1,,,33.258395,131.179387,
185,E4446100009111,東飯田地区体育館,大分県九重町大字恵良941,1,,,33.258944,131.180718,
186,E4446100010111,東飯田ふれあい交流センター,大分県九重町大字恵良945-1,1,,,33.258598,131.180968,
187,E4446100011111,保健福祉センター,大分県九重町大字後野上17-1,1,,,33.227688,131.190738,
188,E4446100012111,ここのえ緑陽中学校小体育館,大分県九重町大字後野上17-3,1,,,33.227692,131.191913,
189,E4446100013111,九重文化センター,大分県九重町大字後野上17-4,1,,,33.22776,131.188796,
190,E4446100014111,九重町役場,大分県九重町大字後野上8-1,1,,,33.228532,131.188805,
191,E4446100015111,淮園小学校,大分県九重町大字菅原1274,1,,,33.194044,131.15926,
192,E4446100016111,南山田小学校,大分県九重町大字町田609,1,,,33.219951,131.173046,
193,E4446100017111,飯田小学校,大分県九重町大字田野1617,1,,,33.159479,131.221709,
194,E4446100018111,飯田ふれあい交流センター,大分県九重町大字田野1624-123,1,,,33.158268,131.220218,
195,E4446100019111,飯田地区体育館,大分県九重町大字田野1624-26,1,,,33.15721432,131.2207442,
196,E4446100020111,ここのえ飯田こども園,大分県九重町大字田野1624-9,1,,,33.15699756,131.2209647,
197,E4446100021111,泉水コミュニティーセンター,大分県九重町大字田野204-1,1,,,33.130546,131.205251,
198,E4446100022111,野上地区体育館,大分県九重町大字野上1322-1,1,,,33.228218,131.212025,
199,E4446100023111,野上小学校,大分県九重町大字野上17-1,1,,,33.225313,131.20219,
200,E4446100024111,野矢小学校,大分県九重町大字野上3460,1,,,33.239186,131.262495,
201,E4446200002111,くすまちメルサンホール,大分県玖珠町大字岩室24-1,1,,,33.282108,131.160073,
202,E4446200003111,古後小学校,大分県玖珠町大字古後1611-1,1,,,33.365857040468,131.09361985772,
203,E4446200004111,北山田小学校,大分県玖珠町大字戸畑2861,1,,,33.284643197134,131.09519960632,
204,E4446200005111,北山田自治会館,大分県玖珠町大字戸畑6520-7,1,,,33.280794,131.098569,
205,E4446200006111,旧春日小学校,大分県玖珠町大字山浦2196,1,,,33.236703,131.090783,
206,E4446200015111,わらべの館,大分県玖珠町大字森868-2,1,,,33.302757518501,131.15878001447,
207,E4446200016111,八幡小学校,大分県玖珠町大字太田1462,1,,,33.312196,131.138663,
208,E4446200017111,塚脇小学校,大分県玖珠町大字塚脇198,1,,,33.27452001563,131.15027400417,
209,E4446200019111,玖珠自治会館,大分県玖珠町大字塚脇462-1,1,,,33.275548871526,131.15407214197,
210,E4446200020111,日出生南部地区　コミュニティセンター,大分県玖珠町大字日出生1666-145,1,,,33.326317,131.282848,
211,E4446200022111,日出生北部地区コミュニティセンター,大分県玖珠町大字日出生1926-5,1,,,33.342168,131.25341,
212,E4421400011111,安岐小学校体育館,大分県国東市安岐町下原2072,1,,,33.466788730552,131.72038313737,
213,E4421400019111,安岐体育館,大分県国東市安岐町下原750,1,,,33.47270140476,131.7300720211,
214,E4421400020111,安岐児童館,大分県国東市安岐町下山口266,,,,33.461043634968,131.69178032454,
215,E4421400022111,南安岐地区公民館,大分県国東市安岐町下山口539,1,,,33.457357197599,131.68539749515,
216,E4421400036111,安岐中央公民館体育室,大分県国東市安岐町瀬戸田1300,1,,,33.472531625803,131.68023066711,
217,E4421400047111,市役所安岐総合支所,大分県国東市安岐町中園100,1,,,33.466463342329,131.69270462245,
218,E4421400289111,安岐中央公民館ホール,大分県国東市安岐町中園119,,,,33.466496,131.692663,
219,E4421400048111,安岐中央小学校体育館,大分県国東市安岐町中園2071,,,,33.463644044371,131.69456857253,
220,E4421400049111,安岐中学校体育館,大分県国東市安岐町中園408,,,,33.465092678493,131.69470635047,
221,E4421400050111,旧朝来小学校体育館,大分県国東市安岐町朝来144,,,,33.511138312812,131.61531263314,
222,E4421400052111,朝来地区公民館（旧あさぎりの郷）,大分県国東市安岐町朝来31636,,,,33.508638491123,131.61678918321,
223,E4421400059111,西武蔵地区公民館（旧梅園の里コミュニティセンター）,大分県国東市安岐町富清2,,,,33.522829320491,131.62939979987,
224,E4421400079111,生涯学習センターみんなんかん,大分県国東市国見町伊美2305-1,1,,,33.678275,131.594237,
225,E4421400087111,国見Ｂ＆Ｇ海洋センター,大分県国東市国見町伊美3884,1,,,33.67932499398,131.60444508401,
226,E4421400117111,熊毛地区公民館（旧熊毛改善センター）,大分県国東市国見町小熊毛101,1,,,33.658492,131.647031,
227,E4421400121111,旧熊毛小学校体育館,大分県国東市国見町小熊毛62-2,1,,,33.659967,131.648478,
228,E4421400125111,湯の里「渓泉」,大分県国東市国見町赤根180,1,,,33.606542,131.585737,
229,E4421400139111,竹田津地区公民館（旧竹田津改善センター）,大分県国東市国見町竹田津3601-1,1,,,33.669895,131.564538,
230,E4421400145111,国見小学校体育館,大分県国東市国見町中850,1,,,33.66799,131.589979,
231,E4421400150111,国東小学校体育館,大分県国東市国東町安国寺6232,,,,33.562212,131.72914,
232,E4421400153111,旧豊崎小学校体育館,大分県国東市国東町横手473,,,,33.574669,131.67504,
233,E4421400157111,上国崎地区公民館,大分県国東市国東町見地1253-1,1,,,33.591135675638,131.6669474345,
234,E4421400161111,旭日地区公民館,大分県国東市国東町綱井1025,1,,,33.528774,131.726715,
235,E4421400163111,旭日小学校体育館,大分県国東市国東町綱井2980,1,,,33.52912,131.722273,
236,E4421400168111,小原小学校体育館,大分県国東市国東町小原1468,,,,33.549883,131.722303,
237,E4421400183111,旧大恩小学校体育館,大分県国東市国東町大恩寺322,,,,33.604284529862,131.67095647997,
238,E4421400188111,アストくにさき（アグリホール）,大分県国東市国東町鶴川160-2,1,,,33.563106,131.731718,
239,E4421400189111,国東高等学校体育館,大分県国東市国東町鶴川1974,1,,,33.556913,131.733126,
240,E4421400192111,国東中学校体育館,大分県国東市国東町田深1422,1,,,33.576053,131.72925,
241,E4421400199111,来浦活性化センター,大分県国東市国東町浜1542,1,,,33.628391760478,131.66224639573,
242,E4421400210111,国東体育館,大分県国東市国東町浜崎2513,,,,33.591625741264,131.72032413309,
243,E4421400218111,富来地区公民館,大分県国東市国東町富来浦192,1,,,33.6036465,131.7075194,
244,E4421400220111,富来小学校体育館,大分県国東市国東町富来浦677-4,1,,,33.608176881197,131.7013824604,
245,E4421400229111,旧来浦中学校体育館,大分県国東市国東町来浦3438,,,,33.631329227196,131.65452827194,
246,E4421400230111,丸小野上公民館,大分県国東市武蔵町丸小野1408-3,1,,,33.546696,131.644548,
247,E4421400231111,丸小野下公民館,大分県国東市武蔵町丸小野1992-1,1,,,33.540088,131.658893,
248,E4421400236111,武蔵保健福祉センター,大分県国東市武蔵町古市1086-1,1,,,33.502493,131.720106,
249,E4421400237111,武蔵中央公民館,大分県国東市武蔵町古市1107-1,1,,,33.50147,131.720079,
250,E4421400248111,糸原第２公民館,大分県国東市武蔵町糸原1430,1,,,33.494626,131.722134,
251,E4421400256111,糸原第１公民館,大分県国東市武蔵町糸原430,1,,,33.494823,131.72068,
252,E4421400259111,小城公民館,大分県国東市武蔵町小城317-1,1,,,33.485669,131.710445,
253,E4421400261111,志成学園体育館,大分県国東市武蔵町成吉810,1,,,33.506646,131.709603,
254,E4421400266111,武蔵Ｂ＆Ｇ海洋センター,大分県国東市武蔵町内田2420,1,,,33.506562778766,131.7176577555,
255,E4421400270111,旧武蔵西小学校体育館,大分県国東市武蔵町麻田50,,,,33.522699847524,131.68428891679,
256,E4420500001111,新女島区民会館,大分県佐伯市10468-75,1,,,32.954716,131.908505,
257,E4420500002111,旧灘小学校体育館,大分県佐伯市9731,,,,32.947368,131.923187,
258,E4420500004111,花木公民館,大分県佐伯市宇目大字塩見園1752-1,1,,,32.856541,131.693287,
259,E4420500005111,上爪生活改善センター,大分県佐伯市宇目大字塩見園2163,1,,,32.859686,131.695706,
260,E4420500008111,小野公民館,大分県佐伯市宇目大字重岡1601-1,1,,,32.826677,131.656911,
261,E4420500013111,釘戸公民館,大分県佐伯市宇目大字小野市2144-2,1,,,32.864392,131.633509,
262,E4420500014111,小野市集会センター,大分県佐伯市宇目大字小野市2867-1,1,,,32.856297,131.630751,
263,E4420500015111,ふれあいセンター宇目,大分県佐伯市宇目大字小野市3374-1,1,,,32.852453,131.629169,
264,E4420500016111,楢野木公民館,大分県佐伯市宇目大字小野市3425,1,,,32.854112,131.630295,
265,E4420500017111,中津留公民館,大分県佐伯市宇目大字小野市4004-2,1,,,32.849578,131.630169,
266,E4420500019111,岩崎集会センター,大分県佐伯市宇目大字千束2077,1,,,32.854673,131.680455,
267,E4420500221111,宇目緑豊小学校（体育館）,大分県佐伯市宇目大字千束2241,1,,,32.857253,131.673683,
268,E4420500020111,柿木公民館,大分県佐伯市宇目大字千束2899,1,,,32.858469,131.682443,
269,E4420500021111,河尻集会センター,大分県佐伯市宇目大字千束726-1,1,,,32.848999,131.650326,
270,E4420500022111,大原公民館,大分県佐伯市宇目大字大平1666,1,,,32.845862,131.718505,
271,E4420500023111,田原公民館,大分県佐伯市宇目大字南田原212-1,1,,,32.84239,131.613534,
272,E4420500025111,駅前区民会館,大分県佐伯市駅前2-1-18,1,,,32.972849,131.904846,
273,E4420500028111,佐伯東地区公民館２階集会室,大分県佐伯市蟹田7-10,1,,,32.967675,131.903987,
274,E4420500029111,葛港公民館,大分県佐伯市葛港3-15,1,,,32.977095,131.903388,
275,E4420500030111,深島集会所,大分県佐伯市蒲江大字蒲江浦3249-38,1,,,32.722761,131.928313,
276,E4420500031111,旧蒲江翔南小学校深島分校,大分県佐伯市蒲江大字蒲江浦3276-3,1,,,32.726137,131.926939,
277,E4420500034111,蒲江地域コミュニティセンター,大分県佐伯市蒲江大字蒲江浦4491-59,1,,,32.800992,131.92183,
278,E4420500035111,旧名護屋小学校,大分県佐伯市蒲江大字丸市尾浦496-2,1,,,32.792407,131.876396,
279,E4420500040111,元猿集会所,大分県佐伯市蒲江大字竹野浦河内1853,1,,,32.803635,131.966583,
280,E4420500041112,たかひら展望公園,大分県佐伯市蒲江大字竹野浦河内2156-172,1,,,32.810371,131.967543,
281,E4420500042111,高山集会所,大分県佐伯市蒲江大字竹野浦河内2320-97,1,,,32.808838,131.951905,
282,E4420500220112,蒲江コミュニティセンター河内分館,大分県佐伯市蒲江大字竹野浦河内2331,1,,,32.81872,131.963336,
283,E4420500047111,旧波当津小学校,大分県佐伯市蒲江大字波当津浦928,1,,,32.7499,131.8689,
284,E4420500048111,蒲江Ｂ＆Ｇ海洋センター,大分県佐伯市蒲江大字畑野浦2524-11,1,,,32.856869,131.951712,
285,E4420500049111,蒲江コミュニティセンター上入津分館,大分県佐伯市蒲江大字畑野浦2524-8,1,,,32.856302,131.951294,
286,E4420500050111,野々河内集会所,大分県佐伯市蒲江大字野々河内浦1332,1,,,32.813901,131.896027,
287,E4420500052111,向島地区老人の家,大分県佐伯市向島2-4-11,1,,,32.955406,131.897044,
288,E4420500054111,蒲戸地区公民館,大分県佐伯市上浦大字最勝海浦1557,1,,,33.056499,131.993611,
289,E4420500055111,長田公民館,大分県佐伯市上浦大字最勝海浦3740,1,,,33.051596,131.956277,
290,E4420500057111,上浦地域コミュニティセンター（２階のみ）,大分県佐伯市上浦大字浅海井浦144-5,,,,33.045231,131.923021,
291,E4420500058112,東雲中学校体育館,大分県佐伯市上浦大字浅海井浦2,1,,,33.045248,131.92566,
292,E4420500059111,東雲小学校体育館,大分県佐伯市上浦大字浅海井浦3,1,,,33.045966,131.924861,
293,E4420500060111,浪太公民館,大分県佐伯市上浦大字浅海井浦3569-2,1,,,33.029321,131.919464,
294,E4420500061111,浅海井公民館,大分県佐伯市上浦大字浅海井浦457-2,1,,,33.04294,131.92014,
295,E4420500062112,佐伯市上浦地域福祉センター,大分県佐伯市上浦大字浅海井浦489-10,1,,,33.041596,131.92039,
296,E4420500064111,佐伯市上浦活性化センター,大分県佐伯市上浦大字津井浦1460-12,1,,,33.051587,131.928235,
297,E4420500065111,津井地区公民館,大分県佐伯市上浦大字津井浦1460-6,1,,,33.052821,131.929737,
298,E4420500066111,佐伯鶴城高等学校多目的競技場,大分県佐伯市城下東町7-1,1,,,32.962465,131.895568,
299,E4420500066112,佐伯鶴城高等学校体育館,大分県佐伯市城下東町7-1,1,,,32.961461,131.894903,
300,E4420500068111,佐伯城南中学校校舎３棟,大分県佐伯市城南町17-1,1,,,32.954898,131.888564,
301,E4420500068112,佐伯城南中学校体育館ミーティングルーム,大分県佐伯市城南町17-1,1,,,32.954444,131.889576,
302,E4420500069111,城南町公民館,大分県佐伯市城南町18-35,1,,,32.95357,131.889036,
303,E4420500074111,常盤公民館,大分県佐伯市常盤南町7-19,1,,,32.964206,131.901052,
304,E4420500075111,片山公民館,大分県佐伯市大字海崎1021-1,1,,,32.988143,131.887697,
305,E4420500077111,海崎駅前地区公民館,大分県佐伯市大字海崎3526-4,1,,,32.996465,131.888223,
306,E4420500078111,大入島地域コミュニティセンター,大分県佐伯市大字久保浦1059-13,1,,,32.998128,131.92301,
307,E4420500080111,波越公民館,大分県佐伯市大字堅田5101-1,,,,32.916652,131.882506,
308,E4420500081111,下堅田小学校校舎,大分県佐伯市大字堅田5521,1,,,32.925115,131.875783,
309,E4420500081112,下堅田小学校体育館,大分県佐伯市大字堅田5521,1,,,32.924978,131.87634,
310,E4420500082111,下堅田地区コミュニティセンター,大分県佐伯市大字堅田5975-1,,,,32.926047,131.875463,
311,E4420500083111,年の神公民館,大分県佐伯市大字戸穴1525,1,,,33.003285,131.890487,
312,E4420500084111,折戸区公民館,大分県佐伯市大字戸穴184-8,1,,,33.002185,131.891901,
313,E4420500085111,中の内公民館,大分県佐伯市大字戸穴2009-2,1,,,33.008944,131.889003,
314,E4420500086111,新越公民館,大分県佐伯市大字戸穴2062-1,1,,,33.008169,131.892712,
315,E4420500087111,宇戸区公民館,大分県佐伯市大字戸穴2155-1,1,,,33.011743,131.891014,
316,E4420500088111,大宮公民館,大分県佐伯市大字戸穴249-4,1,,,32.997982,131.89368,
317,E4420500089111,八幡地域コミュニティセンター,大分県佐伯市大字戸穴646,1,,,33.000611,131.889099,
318,E4420500092111,宮の内公民館,大分県佐伯市大字護江588-11,1,,,33.010265,131.900885,
319,E4420500093111,風無区公民館,大分県佐伯市大字護江912-6,1,,,33.016511,131.90866,
320,E4420500095111,西上浦地域コミュニティセンター,大分県佐伯市大字狩生1557-3,1,,,33.013801,131.90446,
321,E4420500096111,車区公民館,大分県佐伯市大字狩生2039-2,1,,,33.017343,131.905187,
322,E4420500098111,狩生区公民館,大分県佐伯市大字狩生465-1,1,,,33.017206,131.901408,
323,E4420500099111,城西区集会所,大分県佐伯市大字上岡2169-1,,,,32.96583,131.859459,
324,E4420500101111,上野小学校体育館,大分県佐伯市大字上小倉456,1,,,32.970454,131.834521,
325,E4420500102111,谷川地区林業集会センター,大分県佐伯市大字青山2212,1,,,32.879601,131.87988,
326,E4420500104111,黒沢生活改善センター,大分県佐伯市大字青山4740-1,1,,,32.86704,131.862725,
327,E4420500105111,青山地域コミュニティセンター,大分県佐伯市大字青山5463-1,1,,,32.883408,131.871912,
328,E4420500106111,蛇崎公民館,大分県佐伯市大字池田1943-2,1,,,32.946558,131.900361,
329,E4420500107112,佐伯市総合体育館,大分県佐伯市大字長谷2614,1,,,32.926431,131.866995,
330,E4420500107111,佐伯市総合運動公園弓道場,大分県佐伯市大字長谷2614,1,,,32.927581,131.867223,
331,E4420500108111,グリーンピア大越,大分県佐伯市大字長谷484,1,,,32.890989,131.83464,
332,E4420500109111,上堅田小学校管理教室棟,大分県佐伯市大字長谷9118,,,,32.937667,131.881366,
333,E4420500110111,上堅田地域コミュニティセンター,大分県佐伯市大字長谷9682-11,1,,,32.938152,131.881921,
334,E4420500111112,佐伯南中学校体育館,大分県佐伯市大字長谷9914-1,,,,32.93627,131.887117,
335,E4420500111111,佐伯南中学校校舎,大分県佐伯市大字長谷9914-1,,,,32.93627,131.887117,
336,E4420500112111,津志河内公民館,大分県佐伯市大字長良3808-3,1,,,32.930298,131.902928,
337,E4420500115111,宇山区公民館,大分県佐伯市大字長良745,,,,32.929298,131.875299,
338,E4420500120111,西の平生活改善センター,大分県佐伯市大字木立1390-3,1,,,32.919514,131.926105,
339,E4420500121111,桟敷中区センター,大分県佐伯市大字木立1547-1,1,,,32.916834,131.926599,
340,E4420500125112,木立小学校体育館,大分県佐伯市大字木立4480,1,,,32.920117,131.931625,
341,E4420500125111,木立小学校校舎,大分県佐伯市大字木立4480,1,,,32.920117,131.931625,
342,E4420500126111,木立地域コミュニティセンター,大分県佐伯市大字木立890,1,,,32.923992,131.929242,
343,E4420500127111,内町クラブ,大分県佐伯市大手町2-1-31,1,,,32.956506,131.895578,
344,E4420500138111,中村クラブ,大分県佐伯市中村北町1496-3,1,,,32.961386,131.898856,
345,E4420500139111,鶴谷中学校校舎,大分県佐伯市長島町1-1-1,1,,,32.962224,131.904406,
346,E4420500139112,鶴谷中学校体育館,大分県佐伯市長島町1-1-1,1,,,32.962224,131.904406,
347,E4420500141111,渡町台小学校校舎,大分県佐伯市長島町3-16-1,1,,,32.958451,131.908441,
348,E4420500141112,渡町台小学校体育館,大分県佐伯市長島町3-16-1,1,,,32.958445,131.908554,
349,E4420500142111,長島区公民館,大分県佐伯市長島町3-7-30,1,,,32.95862,131.90711,
350,E4420500143111,直川地域コミュニティセンター横川分館,大分県佐伯市直川大字横川1076-3,1,,,32.885493,131.738686,
351,E4420500145111,直川地域コミュニティセンター下直見分館,大分県佐伯市直川大字下直見4383,1,,,32.919683,131.800806,
352,E4420500146111,竹の下老人憩の家,大分県佐伯市直川大字上直見1392-2,1,,,32.899374,131.787459,
353,E4420500148111,中津留老人憩の家,大分県佐伯市直川大字上直見３２０３－１先,1,,,32.903603,131.791756,
354,E4420500149111,直川地域コミュニティセンター仁田原分館,大分県佐伯市直川大字仁田原1158,1,,,32.879542,131.758687,
355,E4420500153111,直川憩の森公園,大分県佐伯市直川大字赤木1253,1,,,32.870861,131.784027,
356,E4420500154112,直川地域コミュニティセンター,大分県佐伯市直川大字赤木74-1,1,,,32.89634,131.779437,
357,E4420500154111,直川体育館,大分県佐伯市直川大字赤木74-1,1,,,32.896032,131.779225,
358,E4420500155111,つるおか子どもの家,大分県佐伯市鶴岡西町1-104,,,,32.961088,131.87186,
359,E4420500157111,脇区公民館,大分県佐伯市鶴岡西町1-303,,,,32.962921,131.869219,
360,E4420500161111,大東区集会所,大分県佐伯市鶴岡町3-10-13,,,,32.959342,131.879093,
361,E4420500162111,鶴岡小学校校舎,大分県佐伯市鶴岡町3-7-1,1,,,32.960603,131.874984,
362,E4420500162112,鶴岡小学校体育館,大分県佐伯市鶴岡町3-7-1,1,,,32.960665,131.874333,
363,E4420500164111,鶴見中学校,大分県佐伯市鶴見大字沖松浦448,,,,32.941898510866,131.965397750127,
364,E4420500166111,鶴見地域コミュニティセンター吹分館,大分県佐伯市鶴見大字吹浦519-3,1,,,32.951433,131.941155,
365,E4420500170111,ホテル清風荘,大分県佐伯市日の出町2-1,,,,32.974253,131.903374,
366,E4420500171111,日の出クラブ,大分県佐伯市日の出町5-10,1,,,32.974974,131.904757,
367,E4420500173111,米水津地域コミュニティセンター,大分県佐伯市米水津大字浦代浦1239-2,1,,,32.920725,131.975882,
368,E4420500174111,海辺の村活性化センター,大分県佐伯市米水津大字浦代浦1860-1,1,,,32.923355,131.977271,
369,E4420500175111,宮野浦採石場跡地,大分県佐伯市米水津大字宮野浦1768-21,1,,,32.887773,131.991275,
370,E4420500177111,井ノ上公民館,大分県佐伯市本匠大字井ノ上378-1,1,,,32.944721,131.733979,
371,E4420500182111,小半公民館,大分県佐伯市本匠大字小半1310-1,1,,,32.948133,131.753226,
372,E4420500184111,本匠地域コミュニティセンター西分館,大分県佐伯市本匠大字堂ノ間1066,1,,,32.928355,131.71265,
373,E4420500185111,堂ノ間地区ふれあいセンター,大分県佐伯市本匠大字堂ノ間309-1,1,,,32.930973,131.711912,
374,E4420500186111,波寄生活改善センター,大分県佐伯市本匠大字波寄2354-10,1,,,32.945385,131.785657,
375,E4420500188111,渡町台地域コミュニティセンター,大分県佐伯市野岡町2-12-14,1,,,32.967839,131.909726,
376,E4420500189111,石丸第３区公民館,大分県佐伯市弥生大字井崎1535-1,,,,32.975274,131.843504,
377,E4420500190111,石丸第２区公民館,大分県佐伯市弥生大字井崎1579-5,1,,,32.977222,131.845387,
378,E4420500191111,石丸第１区公民館,大分県佐伯市弥生大字井崎1792-3,1,,,32.977958,131.848002,
379,E4420500192111,木ノ瀬住宅集会施設,大分県佐伯市弥生大字井崎1798-13,1,,,32.978671,131.847844,
380,E4420500193111,昭和中学校校舎・体育館,大分県佐伯市弥生大字井崎781,1,,,32.96934,131.842303,
381,E4420500194111,久保公民館,大分県佐伯市弥生大字江良1048-2,1,,,32.938911,131.827692,
382,E4420500196111,上切畑地区体育館,大分県佐伯市弥生大字江良1379-1,,,,32.939156,131.830949,
383,E4420500197111,祇園公民館,大分県佐伯市弥生大字江良2005,1,,,32.942146,131.831799,
384,E4420500198111,細田公民館,大分県佐伯市弥生大字細田1158-3,1,,,32.958491,131.829892,
385,E4420500199111,山梨子研修施設,大分県佐伯市弥生大字山梨子1292,1,,,32.97042,131.826579,
386,E4420500200111,宇藤木地区集会施設,大分県佐伯市弥生大字尺間2120-1,1,,,33.00831,131.794257,
387,E4420500201111,尺間地区体育館,大分県佐伯市弥生大字尺間538,1,,,32.987817,131.829516,
388,E4420500202111,尺間第１集会施設,大分県佐伯市弥生大字尺間636-1,1,,,32.989671,131.827239,
389,E4420500204111,床木２地区活動促進施設,大分県佐伯市弥生大字床木2681-1,1,,,33.003369,131.8613,
390,E4420500205111,床木第４生活改善センター,大分県佐伯市弥生大字床木293-2,1,,,32.987493,131.861325,
391,E4420500206111,弥生地域コミュニティセンター,大分県佐伯市弥生大字上小倉1157-2,1,,,32.967443,131.839937,
392,E4420500208111,弥生老人デイサービスセンター,大分県佐伯市弥生大字上小倉1208,1,,,32.969241,131.840733,
393,E4420500209111,弥生児童館,大分県佐伯市弥生大字上小倉1211,1,,,32.968809,131.84091,
394,E4420500209112,武道場（弥生スポーツ公園）,大分県佐伯市弥生大字上小倉1211,1,,,32.968998,131.84113,
395,E4420500211111,道の駅やよい,大分県佐伯市弥生大字上小倉898-1,1,,,32.964994,131.838738,
396,E4420500212111,明治小学校校舎,大分県佐伯市弥生大字大坂本1135,1,,,32.981849,131.84951,
397,E4420500212112,明治小学校体育館,大分県佐伯市弥生大字大坂本1135,1,,,32.981875,131.849016,
398,E4420500213111,竹峯切水高齢者活動促進センター,大分県佐伯市弥生大字大坂本598-1,1,,,32.981063,131.853557,
399,E4420500214111,大坂本地区避難施設,大分県佐伯市弥生大字大坂本993-2,1,,,32.97936,131.849713,
400,E4420500215112,切畑小学校体育館,大分県佐伯市弥生大字門田1328,1,,,32.9531985040914,131.838361530457,
401,E4420500215111,切畑小学校校舎,大分県佐伯市弥生大字門田1328,1,,,32.953357,131.837949,
402,E4420400051112,旧出野小学校,大分県前津江町柚木2224,,,,33.22006801,130.8838694,
403,E4420100001111,西の台小学校,大分県大分市にじが丘3-1717-1,1,,,33.228329,131.584797,
404,E4420100130111,ひばりケ丘公民館,大分県大分市ひばりケ丘2-6-1,1,,,33.1717486748923,131.639459760436,
405,E4420100003111,城南小学校,大分県大分市永興2-5-25,1,,,33.215625,131.586701,
406,E4420100004111,大在小学校,大分県大分市横田1-15-58,1,,,33.248385,131.719578,
407,E4420100005111,大東中学校,大分県大分市横尾東町1-23-1,1,,,33.209869,131.675142,
408,E4420100006111,大分西部公民館,大分県大分市王子新町5-1,1,,,33.237214,131.589936,
409,E4420100007111,生石保育所,大分県大分市王子西町8-11,1,,,33.243172,131.588048,
410,E4420100008111,下郡小学校,大分県大分市下郡北3-17-23,1,,,33.228899,131.634091,
411,E4420100133111,大分中央公民館市民体育館,大分県大分市荷揚町3-45,1,,,33.2403786100008,131.607940399998,
412,E4420100010111,大在西小学校,大分県大分市角子原1-4-41,1,,,33.247474,131.70812,
413,E4420100011111,金池小学校,大分県大分市金池町3-1-90,1,,,33.233965,131.613352,
414,E4420100012111,Ｊ：ＣＯＭ　ホルトホール大分,大分県大分市金池南町1-5-1,1,,,33.23053,131.605997,
415,E4420100013111,大分西中学校,大分県大分市高崎2-20-1,1,,,33.235506,131.578628,
416,E4420100014111,坂ノ市公民館,大分県大分市坂ノ市西1-10-6,1,,,33.2282870766519,131.747363097089,
417,E4420100015111,坂ノ市小学校,大分県大分市坂ノ市中央5-8-1,1,,,33.23322,131.757038,
418,E4420100016111,坂ノ市中学校,大分県大分市坂ノ市南2-9-72,1,,,33.229164,131.75111,
419,E4420100017111,三佐小学校,大分県大分市三佐5-6-8,1,,,33.252887,131.680294,
420,E4420100018111,桃園小学校,大分県大分市山津町2-7-1,1,,,33.241907,131.669152,
421,E4420100019111,原川中学校,大分県大分市寺崎町1-10-1,1,,,33.247196,131.664035,
422,E4420100128111,小佐井小学校,大分県大分市小佐井3-1-18,1,,,33.22386693,131.7468124,
423,E4420100020111,小中島公民館,大分県大分市小中島3-1-37,1,,,33.2472522401927,131.696685977239,
424,E4420100021111,宗方小学校,大分県大分市松が丘1-24-1,1,,,33.205576,131.576825,
425,E4420100033111,豊府小学校,大分県大分市上田町3-4-1,1,,,33.2169010143015,131.603941512748,
426,E4420100131111,大分上野丘高等学校,大分県大分市上野丘2-10-1,1,,,33.22155439,131.6119921,
427,E4420100023111,上野ヶ丘中学校,大分県大分市上野町4-5,1,,,33.228724,131.612649,
428,E4420100024111,大分西高等学校,大分県大分市新春日町2-1-1,1,,,33.23350211,131.590702,
429,E4420100129111,浜町保育所,大分県大分市新川西2-3-1,1,,,33.2482074,131.6055533,
430,E4420100026111,大在公民館,大分県大分市政所1-4-18,1,,,33.246694,131.723832,
431,E4420100027111,春日町小学校,大分県大分市西春日町1-48,1,,,33.24022,131.596743,
432,E4420100028111,舞鶴小学校,大分県大分市西浜2-1,1,,,33.246896,131.626403,
433,E4420100029111,碩田学園,大分県大分市碩田町2-5-60,1,,,33.24806,131.612231,
434,E4420100132111,大在東小学校,大分県大分市大在浜2-18-1,1,,,33.2410213312335,131.734748550172,
435,E4420100031111,（旧）一尺屋小学校,大分県大分市大字一尺屋2368-1,1,,,33.2008331944082,131.858095310771,
436,E4420100032111,田ノ浦生活改善センター,大分県大分市大字一尺屋799-4,,,,33.2130850046638,131.865453640582,
437,E4420100034111,滝尾小学校,大分県大分市大字羽田515-1,1,,,33.2139533522857,131.632738391619,
438,E4420100035111,滝尾校区公民館,大分県大分市大字羽田589-1,1,,,33.2167857705644,131.628636115403,
439,E4420100036111,城南中学校,大分県大分市大字荏隈754-19,1,,,33.213087,131.579518,
440,E4420100037111,鴛野小学校,大分県大分市大字鴛野108-1,1,,,33.183948,131.618743,
441,E4420100038111,横瀬小学校,大分県大分市大字横瀬1109-1,1,,,33.185918,131.541587,
442,E4420100039111,横瀬西小学校,大分県大分市大字横瀬2469,1,,,33.190394,131.532086,
443,E4420100041111,下宗方公民館,大分県大分市大字下宗方1295-1,1,,,33.199031,131.589046,
444,E4420100042111,高田小学校,大分県大分市大字下徳丸38-2,1,,,33.211011,131.68987,
445,E4420100043111,家島公民館,大分県大分市大字家島986,,,,33.257807274388,131.695328612692,
446,E4420100044111,河原内くすのきホール,大分県大分市大字河原内3863-2,,,,33.116174846082,131.597720788207,
447,E4420100045111,賀来中学校,大分県大分市大字賀来101-3,1,,,33.20655,131.559879,利用停止中（令和10年3月末頃まで）
448,E4420100046111,胡麻鶴公民館,大分県大分市大字廻栖野614-2,,,,33.175605,131.550974,
449,E4420100047111,鶴崎中学校,大分県大分市大字皆春1200-1,1,,,33.236722,131.686772,
450,E4420100048111,稙田東中学校,大分県大分市大字寒田1369-1,1,,,33.179979,131.611871,
451,E4420100049111,寒田小学校,大分県大分市大字寒田684-4,1,,,33.184136,131.604635,
452,E4420100050111,久土公民館,大分県大分市大字久土975-1,1,,,33.214391,131.731396,
453,E4420100051111,宮河内ハイランド公民館,大分県大分市大字宮河内3769-192,1,,,33.1901950114772,131.699886444629,
454,E4420100052111,川添小学校,大分県大分市大字宮河内4566,1,,,33.202081,131.697651,
455,E4420100053111,森岡小学校,大分県大分市大字曲1041-2,1,,,33.2053480264905,131.61464376596,
456,E4420100054111,大分南部公民館,大分県大分市大字曲1113,1,,,33.202093,131.61215,
457,E4420100055111,稙田公民館,大分県大分市大字玉沢789,1,,,33.188177,131.577491,
458,E4420100056111,広内公民館,大分県大分市大字広内752,,,,33.179519733856,131.720603470631,
459,E4420100134111,大分市歴史資料館,大分県大分市大字国分960-1,1,,,33.195251,131.552897,
460,E4420100057111,今市健康増進センター,大分県大分市大字今市1099-26,1,,,33.107703146047,131.450488508527,
461,E4420100058111,佐賀関小学校,大分県大分市大字佐賀関1104,1,,,33.24594,131.874245,
462,E4420100059111,佐賀関公民館,大分県大分市大字佐賀関1407-27,1,,,33.2491335737604,131.872987242054,
463,E4420100061111,佐賀関中学校,大分県大分市大字佐賀関2-115-2,1,,,33.249323,131.862829,
464,E4420100060111,田中体育館,大分県大分市大字佐賀関2639-1,,,,33.2472920166701,131.882713668297,
465,E4420100062111,ＪＸ金属　関崎みらい海星館,大分県大分市大字佐賀関4057-419,1,,,33.2656604558327,131.899361337281,
466,E4420100063111,丹生小学校,大分県大分市大字佐野2660-2,1,,,33.214911,131.722968,
467,E4420100064111,細公民館,大分県大分市大字細88-1,1,,,33.2415542490503,131.774768754647,
468,E4420100065111,（旧）大志生木小学校,大分県大分市大字志生木207-1,1,,,33.2455519120238,131.835375040518,
469,E4420100066111,明治北小学校,大分県大分市大字小池原428-1,1,,,33.233572,131.668023,
470,E4420100067111,松岡小学校,大分県大分市大字松岡5047,1,,,33.181067,131.667632,
471,E4420100068111,上詰公民館,大分県大分市大字上詰696-8,1,,,33.122903,131.47807,
472,E4420100070111,大塔公民館,大分県大分市大字上戸次3478,1,,,33.119833,131.655454,
473,E4420100071111,上宗方公民館,大分県大分市大字上宗方1246-1,,,,33.200328,131.58161,
474,E4420100072111,判田米良公民館,大分県大分市大字上判田3766-2,1,,,33.1604694795463,131.620763195672,
475,E4420100073111,学校法人上東学園もりまち幼稚園,大分県大分市大字森町403-2,1,,,33.224602,131.676939,
476,E4420100074111,別保小学校,大分県大分市大字森町963-1,1,,,33.227488,131.685549,
477,E4420100075111,神崎小学校,大分県大分市大字神崎1798,1,,,33.254414,131.545132,
478,E4420100076111,大在中学校,大分県大分市大字政所2602-12,1,,,33.234625,131.721874,
479,E4420100077111,八幡小学校,大分県大分市大字生石82-1,1,,,33.242598,131.575763,
480,E4420100078111,延命寺公民館,大分県大分市大字丹川2440,1,,,33.20238067844,131.706811021182,
481,E4420100079111,上戸次小学校,大分県大分市大字端登1792,1,,,33.112447,131.652777,
482,E4420100080111,竹中小学校,大分県大分市大字竹中2821-1,1,,,33.13973,131.653453,
483,E4420100081111,竹中中学校,大分県大分市大字竹中3621,1,,,33.133715,131.650154,
484,E4420100082111,（旧）野津原中部小学校,大分県大分市大字竹矢2108-1,1,,,33.146321,131.50999,
485,E4420100083111,大南公民館,大分県大分市大字中戸次4491-2,1,,,33.15669347,131.6589014,
486,E4420100085111,賀来公民館,大分県大分市大字中尾495-1,1,,,33.204198,131.558136,
487,E4420100086111,明治小学校,大分県大分市大字猪野74,1,,,33.218472,131.66569,
488,E4420100087111,森岡校区公民館,大分県大分市大字津守307,1,,,33.210912,131.619698,
489,E4420100088111,吉野小学校,大分県大分市大字辻654,1,,,33.113954,131.693496,
490,E4420100089111,吉野中学校,大分県大分市大字辻812,1,,,33.111137,131.693856,
491,E4420100090111,稙田西中学校,大分県大分市大字田原378,1,,,33.190592,131.559842,
492,E4420100091111,田尻小学校,大分県大分市大字田尻1250,1,,,33.178295,131.590231,
493,E4420100092111,東稙田小学校,大分県大分市大字田尻499-1,1,,,33.187665,131.596513,
494,E4420100093111,白木体育館,大分県大分市大字白木2357,,,,33.2304610021101,131.869264572618,
495,E4420100094111,陽光台公民館,大分県大分市大字迫9-44,1,,,33.222327,131.700993,
496,E4420100095111,こうざき小学校,大分県大分市大字本神崎945-2,1,,,33.239466,131.798751,
497,E4420100096111,稙田小学校,大分県大分市大字木ノ上433-1,1,,,33.183624,131.563688,
498,E4420100097111,（旧）木佐上小学校,大分県大分市大字木佐上817,1,,,33.2173949227202,131.796906929032,
499,E4420100098111,野津原小学校,大分県大分市大字野津原1774-1,1,,,33.165017,131.530037,
500,E4420100099111,野津原公民館,大分県大分市大字野津原2885,1,,,33.1593227698602,131.524508255449,
501,E4420100100111,野津原中学校,大分県大分市大字野津原2978-13,1,,,33.15498,131.52309,
502,E4420100101111,大道小学校,大分県大分市大道町2-9-57,1,,,33.23318,131.600118,
503,E4420100102111,（旧）中島小学校,大分県大分市中島西2-1-52,1,,,33.243571,131.607848,
504,E4420100103111,長浜小学校,大分県大分市長浜町2-6-25,1,,,33.236664,131.618603,
505,E4420100105111,津留小学校,大分県大分市東津留1-4-1,1,,,33.24074,131.630223,
506,E4420100106111,鶴崎公民館,大分県大分市東鶴崎1-1-7,1,,,33.2412589822104,131.69554918044,
507,E4420100107111,王子中学校,大分県大分市南春日町6-1,1,,,33.23606079,131.5948717,
508,E4420100108111,鶴崎小学校,大分県大分市南鶴崎3-3-1,1,,,33.239338,131.691678,
509,E4420100109111,南大分小学校,大分県大分市二又町2-4-1,1,,,33.21470014,131.5939253,
510,E4420100110111,日岡小学校,大分県大分市日岡2-2-1,1,,,33.24965,131.658998,
511,E4420100111111,大分東部公民館,大分県大分市日吉町3-1,1,,,33.245532,131.650457,
512,E4420100112111,東大分小学校,大分県大分市萩原1-10-30,1,,,33.243984,131.640093,
513,E4420100113111,判田小学校,大分県大分市判田台東1-2-1,1,,,33.164281,131.636864,
514,E4420100114111,大分南高等学校,大分県大分市判田台南1-1-1,1,,,33.1590559535143,131.630407003074,
515,E4420100115111,判田中学校,大分県大分市判田台北1-1-1,1,,,33.1661476924423,131.633676495861,
516,E4420100116111,コンパルホール,大分県大分市府内町1-5-38,1,,,33.235361,131.610873,
517,E4420100117111,敷戸小学校,大分県大分市敷戸北町12-1,1,,,33.190915,131.622364,
518,E4420100118111,南大分体育館,大分県大分市豊饒1-1-1,1,,,33.2089207567575,131.600747984505,
519,E4420100119111,南大分公民館,大分県大分市豊饒3-9-26,1,,,33.2074669733345,131.592676555784,
520,E4420100120111,城東中学校,大分県大分市牧上町14-19,1,,,33.238829,131.644921,
521,E4420100121111,明野東小学校,大分県大分市明野東3-2-1,1,,,33.21847,131.657356,
522,E4420100122111,明野西小学校,大分県大分市明野南2-6-1,1,,,33.221993,131.646686,
523,E4420100123111,明野中学校,大分県大分市明野南3-7-1,1,,,33.2183748613642,131.650935034359,
524,E4420100124111,明野北小学校,大分県大分市明野北4-10-1,1,,,33.230438,131.65543,
525,E4420100125111,明治明野公民館,大分県大分市明野北4-7-8,1,,,33.2286484494795,131.658446131369,
526,E4420100126111,和光こども園,大分県大分市里2-1-23,1,,,33.234916,131.742108,
527,E4420800001111,柏原公民館,大分県竹田市荻町瓜作4576,,,,32.904679,131.301298,
528,E4420800002111,瓜作自治会公民館,大分県竹田市荻町瓜作4831-2,,,,32.912785,131.300471,
529,E4420800003111,叶野自治会公民館,大分県竹田市荻町叶野1267-5,,,,32.904161,131.273391,
530,E4420800004111,宮平自治会公民館,大分県竹田市荻町宮平3654,,,,32.90415,131.304202,
531,E4420800005111,桑木自治会公民館,大分県竹田市荻町桑木707-8,,,,32.919191,131.270549,
532,E4420800006111,福祉健康エリア,大分県竹田市荻町恵良原1772-7,,,,32.921117,131.302139,
533,E4420800007111,恵良原自治会公民館,大分県竹田市荻町恵良原2020,,,,32.924911,131.323607,
534,E4420800008111,桜町東区集会所,大分県竹田市荻町恵良原739-6,,,,32.922239,131.300173,
535,E4420800009111,高城自治会公民館,大分県竹田市荻町高城1018,,,,32.930909,131.317559,
536,E4420800010111,高練木自治会公民館,大分県竹田市荻町高練木2299-2,,,,32.911674,131.2897,
537,E4420800011111,鴫田自治会公民館,大分県竹田市荻町鴫田6388-2,,,,32.915196,131.332754,
538,E4420800012111,新藤自治会公民館,大分県竹田市荻町新藤425,,,,32.938423,131.296762,
539,E4420800013111,政所自治会公民館,大分県竹田市荻町政所1040-4,,,,32.947129,131.278314,
540,E4420800014111,西福寺自治会公民館,大分県竹田市荻町西福寺5733-2,,,,32.912261,131.317146,
541,E4420800015111,大平ふるさと交流の家,大分県竹田市荻町大平785-3,,,,32.893575,131.259035,
542,E4420800016111,藤渡自治会公民館,大分県竹田市荻町藤渡673-3,,,,32.931125,131.277489,
543,E4420800017111,馬場自治会公民館,大分県竹田市荻町馬場1270-1,,,,32.936534,131.297469,
544,E4420800018111,荻公民館,大分県竹田市荻町馬場367,,,,32.925956,131.298878,
545,E4420800019111,荻小学校体育館,大分県竹田市荻町馬場466,,,,32.92174,131.295444,
546,E4420800020111,桜町栄区集会所,大分県竹田市荻町馬場505,,,,32.926282,131.295354,
547,E4420800021111,緑ヶ丘中学校体育館,大分県竹田市荻町馬場861,,,,32.929814,131.293905,
548,E4420800022111,馬背野自治会公民館,大分県竹田市荻町馬背野745-1,,,,32.929835,131.339488,
549,E4420800023111,柏原自治会公民館,大分県竹田市荻町柏原2869-2,,,,32.905909,131.290777,
550,E4420800024111,仏面自治会公民館,大分県竹田市荻町仏面908-2,,,,32.903928,131.28017,
551,E4420800025111,北原自治会公民館,大分県竹田市荻町北原5004-12,,,,32.917306,131.298126,
552,E4420800026111,木下自治会公民館,大分県竹田市荻町木下202-1,,,,32.940575,131.26408,
553,E4420800032111,都野小学校体育館,大分県竹田市久住町大字栢木6037-1,,,,33.058627,131.329908,
554,E4420800033111,都野中学校体育館,大分県竹田市久住町大字栢木6049-1,,,,33.055423,131.325233,
555,E4420800033112,都野公民館,大分県竹田市久住町大字栢木6049-1,,,,33.056061,131.326613,
556,E4420800037111,久住小学校体育館,大分県竹田市久住町大字久住2859,,,,33.024775,131.291628,
557,E4420800041111,久住公民館,大分県竹田市久住町大字久住6154,,,,33.021145,131.293736,
558,E4420800044111,久住中学校体育館,大分県竹田市久住町大字白丹1525,,,,33.008739,131.285817,
559,E4420800046111,白丹小学校体育館,大分県竹田市久住町大字白丹4707,,,,33.006398,131.265153,
560,E4420800047111,白丹公民館,大分県竹田市久住町大字白丹4725-2,1,,,33.009356,131.26445,
561,E4420800057111,竹田小学校体育館,大分県竹田市大字会々1637,,,,32.973701,131.399255,
562,E4420800062111,竹田中学校体育館,大分県竹田市大字会々3423-1,,,,32.972877,131.3803,
563,E4420800069111,東中集会所,大分県竹田市大字玉来1299-2,,,,32.950908,131.377174,
564,E4420800074111,南部小学校体育館,大分県竹田市大字君ケ園1044,,,,32.951658,131.369756,
565,E4420800075111,竹田南部中学校体育館,大分県竹田市大字君ケ園1680,,,,32.948269,131.360007,
566,E4420800083112,岡本分館,大分県竹田市大字三宅1543,,,,32.993271,131.409951,
567,E4420800083111,岡本分館体育館,大分県竹田市大字三宅1543,,,,32.992759,131.410166,
568,E4420800087111,福祉施設はくすい,大分県竹田市大字次倉4459-1,,,,32.896255,131.331486,
569,E4420800088111,次倉地区集会所,大分県竹田市大字次倉914-4,1,,,32.912018,131.343543,
570,E4420800092111,城原小学校体育館,大分県竹田市大字城原1705,,,,32.991739,131.338044,
571,E4420800093111,城原地区館,大分県竹田市大字城原1725-7,,,,32.992481,131.335472,
572,E4420800095111,鬼田公民館,大分県竹田市大字植木1808-2,,,,32.991304,131.384125,
573,E4420800097111,あ祖母学舎,大分県竹田市大字神原13,,,,32.898002,131.36426,
574,E4420800101111,菅生分館,大分県竹田市大字菅生1111-2,,,,32.956843,131.287282,
575,E4420800102111,菅生小学校体育館,大分県竹田市大字菅生490-1,,,,32.95595,131.286158,
576,E4420800104111,旧宮城台小学校体育館,大分県竹田市大字炭竃500,,,,32.979951,131.310111,
577,E4420800105111,宮城分館,大分県竹田市大字炭竃680-3,,,,32.986669,131.308414,
578,E4420800107111,竹田市総合運動公園,大分県竹田市大字竹田1320,,,,32.961078,131.388268,
579,E4420800108111,竹田創生館,大分県竹田市大字竹田2062-1,,,,32.965612,131.394755,
580,E4420800110111,竹田高等学校体育館,大分県竹田市大字竹田2642,,,,32.968451,131.39801,
581,E4420800111111,野外活動施設,大分県竹田市大字竹田584-2,,,,32.962677,131.398894,
582,E4420800122111,明治分館体育館,大分県竹田市大字平田5782-1,,,,32.9900570673102,131.369568132498,
583,E4420800127111,入田分館,大分県竹田市大字門田250-7,,,,32.935595,131.385051,
584,E4420800128111,祖峰小学校体育館,大分県竹田市大字門田266,,,,32.935295,131.384257,
585,E4420800133111,山村交流センター,大分県竹田市直入町大字下田北192,,,,33.121779,131.403344,
586,E4420800135111,旧下竹田小学校体育館,大分県竹田市直入町大字上田北2012,,,,33.113323,131.411636,
587,E4420800139111,直入小学校体育館,大分県竹田市直入町大字長湯3088,,,,33.06606,131.371048,
588,E4420800140111,竹田市直入高齢者コミュニティセンター,大分県竹田市直入町大字長湯3121,,,,33.067837,131.372892,
589,E4420800148111,道の駅「ながゆ温泉」（湯の郷ふれあい館）,大分県竹田市直入町大字長湯8043-1,,,,33.071643,131.383144,
590,E4420800149111,ドイツ村簡易宿泊施設,大分県竹田市直入町大字長湯8195-11,,,,33.078221,131.383501,
591,E4420800150111,竹田市直入Ｂ＆Ｇ直入海洋センター体育館,大分県竹田市直入町大字長湯8208-4,,,,33.079898,131.384517,
592,E4420800151111,直入公民館,大分県竹田市直入町大字長湯8208-6,,,,33.080274,131.385142,
593,E4420800152112,直入中学校体育館,大分県竹田市直入町大字長湯8518-1,,,,33.083528,131.391017,
594,E4420800152111,直入セミナーハウス（直入中）,大分県竹田市直入町大字長湯8518-1,,,,33.084032,131.392528,
595,E4420300002111,南部幼稚園,大分県中津市1282-1,,,,33.604783,131.186545,
596,E4420300003111,南部小学校,大分県中津市1309,1,,,33.604389,131.186157,
597,E4420300004111,小幡記念図書館,大分県中津市1366-1,,,,33.603772,131.184399,
598,E4420300005121,中津市村上記念童心会館,大分県中津市1380-1,,,要配慮者,33.602997,131.185442,
599,E4420300006111,南部公民館,大分県中津市1468,1,,,33.604561,131.186842,
600,E4420300007121,新博多町交流センター,大分県中津市1524,,,要配慮者,33.602302,131.186529,
601,E4420300008111,北部小学校,大分県中津市666,1,,,33.6061,131.194607,
602,E4420300009111,中津市教育福祉センター,大分県中津市沖代町1-1-11,,,,33.59254,131.198271,
603,E4420300009121,中津市教育福祉センター,大分県中津市沖代町1-1-11,,,要配慮者,33.59254,131.198271,
604,E4420300010111,沖代公民館,大分県中津市沖代町1-6-52,1,,,33.587567,131.197267,
605,E4420300011111,臼木集会所,大分県中津市三光臼木1040,,,,33.53545,131.183469,
606,E4420300012111,土田集会所,大分県中津市三光臼木1495-4,,,,33.531264,131.177445,
607,E4420300013111,真坂小学校,大分県中津市三光臼木432,1,,,33.537166,131.182782,
608,E4420300014111,諌山自治公民館,大分県中津市三光諌山1136,,,,33.540475,131.199996,
609,E4420300015111,原口公民館,大分県中津市三光原口436,,,,33.5489795714224,131.202645374246,
610,E4420300016111,真坂活性化センター,大分県中津市三光佐知228-1,,,,33.552173,131.194695,
611,E4420300017111,小袋農業研修所,大分県中津市三光小袋685-1,,,,33.530218,131.188377,
612,E4420300018111,深水小学校,大分県中津市三光上深水75,1,,,33.503796721054,131.261287,
613,E4420300019111,上秣営農集団研修センター,大分県中津市三光上秣777-1,,,,33.531734,131.245898,
614,E4420300020111,成恒集会所,大分県中津市三光成恒269,,,,33.541439,131.209391,
615,E4420300220111,山口小学校,大分県中津市三光成恒329,,,,33.539241,131.208586,
616,E4420300021121,中津市三光コミュニティーセンター,大分県中津市三光成恒421-1,1,,要配慮者,33.537869,131.209555,
617,E4420300021111,三光コミュニティーセンター,大分県中津市三光成恒421-1,1,,,33.53786,131.209689,
618,E4420300022111,秣小学校,大分県中津市三光西秣1204,1,,,33.531455,131.240204,
619,E4420300023111,長谷集会所,大分県中津市三光西秣1700-4,,,,33.514008,131.243771,
620,E4420300024111,池部住宅集会所,大分県中津市三光西秣516,,,,33.5362988879486,131.228598806927,
621,E4420300025111,下田口集会所,大分県中津市三光田口2033,,,,33.534536,131.21676,
622,E4420300026111,上田口集会所,大分県中津市三光田口958-1,,,,33.526265,131.214837,
623,E4420300027111,牛ノ首集会所,大分県中津市三光土田1047,,,,33.5286577729867,131.170627321161,
624,E4420300028111,宇曽地区集落センター,大分県中津市山国町宇曽1107-1,,,,33.402697,131.052221,
625,E4420300029111,市場公民館,大分県中津市山国町宇曽1235-13,,,,33.401604,131.045586,
626,E4420300030111,大勢集会所,大分県中津市山国町宇曽144,,,,33.401847,131.058965,
627,E4420300031111,市平多目的集会施設,大分県中津市山国町宇曽2192-1,,,,33.418285,131.043364,
628,E4420300032111,三郷小学校体育館,大分県中津市山国町宇曽727,1,,,33.403023,131.053351,
629,E4420300033111,溝部小学校,大分県中津市山国町吉野754,,,,33.422714137732,131.01301861475,
630,E4420300034111,吉野地区集会所,大分県中津市山国町吉野757,,,,33.422528,131.012887,
631,E4420300035111,コアやまくに,大分県中津市山国町守実130,1,,,33.402259,131.042051,
632,E4420300036111,守実高齢者コミュニティセンター,大分県中津市山国町守実167-6,,,,33.403737,131.039616,
633,E4420300037111,上守実農業研修所,大分県中津市山国町守実1966,,,,33.394175,131.03084,
634,E4420300038111,狩宿構造改善センター,大分県中津市山国町守実2325-6,,,,33.405431,131.034184,
635,E4420300039112,山国中学校体育館,大分県中津市山国町守実281,,,,33.404254,131.038698,
636,E4420300040121,中津市山国町高齢者生活福祉センター,大分県中津市山国町守実57-1,,,要配慮者,33.404659,131.041715,
637,E4420300041121,中津市山国社会福祉センター,大分県中津市山国町守実89-1,,,要配慮者,33.402117,131.043485,
638,E4420300042111,成政公民館,大分県中津市山国町守実89-14,,,,33.401649,131.043636,
639,E4420300043111,小屋川農業研修所,大分県中津市山国町小屋川685-4,,,,33.424342,131.00568,
640,E4420300044111,田良川多目的集会施設,大分県中津市山国町草本1073-1,,,,33.43519,130.996194,
641,E4420300045111,草本公民館,大分県中津市山国町草本571-1,,,,33.4333121289018,130.998992224398,
642,E4420300046111,大曲生活改善センター,大分県中津市山国町草本785-4,,,,33.438373,130.992084,
643,E4420300047111,羽高生活改善センター,大分県中津市山国町中摩1000-4,,,,33.4464924618256,131.043200833967,
644,E4420300049111,神谷地区構造改善センター,大分県中津市山国町中摩192-8,,,,33.4212842811288,131.066219095933,
645,E4420300048111,奥谷地区多目的集会施設,大分県中津市山国町中摩1925-2,,,,33.430395,131.045658,
646,E4420300050111,中摩下公民館,大分県中津市山国町中摩3042-2,,,,33.4100988158905,131.07045207754,
647,E4420300051111,中摩コミュニティセンター,大分県中津市山国町中摩3230-1,,,,33.406956,131.065396,
648,E4420300052111,犬王丸多目的集会施設,大分県中津市山国町中摩3559-4,,,,33.4075870678454,131.062371262837,
649,E4420300053111,春田地区生活改善センター,大分県中津市山国町中摩4218-5,,,,33.3878150924022,131.062065982218,
650,E4420300054111,白地農業研究所,大分県中津市山国町中摩5545-4,,,,33.407065,131.071395,
651,E4420300055111,庄屋村生活改善センター,大分県中津市山国町中摩6107-8,,,,33.414386,131.072977,
652,E4420300056111,長尾野公民館,大分県中津市山国町長尾野475-3,,,,33.377116,131.047128,
653,E4420300057111,槻木交流センター,大分県中津市山国町槻木1075,1,,,33.453382,130.988317,
654,E4420300058111,旧毛谷村分校,大分県中津市山国町槻木1783,,,,33.4759217685588,130.989949505788,
655,E4420300059111,第８分団詰所,大分県中津市山国町藤野木415-4,,,,33.390642,131.042737,
656,E4420300060111,草野河内生活改善センター,大分県中津市山国町藤野木535-1,,,,33.387408,131.037867,
657,E4420300061111,重尾公民館,大分県中津市山国町藤野木821-2,,,,33.383989,131.04418,
658,E4420300062111,やまくにスポーツパーク体育館,大分県中津市山国町平小野167-2,1,,,33.410472,131.03362,
659,E4420300219121,やまくにスポーツパーク（体育館）,大分県中津市山国町平小野183,,,要配慮者,33.41036,131.033588,
660,E4420300063111,平小野生活改善センター,大分県中津市山国町平小野569-4,,,,33.412625,131.026765,
661,E4420300064111,城北中学校,大分県中津市字小祝525-11,1,,,33.612841,131.188864,
662,E4420300065111,第三保育所,大分県中津市大字伊藤田2941,,,,33.565915,131.240726,
663,E4420300066111,三保文化センター,大分県中津市大字伊藤田2983-2,,,,33.565039,131.240623,
664,E4420300067111,三保小学校,大分県中津市大字伊藤田3321,,,,33.564203,131.237363,
665,E4420300068121,中津市小楠コミュニティーセンター,大分県中津市大字一ツ松251,1,,要配慮者,33.593123,131.206573,
666,E4420300068111,小楠コミュニティーセンター,大分県中津市大字一ツ松251,1,,,33.593216,131.206553,
667,E4420300069111,小楠小学校,大分県中津市大字一ツ松62-1,1,,,33.594194,131.208182,
668,E4420300071111,緑ヶ丘中学校,大分県中津市大字永添2454-1,,,,33.56998,131.21056,
669,E4420300072121,養護老人ホーム　中津市豊寿園,大分県中津市大字永添2606-20,,,要配慮者,33.564031,131.20375,
670,E4420300073121,なかつ情報プラザ,大分県中津市大字下池永83-1,,,要配慮者,33.590589,131.212665,
671,E4420300075111,米山老人憩の家,大分県中津市大字蛎瀬1321-6,,,,33.607535,131.210913,
672,E4420300077111,北部公民館,大分県中津市大字角木494-1,1,,,33.609997,131.19337,
673,E4420300078111,小楠幼稚園,大分県中津市大字宮夫55-1,,,,33.594154,131.21007,
674,E4420300079111,中津中学校,大分県中津市大字牛神459-2,,,,33.595677,131.201823,
675,E4420300080111,犬丸集会所,大分県中津市大字犬丸646,,,,33.567733,131.256411,
676,E4420300081121,中津市鶴居文化センター,大分県中津市大字高瀬1042,1,,要配慮者,33.58598,131.177672,
677,E4420300081111,鶴居文化センター,大分県中津市大字高瀬1042,1,,,33.585983,131.177667,
678,E4420300082111,第五保育所,大分県中津市大字高瀬1053-1,,,,33.58598,131.178217,
679,E4420300083111,中津南高等学校,大分県中津市大字高畑2093,,,,33.597537,131.181635,
680,E4420300084111,如水コミュニティーセンター,大分県中津市大字合馬479-1,1,,,33.586628,131.223673,
681,E4420300084121,中津市如水コミュニティーセンター,大分県中津市大字合馬479-1,1,,要配慮者,33.58665,131.223637,
682,E4420300085111,豊田公民館,大分県中津市大字上宮永29-1,1,,,33.592619,131.185722,
683,E4420300086111,第二保育所,大分県中津市大字上宮永355,,,,33.584882,131.184925,
684,E4420300087111,如水小学校,大分県中津市大字上如水112,,,,33.583425,131.225969,
685,E4420300088111,中津東高等学校,大分県中津市大字上如水145-3,,,,33.581271,131.221558,
686,E4420300089111,如水幼稚園,大分県中津市大字上如水83-1,,,,33.583951,131.224733,
687,E4420300090111,今津幼稚園,大分県中津市大字植野1371-2,,,,33.569699,131.263718,
688,E4420300091111,今津小学校,大分県中津市大字植野1372-2,,,,33.570225,131.264061,
689,E4420300092111,今津中学校,大分県中津市大字植野1889-2,,,,33.569191,131.267017,
690,E4420300093111,今津コミュニティーセンター,大分県中津市大字植野1972-1,1,,,33.569491,131.26513,
691,E4420300093121,中津市今津コミュニティーセンター,大分県中津市大字植野1972-1,1,,要配慮者,33.569498,131.265,
692,E4420300094111,東中津中学校,大分県中津市大字是則845,,,,33.588154,131.235125,
693,E4420300095111,中津東体育館,大分県中津市大字是則957-43,1,,,33.588484,131.238525,
694,E4420300096111,鶴居コミュニティーセンター,大分県中津市大字相原3740-1,1,,,33.574537,131.192358,
695,E4420300096121,中津市鶴居コミュニティーセンター,大分県中津市大字相原3740-1,1,,要配慮者,33.574533,131.19236,
696,E4420300097111,中津支援学校,大分県中津市大字大塚1,,,,33.605323,131.196241,
697,E4420300099111,北部幼稚園,大分県中津市大字大塚23-1,,,,33.605918,131.195323,
698,E4420300216111,新大塚老人憩の家,大分県中津市大字大塚717,,,,33.609408,131.204543,
699,E4420300100111,大幡幼稚園,大分県中津市大字大貞209-2-1,,,,33.56733,131.214075,
700,E4420300100112,大幡小学校,大分県中津市大字大貞209-2-1,,,,33.567569,131.214839,
701,E4420300101121,中津市大幡コミュニティーセンター,大分県中津市大字大貞371-403,1,,要配慮者,33.566345,131.212644,
702,E4420300101111,大幡コミュニティーセンター,大分県中津市大字大貞371-403,1,,,33.566351,131.212641,
703,E4420300102111,中津市総合体育館（ダイハツ九州アリーナ）,大分県中津市大字大貞377-1,1,,,33.563725,131.211326,
704,E4420300102121,中津市総合体育館（ダイハツ九州アリーナ）,大分県中津市大字大貞377-1,1,,要配慮者,33.563728,131.211029,
705,E4420300103111,東九州龍谷高等学校,大分県中津市大字中殿527,,,,33.60055,131.194189,
706,E4420300104111,和田コミュニティーセンター,大分県中津市大字定留1929,1,,,33.58612822,131.2442331,
707,E4420300104121,中津市和田コミュニティーセンター,大分県中津市大字定留1929,1,,要配慮者,33.586116,131.244798,
708,E4420300105111,和田幼稚園,大分県中津市大字定留1944-1,,,,33.58757,131.24569,
709,E4420300106111,和田小学校,大分県中津市大字定留1950,,,,33.587383,131.246377,
710,E4420300107111,田尻老人憩の家,大分県中津市大字田尻1070,,,,33.593359,131.237681,
711,E4420300109111,豊田小学校,大分県中津市大字島田594-1,1,,,33.598306,131.185131,
712,E4420300110111,豊田幼稚園,大分県中津市大字島田699,,,,33.599232,131.185315,
713,E4420300111111,大分県立工科短期大学校,大分県中津市大字東浜407-27,1,,,33.597226,131.217333,
714,E4420300112111,鶴居小学校,大分県中津市大字湯屋202-2,1,,,33.574816,131.191082,
715,E4420300113111,鶴居幼稚園,大分県中津市大字湯屋209-1,,,,33.575111,131.190394,
716,E4420300114111,鍋島拠点施設,大分県中津市大字鍋島1037-2,,,,33.578234,131.27287,
717,E4420300116111,三保幼稚園,大分県中津市大字福島1895,,,,33.564733,131.236574,
718,E4420300117111,三保交流センター,大分県中津市大字福島1902,1,,,33.564744,131.23596,
719,E4420300117121,中津市三保交流センター,大分県中津市大字福島1902,1,,要配慮者,33.564782,131.235957,
720,E4420300118111,生涯学習センター（まなびん館）,大分県中津市中央町1-3-45,,,,33.593249,131.192986,
721,E4420300119111,豊陽中学校,大分県中津市中央町1-4-50,,,,33.593162,131.193622,
722,E4420300120111,中津北高等学校,大分県中津市中央町1-6-83,,,,33.589673,131.193654,
723,E4420300122112,沖代小学校,大分県中津市中央町2-3-33,1,,,33.586144,131.19444,
724,E4420300122111,沖代幼稚園,大分県中津市中央町2-3-33,1,,,33.586624,131.193197,
725,E4420300217111,中津市役所（本庁）,大分県中津市豊田町14-3,,,,33.598249,131.188261,
726,E4420300123112,中津体育センター,大分県中津市豊田町14-38,,,,33.597566,131.187056,
727,E4420300123111,中津文化会館,大分県中津市豊田町14-38,,,,33.597984,131.186741,
728,E4420300126111,今行・下屋形地区集会所,大分県中津市本耶馬渓町今行3-2,,,,33.496666,131.191577,
729,E4420300127111,西谷地区公民館,大分県中津市本耶馬渓町西谷2810-2,1,,,33.423258,131.180996,
730,E4420300128111,西谷上活性化センター,大分県中津市本耶馬渓町西谷4101,,,,33.410413,131.195435,
731,E4420300129111,西谷下地区集会所,大分県中津市本耶馬渓町西谷797-3,,,,33.437864,131.179033,
732,E4420300130111,水取多目的集会所,大分県中津市本耶馬渓町跡田158-1,,,,33.485955,131.176471,
733,E4420300131111,羅漢多目的集会所,大分県中津市本耶馬渓町跡田1740-3,,,,33.47798,131.190238,
734,E4420300132111,上津地区公民館,大分県中津市本耶馬渓町折元1233-3,1,,,33.456679,131.185692,
735,E4420300133111,上津小学校,大分県中津市本耶馬渓町折元662,,,,33.463827,131.179554,
736,E4420300134111,禅海スポーツセンター,大分県中津市本耶馬渓町曽木1800,1,,,33.495106,131.169253,
737,E4420300134112,本耶馬渓公民館,大分県中津市本耶馬渓町曽木1800,1,,,33.495644,131.169504,
738,E4420300134122,禅海スポーツセンター（体育館）,大分県中津市本耶馬渓町曽木1800,1,,要配慮者,33.495082,131.169205,
739,E4420300134121,中津市本耶馬渓公民館,大分県中津市本耶馬渓町曽木1800,1,,要配慮者,33.495656,131.169488,
740,E4420300135111,やかた田舎の学校,大分県中津市本耶馬渓町東屋形510,1,,,33.4809048076602,131.215460786296,
741,E4420300136111,屋形下地区集会所,大分県中津市本耶馬渓町東屋形618,,,,33.477635,131.219691,
742,E4420300137111,東谷地区公民館,大分県中津市本耶馬渓町東谷2319,1,,,33.444421,131.21482,
743,E4420300138111,東谷上地区集会所,大分県中津市本耶馬渓町東谷3788-1,,,,33.435438,131.225818,
744,E4420300139111,東谷下地区集会所,大分県中津市本耶馬渓町東谷902,,,,33.445812,131.199488,
745,E4420300140111,樋田地区公民館,大分県中津市本耶馬渓町樋田277-2,,,,33.504127,131.172822,
746,E4420300141112,樋田小学校体育館,大分県中津市本耶馬渓町樋田94,1,,,33.504674,131.172067,
747,E4420300218111,耶馬溪コミュニティーセンター,大分県中津市耶馬溪町大字柿坂138-1,1,,,33.453909,131.113527,
748,E4420300142111,朝日ヶ丘集会所,大分県中津市耶馬溪町大字柿坂289-9,,,,33.447052367701,131.114156845585,
749,E4420300144111,耶馬溪中学校,大分県中津市耶馬溪町大字柿坂684,,,,33.448058794238,131.11948811177,
750,E4420300145111,橋本多目的集会施設,大分県中津市耶馬溪町大字宮園16-3,,,,33.428796,131.095542,
751,E4420300146111,宮園農林漁家婦人活動施設,大分県中津市耶馬溪町大字宮園337,,,,33.426497,131.093262,
752,E4420300147111,江渕公民館,大分県中津市耶馬溪町大字宮園662-3,,,,33.4255736766617,131.084356222933,
753,E4420300148111,一ツ戸生活改善センター,大分県中津市耶馬溪町大字宮園952-1,,,,33.424786,131.077555,
754,E4420300149111,床波公民館,大分県中津市耶馬溪町大字金吉1023-5,,,,33.41481,131.104014,
755,E4420300150111,行広公民館,大分県中津市耶馬溪町大字金吉1610-1,,,,33.407235,131.101899,
756,E4420300151111,山浦生活改善センター,大分県中津市耶馬溪町大字金吉1793-1,,,,33.398389,131.095027,
757,E4420300152111,提鶴高齢者活動促進施設,大分県中津市耶馬溪町大字金吉1995,,,,33.3898702602689,131.10312343704,
758,E4420300153111,伊福山村活性化支援センター,大分県中津市耶馬溪町大字金吉2552-1,,,,33.373228,131.123355,
759,E4420300154111,金吉下・大久保生活改善センター,大分県中津市耶馬溪町大字金吉3-2,,,,33.427978,131.101543,
760,E4420300155111,内山・上ノ原公民館,大分県中津市耶馬溪町大字金吉4670-1,,,,33.419269,131.102786,
761,E4420300156111,鎌城農村多目的共同利用施設,大分県中津市耶馬溪町大字金吉5157,,,,33.391444,131.075255,
762,E4420300157111,金吉上公民館,大分県中津市耶馬溪町大字金吉712-1,,,,33.42407,131.104697,
763,E4420300158111,下戸原公民館,大分県中津市耶馬溪町大字戸原103,,,,33.468691,131.148307,
764,E4420300159111,上戸原生活改善センター,大分県中津市耶馬溪町大字戸原1393-1,,,,33.467272,131.142365,
765,E4420300160111,口ノ林営農研修センター,大分県中津市耶馬溪町大字戸原1774-1,,,,33.468704,131.132203,
766,E4420300161111,木ノ子生活改善センター,大分県中津市耶馬溪町大字戸原263-5,,,,33.459164,131.156544,
767,E4420300162111,三尾母公民館,大分県中津市耶馬溪町大字三尾母423-3,,,,33.473996,131.134198,
768,E4420300163111,原井生活改善センター,大分県中津市耶馬溪町大字山移1970-1,,,,33.418621,131.156391,
769,E4420300164111,山移地区公民館,大分県中津市耶馬溪町大字山移3326-1,,,,33.413503,131.156536,
770,E4420300165111,旧山移診療所医師住宅,大分県中津市耶馬溪町大字山移3813-1,1,,,33.407407137746,131.15698736738,
771,E4420300167111,持田公民館,大分県中津市耶馬溪町大字山移3817-3,,,,33.407256,131.157977,
772,E4420300168111,八木蒔生活改善センター,大分県中津市耶馬溪町大字山移4020,,,,33.401155,131.155708,
773,E4420300169111,上百谷公民館,大分県中津市耶馬溪町大字山移4690-5,,,,33.3830825704311,131.145861415008,
774,E4420300170111,百谷生活改善センター,大分県中津市耶馬溪町大字山移5025-1,,,,33.395151,131.141708,
775,E4420300171111,上ノ畑農業構造改善センター,大分県中津市耶馬溪町大字山移5270-1,,,,33.402396,131.149799,
776,E4420300172111,鷹丸多目的集会施設,大分県中津市耶馬溪町大字山移5698,,,,33.41946,131.14144,
777,E4420300173111,小友田公民館,大分県中津市耶馬溪町大字小友田38-4,,,,33.469714,131.127586,
778,E4420300174111,小柿山生活改善センター,大分県中津市耶馬溪町大字深耶馬1059-2,,,,33.373014,131.19736,
779,E4420300175111,深耶馬体育館,大分県中津市耶馬溪町大字深耶馬1481-4,,,,33.361158,131.195219,
780,E4420300176111,寺小野公民館,大分県中津市耶馬溪町大字深耶馬1619-1,,,,33.365909,131.183289,
781,E4420300177111,深耶馬東多目的集会施設,大分県中津市耶馬溪町大字深耶馬204-3,,,,33.386057,131.216095,
782,E4420300178111,折戸農林業家婦人活動促進施設,大分県中津市耶馬溪町大字深耶馬2147-1,,,,33.381989,131.186283,
783,E4420300179111,深耶馬温泉館,大分県中津市耶馬溪町大字深耶馬2941,1,,,33.386612,131.166931,
784,E4420300180111,深耶馬地区公民館,大分県中津市耶馬溪町大字深耶馬2952,,,,33.385767,131.166866,
785,E4420300181111,藤木公民館,大分県中津市耶馬溪町大字深耶馬3591-1,,,,33.376868,131.155535,
786,E4420300182111,小屋ノ原生活改善センター,大分県中津市耶馬溪町大字川原口1020,,,,33.498996,131.040872,
787,E4420300183111,相ノ原公民館,大分県中津市耶馬溪町大字川原口1309-3,,,,33.499185,131.027642,
788,E4420300184111,両午林業の家,大分県中津市耶馬溪町大字川原口157-4,,,,33.493305,131.061335,
789,E4420300185111,中村生活改善センター,大分県中津市耶馬溪町大字川原口552,,,,33.495306,131.055771,
790,E4420300186111,永岩公民館,大分県中津市耶馬溪町大字川原口757-3,,,,33.49798,131.0486,
791,E4420300187111,随雲寺公民館,大分県中津市耶馬溪町大字大島1442-2,,,,33.435911,131.104508,
792,E4420300188111,下郷小学校,大分県中津市耶馬溪町大字大島190-2,1,,,33.428939415944,131.09947423841,
793,E4420300189111,鹿熊公民館,大分県中津市耶馬溪町大字大島2640-1,,,,33.423423,131.119431,
794,E4420300190111,大久保公民館,大分県中津市耶馬溪町大字大島304-1,,,,33.429719,131.101439,
795,E4420300191111,元奥畑分校,大分県中津市耶馬溪町大字大島3618-1,,,,33.38914,131.125818,
796,E4420300192111,上台生活改善センター,大分県中津市耶馬溪町大字大島4302,,,,33.394884,131.114087,
797,E4420300193111,奥ノ鶴公民館,大分県中津市耶馬溪町大字大島922-3,,,,33.433079,131.108382,
798,E4420300194111,津民地区公民館,大分県中津市耶馬溪町大字大野1083,1,,,33.476996,131.083737,
799,E4420300195111,柚木公民館,大分県中津市耶馬溪町大字大野197-1,,,,33.4714652725601,131.095487248858,
800,E4420300196111,柾木多目的集会施設,大分県中津市耶馬溪町大字大野2268-3,,,,33.47797,131.052896,
801,E4420300197111,大野中央多目的集会施設,大分県中津市耶馬溪町大字大野2847-2,,,,33.483411,131.069798,
802,E4420300198111,中畑集落公民館,大分県中津市耶馬溪町大字中畑177-1,,,,33.471834,131.102639,
803,E4420300199111,上ノ川内公民館,大分県中津市耶馬溪町大字中畑926-1,,,,33.478441,131.089001,
804,E4420300200111,栃木多目的集会施設,大分県中津市耶馬溪町大字栃木38-1,,,,33.465342,131.110238,
805,E4420300201121,中津市特別養護老人ホーム　やすらぎ荘,大分県中津市耶馬溪町大字樋山路1-1,,,要配慮者,33.430513,131.097589,
806,E4420300202111,両畑生活改善センター,大分県中津市耶馬溪町大字樋山路1612,,,,33.449939,131.072405,
807,E4420300203111,樋山路中組山村活性化支援センター,大分県中津市耶馬溪町大字樋山路2054-3,,,,33.442675,131.084497,
808,E4420300204112,貞曽高齢者活動促進施設,大分県中津市耶馬溪町大字樋山路323-1,,,,33.43286,131.094926,
809,E4420300204111,黒法師営農研修センター,大分県中津市耶馬溪町大字樋山路323-1,,,,33.434350673256,131.09734148269,
810,E4420300205111,福土台公民館,大分県中津市耶馬溪町大字福土1174-98,,,,33.501504,131.111269,
811,E4420300206111,福土公民館,大分県中津市耶馬溪町大字福土188,,,,33.483335,131.11862,
812,E4420300207111,上福土高齢者活動促進施設,大分県中津市耶馬溪町大字福土795-1,,,,33.498139,131.096854,
813,E4420300208111,町丈集会所,大分県中津市耶馬溪町大字平田1002-5,,,,33.47196167166,131.14656060813,
814,E4420300209111,城井地区公民館,大分県中津市耶馬溪町大字平田1418-1,1,,,33.469178,131.138602,
815,E4420300210111,岩屋多目的集会施設,大分県中津市耶馬溪町大字平田65,,,,33.482087,131.150624,
816,E4420300211111,中村営農研修センター,大分県中津市耶馬溪町大字平田668-5,,,,33.477565,131.145976,
817,E4420700014111,第二中学校体育館,大分県津久見市元町11-29,1,,,33.074341666667,131.853625,
818,E4420700014112,第二中学校,大分県津久見市元町11-29,1,,,33.074188888889,131.85320833333,
819,E4420700047112,堅徳小学校,大分県津久見市大字堅浦3-1,1,,,33.092163888889,131.85887222222,
820,E4420700047111,堅徳小学校体育館,大分県津久見市大字堅浦3-1,1,,,33.092841666667,131.85936666667,
821,E4420700057111,漁村センター,大分県津久見市大字四浦2075-3,1,,,33.069180914028,131.95436043736,
822,E4420700092112,青江小学校,大分県津久見市大字上青江3537,1,,,33.082208333333,131.83931944444,
823,E4420700092111,青江小学校体育館,大分県津久見市大字上青江3537,1,,,33.081961111111,131.83912777778,
824,E4420700100112,千怒小学校,大分県津久見市大字千怒1400,1,,,33.065836989493,131.88855026069,
825,E4420700100111,千怒小学校体育館,大分県津久見市大字千怒1400,1,,,33.066094444444,131.888175,
826,E4420700124111,長目小学校体育館,大分県津久見市大字長目1698,1,,,33.108930555556,131.88236944444,
827,E4420700139111,浦代公民館,大分県津久見市大字長目610-3,1,,,33.103355555556,131.874675,
828,E4420700145113,津久見高校体育館,大分県津久見市大字津久見3485-1,1,,,33.067041666667,131.86206666667,
829,E4420700145111,津久見高校武道館,大分県津久見市大字津久見3485-1,1,,,33.067455555556,131.86240277778,
830,E4420700145112,津久見高校,大分県津久見市大字津久見3485-1,1,,,33.066322222222,131.86128611111,
831,E4420700225112,第一中学校,大分県津久見市文京町1-6,1,,,33.068769444444,131.86515555556,
832,E4420700225111,第一中学校体育館,大分県津久見市文京町1-6,1,,,33.069333333333,131.86536666667,
833,E4420700229112,津久見小学校体育館,大分県津久見市立花町1-7,1,,,33.065283333333,131.85908611111,
834,E4420700229111,津久見小学校,大分県津久見市立花町1-7,1,,,33.066088888889,131.859875,
835,E4434100002111,日出小学校,大分県日出町2610-1,,,,33.36770726294,131.53123082269,
836,E4434100003111,日出中学校,大分県日出町2627,,,,33.367515062858,131.53257838846,
837,E4434100007111,日出町中央体育館,大分県日出町3891-2,,,,33.373484101719,131.53230612588,
838,E4434100007112,日出町中央公民館,大分県日出町3891-2,,,,33.373130193712,131.5324295075,
839,E4434100013111,川崎小学校,大分県日出町大字川崎1082,,,,33.369880454649,131.55011801992,
840,E4434100015111,川崎体育館,大分県日出町大字川崎3777-1,,,,33.359005641697,131.55648752196,
841,E4434100025111,大神地区公民館,大分県日出町大字大神2958-1,,,,33.370013665751,131.57498641346,
842,E4434100026111,大神中学校,大分県日出町大字大神3120,,,,33.371584576304,131.57635451179,
843,E4434100027111,大神小学校,大分県日出町大字大神3139-1,,,,33.370728904147,131.57478810173,
844,E4434100001111,日出町保健福祉センター,大分県日出町大字藤原2277-1,,,,33.380192108364,131.54151654695,
845,E4434100035111,藤原地区公民館,大分県日出町大字藤原4380-1,,,,33.386572747132,131.54484888601,
846,E4434100036111,藤原小学校,大分県日出町大字藤原5266-1,,,,33.391005183732,131.55004439682,
847,E4434100037111,南端小学校,大分県日出町大字南畑1210-8,,,,33.356594057454,131.45874257414,
848,E4434100038111,南端地区公民館,大分県日出町大字南畑3731-3,,,,33.373530889179,131.45813309224,
849,E4434100042111,豊岡小学校,大分県日出町大字豊岡3354-1,,,,33.365979989157,131.50537956107,
850,E4434100043111,豊岡地区公民館,大分県日出町大字豊岡5586,,,,33.366334724832,131.50585268194,
851,E4420400002111,三芳小学校,大分県日田市下井手町940,1,,,33.30797148,130.9466038,
852,E4420400003111,三芳公民館,大分県日田市下井手町989,1,,,33.3070207879464,130.947186810595,
853,E4420400005111,三隈中学校,大分県日田市亀川町402-1,1,,,33.31609629,130.9155979,
854,E4420400008111,月出山多目的交流館（旧月出山小学校）,大分県日田市月出町5590,1,,,33.30991245,131.0252966,
855,E4420400012111,市民文化会館（パトリア日田）,大分県日田市三本松1-8-11,1,,,33.31919977,130.9341455,
856,E4420400013111,花月コミュニティセンター,大分県日田市市ノ瀬町1436-1,1,,,33.365715,130.971848,
857,E4420400015111,若宮小学校,大分県日田市若宮町2-15,1,,,33.31055555,130.9391053,
858,E4420400016111,有田小学校,大分県日田市諸留町2687-1,1,,,33.33104985,130.968743,
859,E4420400017111,東有田中学校,大分県日田市諸留町488-2,1,,,33.33163618,130.9827851,
860,E4420400019111,東有田公民館,大分県日田市諸留町52,1,,,33.33078852,130.9791915,
861,E4420400021111,北部中学校,大分県日田市上手町148-1,1,,,33.33590354,130.9458985,
862,E4420400022111,桂林公民館,大分県日田市上城内町2-11,1,,,33.32607774,130.9428969,
863,E4420400023111,桂林小学校,大分県日田市上城内町2-35,1,,,33.32720237,130.9428596,
864,E4420400024111,中央公民館,大分県日田市上城内町2-6,1,,,33.32594017,130.9418496,
865,E4420400025111,上津江第５分団消防詰所,大分県日田市上津江町上野田1217-9,1,,,33.054386,130.987115,
866,E4420400027111,上津江体育館,大分県日田市上津江町川原2710,1,,,33.09495436,130.976343,
867,E4420400028111,川原自治会センター,大分県日田市上津江町川原3852-1,1,,,33.1125952000536,130.962013998677,
868,E4420400031111,大分県立日田林工高等学校,大分県日田市吹上町30,1,,,33.33109758,130.9337068,
869,E4420400032111,三和小学校,大分県日田市清水町1187,1,,,33.35063198,130.9429503,
870,E4420400034111,三花公民館,大分県日田市清水町948-1,1,,,33.349702,130.942535,
871,E4420400035111,高瀬小学校,大分県日田市誠和町781-2,1,,,33.30163679,130.9368664,
872,E4420400036111,高瀬公民館,大分県日田市誠和町796-3,1,,,33.30204702,130.9366854,
873,E4420400037111,五和公民館,大分県日田市石井町1-274-4,1,,,33.31228667,130.9114564,
874,E4420400038111,石井小学校,大分県日田市石井町2-478,1,,,33.31052267,130.9084389,
875,E4420400039111,西有田公民館,大分県日田市石松町2927-1,1,,,33.33654321,130.9621739,
876,E4420400040111,大分県立日田支援学校,大分県日田市石松町2941-1,1,,,33.33650736,130.9610527,
877,E4420400041111,南部中学校,大分県日田市銭渕町288,1,,,33.30681629,130.9312747,
878,E4420400043111,曾家多目的交流館,大分県日田市前津江町赤石3121-2,1,,,33.19285079,130.9681135,
879,E4420400044111,前津江町柔剣道場,大分県日田市前津江町大野2179-2,1,,,33.20934547,130.9192794,
880,E4420400045111,まえつえ保育園,大分県日田市前津江町大野2188,1,,,33.210093,130.918382,
881,E4420400046111,前津江中学校,大分県日田市前津江町大野2214,1,,,33.2113885035787,130.916680001767,
882,E4420400048111,前津江小学校,大分県日田市前津江町大野2562,1,,,33.210578,130.920875,
883,E4420400049111,前津江町活性化センター,大分県日田市前津江町大野70-15,1,,,33.191523,130.91601,
884,E4420400050111,出野地区交流センター,大分県日田市前津江町柚木2185-1,1,,,33.21937485,130.8842389,
885,E4420400052111,柚木多目的交流館,大分県日田市前津江町柚木451,1,,,33.255327,130.848616,
886,E4420400127111,西峰コミュニティーセンター,大分県日田市大山町西大山2042-3,1,,,33.249711,130.956418,
887,E4420400054111,大山文化センター,大分県日田市大山町西大山3600,1,,,33.25782299,130.9679003,
888,E4420400055111,大山小中学校,大分県日田市大山町西大山3615-1,1,,,33.2571212,130.9692814,
889,E4420400056111,旧大山中学校体育館,大分県日田市大山町西大山4267,1,,,33.243632,130.976204,
890,E4420400057111,旧鎌手小学校,大分県日田市大山町西大山5926-3,1,,,33.232347,130.979063,
891,E4420400059111,松原児童館,大分県日田市大山町西大山8442-3,1,,,33.20026195,130.9886063,
892,E4420400061111,老松コミュニティーセンター,大分県日田市大山町西大山870-5,1,,,33.26054,130.960739,
893,E4420400060111,南部コミュニティーセンター,大分県日田市大山町西大山８５０４－１地先,1,,,33.1935188456904,130.988363306417,
894,E4420400062111,旧都築小学校,大分県日田市大山町東大山1125,1,,,33.26209206,130.988759,
895,E4420400128111,都築コミュニティーセンター,大分県日田市大山町東大山1127-1,,,,33.26139629,130.9882162,
896,E4420400064111,北部コミュニティーセンター,大分県日田市大山町東大山470-3,1,,,33.27459,130.955122,
897,E4420400065111,大分県立日田三隈高等学校,大分県日田市大字友田1546-1,1,,,33.33049295,130.9147937,
898,E4420400067111,大鶴公民館,大分県日田市大鶴本町870,1,,,33.370866,130.889729,
899,E4420400069111,大明小中学校,大分県日田市大肥町1701,1,,,33.365087,130.882562,
900,E4420400070112,咸宜小学校,大分県日田市淡窓1-5-13,1,,,33.32153469,130.9360283,
901,E4420400129111,咸宜公民館,大分県日田市淡窓1-5-31,,,,33.32219744,130.9366305,
902,E4420400071111,若宮公民館,大分県日田市竹田新町1-37,1,,,33.312825,130.938293,
903,E4420400125121,日田市中央児童館,大分県日田市中城町1-66,,,乳幼児期の子どもとその保護者、妊産婦とその介助者,33.324293,130.939685,
904,E4420400076111,Ｂ＆Ｇ中津江海洋センター,大分県日田市中津江村合瀬1936-28,1,,,33.1363017381106,130.906674375418,
905,E4420400077111,地底博物館鯛生金山,大分県日田市中津江村合瀬3750,1,,,33.12912953,130.8826701,
906,E4420400078111,中津江振興局,大分県日田市中津江村栃野2357-1,1,,,33.12896279,130.9514179,
907,E4420400079111,津江小中学校,大分県日田市中津江村栃野4341,1,,,33.139943,130.972508,
908,E4420400124111,津江高齢者生活福祉センター（長寿苑）多目的交流室,大分県日田市中津江村栃野4344-1,1,,,33.139195,130.973876,
909,E4420400081111,朝日小学校,大分県日田市朝日町936-1,1,,,33.34161787,130.9186827,
910,E4420400082111,朝日公民館,大分県日田市朝日町945-1,1,,,33.34093659,130.9194678,
911,E4420400083111,いつま小学校,大分県日田市天瀬町五馬市2040,1,,,33.23312847,131.0194337,
912,E4420400084111,天瀬公民館五馬分館,大分県日田市天瀬町五馬市2166-1,1,,,33.227605,131.019124,
913,E4420400085111,天瀬複合施設,大分県日田市天瀬町合田1986-2,1,,,33.28359375,131.007463,
914,E4420400086111,丸山コミュニティーセンター,大分県日田市天瀬町合田747-1,1,,,33.274047,131.000558,
915,E4420400087111,旧桜竹小学校,大分県日田市天瀬町桜竹242,1,,,33.25052574,131.0350958,
916,E4420400088111,天瀬公民館,大分県日田市天瀬町桜竹671-2,1,,,33.255083,131.019934,
917,E4420400089111,Ｂ＆Ｇ天瀬海洋センター,大分県日田市天瀬町桜竹80-1,1,,,33.2465393,131.0325138,
918,E4420400090111,出口コミュニティーセンター,大分県日田市天瀬町出口1840-1,1,,,33.204633,131.014232,
919,E4420400091111,旧台小学校,大分県日田市天瀬町女子畑1298-1,1,,,33.28241503,130.9772267,
920,E4420400092111,五馬中学校,大分県日田市天瀬町塚田169,1,,,33.21945901,131.0274807,
921,E4420400093111,東渓中学校,大分県日田市天瀬町馬原2276,1,,,33.28731577,131.0054996,
922,E4420400097111,東部中学校,大分県日田市田島2-12-8,1,,,33.31749406,130.9440181,
923,E4420400099111,大分県立日田高等学校,大分県日田市田島2-9-30,1,,,33.3223264,130.9443127,
924,E4420400100111,日田市総合体育館,大分県日田市田島3-29,1,,,33.31885126,130.951201,
925,E4420400101111,勤労者総合福祉センター（サンヒルズひた）,大分県日田市田島3-69,1,,,33.32056641,130.9510713,
926,E4420400103111,藤蔭高等学校,大分県日田市田島本町5-41,1,,,33.31988275,130.9396229,
927,E4420400105111,戸山中学校,大分県日田市藤山町213-1,1,,,33.36157282,130.9578964,
928,E4420400107111,浄化センター,大分県日田市南友田町717-1,1,,,33.32213358,130.9067097,
929,E4420400111111,羽田多目的交流館,大分県日田市日の本町2463-1,1,,,33.33466235,131.0276942,
930,E4420400110111,昭和学園高等学校,大分県日田市日ノ出町14,1,,,33.3332623581613,130.940159133029,
931,E4420400112111,日隈公民館,大分県日田市日隈町515-1,,,,33.3154826,130.9240474,
932,E4420400113111,日隈小学校,大分県日田市日隈町578-1,,,,33.3149758048965,130.925375827262,
933,E4420400114111,伏木多目的交流館,大分県日田市伏木町3512,1,,,33.381967,130.994148,
934,E4420400115111,光岡小学校,大分県日田市北友田1-1133-2,1,,,33.32846211,130.9231093,
935,E4420400116111,光岡公民館,大分県日田市北友田1-1221-1,1,,,33.328298,130.921948,
936,E4420400121111,夜明公民館,大分県日田市夜明中町1547,1,,,33.325024,130.870669,
937,E4420400122111,小野小学校,大分県日田市鈴連町1658-1,1,,,33.39432321,130.9414867,
938,E4420400123111,小野公民館（振興センター）,大分県日田市鈴連町900-3,1,,,33.381006,130.940112,
939,E4432200005111,２区公民館,大分県姫島村1438-1,,,,33.726428771815,131.64673920238,
940,E4432200006111,離島センター「やはず」,大分県姫島村1569-1,1,,,33.724343,131.645788,
941,E4432200007111,姫島小学校体育館,大分県姫島村1603,1,,,33.725418,131.644608,
942,E4432200008111,姫島村社会福祉協議会,大分県姫島村1634-1,,,,33.724261,131.645222,
943,E4432200009111,姫島村幼稚園,大分県姫島村1639-1,,,,33.724010844691,131.64499417791,
944,E4432200010111,教育委員会庁舎・軽スポーツセンター,大分県姫島村1681-2,1,,,33.725782,131.644302,
945,E4432200011112,３区公民館,大分県姫島村1827-6,,,,33.721449,131.644983,
946,E4432200011111,南浦地区漁業協同作業所,大分県姫島村1827-6,,,,33.721494,131.645155,
947,E4432200012111,姫島村保健センター,大分県姫島村2022,,,,33.723958,131.647014,
948,E4432200015111,姫島村保育所,大分県姫島村2065-1,,,,33.723555,131.648379,
949,E4432200017111,姫島中学校体育館,大分県姫島村2108-4,1,,,33.725019,131.650767,
950,E4432200018111,４区公民館,大分県姫島村2185-1,,,,33.722444,131.650589,
951,E4432200023111,５区公民館,大分県姫島村3633-7,,,,33.721762,131.67349,
952,E4432200024111,金地区公民館,大分県姫島村4762-3,,,,33.730931,131.675341,
953,E4432200026111,稲積地区漁業協同作業所,大分県姫島村4916-3,,,,33.732127380511,131.69254028836,
954,E4432200026112,稲積地区公民館,大分県姫島村4916-3,,,,33.732009925866,131.69253383069,
955,E4432200027111,姫島灯台休憩所,大分県姫島村4966-2,1,,,33.730711150292,131.7006137447,
956,E4432200031111,西浦地区漁業協同作業所,大分県姫島村859-8,,,,33.724818,131.640288,
957,E4432200031112,１区公民館,大分県姫島村859-8,,,,33.726628,131.641352,
958,E4432200032111,中央公民館（若者宿城山）,大分県姫島村948-3,,,,33.726184,131.644254,
959,E4420200004111,朝日大平山地区公民館,大分県別府市火売８組,1,,,33.308603,131.467708,
960,E4420200011111,別府中央小学校・べっぷ幼稚園,大分県別府市京町818-26,1,,,33.28801268477,131.50453155819,
961,E4420200065111,すきっぷパ－クどれみ専用ホール,大分県別府市国立第二,,,,33.333691,131.48476,
962,E4420200020111,立命館アジア太平洋大学（体育館）,大分県別府市十文字原1-1,,,,33.337635,131.47113,
963,E4420200130111,別府市鉄輪地獄地帯公園防災研修所防災会議室,大分県別府市小倉64-64,1,,,33.312428,131.460662,
964,E4420200024111,北部地区公民館,大分県別府市上人ケ浜町6-54,1,,,33.319721721726,131.49936866137,
965,E4420200026111,社会福祉会館（多目的大広間、作法室）,大分県別府市上田の湯町15-40,1,,,33.279501,131.494399,
966,E4420200027111,別府市公会堂,大分県別府市上田の湯町6-37,1,,,33.277086,131.496803,
967,E4420200029111,別府市コミュニティセンター（多目的ホール等）,大分県別府市上野口町29-13,1,,,33.289139,131.487706,
968,E4420200031111,山の手小学校（体育館）・山の手幼稚園,大分県別府市青山町5-68,1,,,33.278487572406,131.49293238888,
969,E4420200032111,べっぷアリ－ナ（体育館）,大分県別府市青山町8-37,1,,,33.277924,131.492173,
970,E4420200033111,境川小学校（体育館）・境川幼稚園,大分県別府市石垣西1-2-24,1,,,33.290204064789,131.49263325396,
971,E4420200036111,石垣小学校（体育館）・石垣幼稚園,大分県別府市石垣西7-6-27,1,,,33.30029604947,131.49346139154,
972,E4420200043111,ふれあい広場サザンクロス,大分県別府市千代町1-8,1,,,33.27464,131.503708,
973,E4420200044111,ほっぺパ－ク児童館（多目的ホール）,大分県別府市荘園６組5,1,,,33.293224,131.473113,
974,E4420200028111,別府大学第２体育館,大分県別府市大字亀川1706-1,,,,33.313403,131.490143,
975,E4420200046111,北部中学校（体育館）,大分県別府市大字亀川231,1,,,33.325904417694,131.488056,
976,E4420200048111,大平山小学校（体育館）・大平山幼稚園,大分県別府市大字鶴見1991,1,,,33.301826814482,131.46771674736,
977,E4420200050111,鶴見台中学校（体育館）,大分県別府市大字鶴見3682-3,1,,,33.29934257029,131.48941115345,
978,E4420200052111,鶴見小学校（体育館）・鶴見幼稚園,大分県別府市大字鶴見4034,1,,,33.295554290762,131.46899015079,
979,E4420200124111,朝日小学校（体育館）・朝日幼稚園,大分県別府市大字鶴見615,1,,,33.30905353917,131.47564276323,
980,E4420200055111,朝日中学校（体育館）,大分県別府市大字鶴見950-5,1,,,33.311130457649,131.466710459,
981,E4420200062111,亀川小学校（体育館）・亀川幼稚園,大分県別府市大字内竈1179,1,,,33.330415314283,131.49124059392,
982,E4420200069111,南立石小学校（体育館）・南立石幼稚園,大分県別府市大字南立石1907-1,1,,,33.288784106808,131.47275230423,
983,E4420200074111,旧浜脇中学校（体育館）,大分県別府市大字浜脇1208,1,,,33.268145571636,131.50809544048,
984,E4420200077111,東山小中学校（体育館）・東山幼稚園,大分県別府市大字別府4380-1,1,,,33.267470824054,131.44870196561,
985,E4420200078111,春木川小学校（体育館）・春木川幼稚園,大分県別府市大字北石垣1218-5,1,,,33.307018167418,131.49622199867,
986,E4420200079111,上人小学校（体育館）・上人幼稚園,大分県別府市大字北石垣171,1,,,33.316236142158,131.49229960846,
987,E4420200087111,不老泉（集会室）,大分県別府市中央町7-16,1,,,33.277089,131.500386,
988,E4420200090111,別府西中学校（体育館）,大分県別府市中島町7-49,1,,,33.273875,131.49244,
989,E4420200133111,西部地区公民館,大分県別府市鶴見園町2-7,1,,,33.285938,131.480832,
990,E4420200129111,中部中学校（体育館）,大分県別府市東荘園町4-1-15,1,,,33.293032,131.489531,
991,E4420200132111,緑丘小学校（体育館）・緑丘幼稚園,大分県別府市東荘園町8-1-45,1,,,33.296942,131.485633,
992,E4420200134111,中部地区公民館,大分県別府市南須賀町2-26,1,,,33.302036,131.49028,
993,E4420200131111,青山中学校（体育館）,大分県別府市南荘園町6-31,1,,,33.288409,131.482742,
994,E4420200110111,南部地区公民館,大分県別府市浜脇1-8-20,1,,,33.269663,131.508381,
995,E4420200111111,南小学校（体育館）・南幼稚園,大分県別府市浜脇3-7-13,1,,,33.270646416496,131.5032842209,
996,E4420200112111,あすなろ館（遊戯ホール等）,大分県別府市平田町14-24,1,,,33.321452,131.495611,
997,E4420200118111,野口ふれあい交流センター,大分県別府市野口元町12-43,1,,,33.28391,131.499352,
998,E4420200120111,明豊高校（アリーナ）,大分県別府市野口原3088,,,,33.283897,131.484532,
999,E4420900002111,並石ダムグリーンランド,大分県豊後高田市一畑1587,,,,33.564457,131.569303,
1000,E4420900003111,臼野小学校,大分県豊後高田市臼野2874,1,,,33.6276451826769,131.493111394644,
1001,E4420900004111,臼野公民館,大分県豊後高田市臼野3077,,,,33.628642,131.489973,
1002,E4420900050121,豊後高田市老人介護支援センター,大分県豊後高田市臼野4335-3,,,市が特定した避難行動要支援者及びその家族等,33.63049,131.476488,
1003,E4420900050122,豊後高田市立デイサービスセンター　周防苑,大分県豊後高田市臼野4335-3,,,市が特定した避難行動要支援者及びその家族等,33.630263,131.476298,
1004,E4420900007111,楢林老人憩いの家,大分県豊後高田市界1200-4,,,,33.539862,131.427901,
1005,E4420900009111,白石集会所,大分県豊後高田市界1611,,,,33.547016,131.432589,
1006,E4420900010111,犬田老人憩いの家,大分県豊後高田市界398,,,,33.548274,131.429226,
1007,E4420900011111,桂陽小学校,大分県豊後高田市玉津1053,1,,,33.5631572851411,131.442166792188,
1008,E4420900012111,大分県立高田高等学校,大分県豊後高田市玉津1834-1,1,,,33.5674095096075,131.443614524215,
1009,E4420900013111,高田中学校,大分県豊後高田市玉津473,1,,,33.5622824674534,131.446425479267,
1010,E4420900014111,中央公民館,大分県豊後高田市玉津987,,,,33.562356,131.442698,
1011,E4420900015111,三浦小学校,大分県豊後高田市堅来4455,1,,,33.639584098983,131.500919540224,
1012,E4420900051121,豊後高田市生活支援ハウス,大分県豊後高田市見目104,,,市が特定した避難行動要支援者及びその家族等,33.664247,131.528735,
1013,E4420900016111,香々地公民館,大分県豊後高田市見目110,,,,33.6641325620766,131.527701598251,
1014,E4420900018111,呉崎小学校,大分県豊後高田市呉崎1551,,,,33.579329,131.446823,
1015,E4420900053122,地域活動支援センターすばる,大分県豊後高田市呉崎760,,市が特定した避難行動要支援者及びその家族等,50,33.578337,131.431271,
1016,E4420900019111,香々地中学校,大分県豊後高田市香々地3400,1,,,33.6646013660669,131.52655361279,
1017,E4420900020111,大分県立香々地青少年の家,大分県豊後高田市香々地5151,,,,33.671732,131.510271,
1018,E4420900023111,河内公民館,大分県豊後高田市佐野2017,1,,,33.535144,131.467259,
1019,E4420900023112,河内小学校,大分県豊後高田市佐野2017,1,,,33.5343387890166,131.467312299683,
1020,E4420900024111,河内中学校,大分県豊後高田市佐野4993,1,,,33.5365347371431,131.465212446168,
1021,E4420900025111,戴星学園,大分県豊後高田市松行363,1,,,33.5657175154302,131.521068776939,
1022,E4420900026111,西都甲公民館,大分県豊後高田市松行55,,,,33.564602,131.510958,
1023,E4420900027111,旧三重小学校,大分県豊後高田市上香々地4389,1,,,33.6283658441063,131.539969642421,
1024,E4420900029111,東都甲公民館,大分県豊後高田市新城1885-3,,,,33.554196,131.548499,
1025,E4420900030111,旧都甲小学校,大分県豊後高田市新城83,1,,,33.559999,131.526516,
1026,E4420900031111,隣保館,大分県豊後高田市新地1278,,,,33.553363,131.439671,
1027,E4420900032111,高田小学校,大分県豊後高田市新地1460,,,,33.552055,131.438375,
1028,E4420900033111,勤労青少年ホーム,大分県豊後高田市新町1007-4,,,,33.557315,131.438928,
1029,E4420900035121,豊後高田市高田庁舎（２階）,大分県豊後高田市是永町39-3,,,要配慮者及びその家族等,33.556231,131.447082,
1030,E4420900035111,豊後高田市高田庁舎,大分県豊後高田市是永町39-3,,,,33.556231,131.447082,
1031,E4420900054122,障害福祉サービス事業所ひまわり苑,大分県豊後高田市西真玉2077-3,,,市が特定した避難行動要支援者及びその家族等,33.602847,131.46859,
1032,E4420900038111,真玉体育センター,大分県豊後高田市西真玉3331,,,,33.599989,131.477837,
1033,E4420900039111,草地公民館,大分県豊後高田市草地292-2,1,,,33.575413,131.461248,
1034,E4420900039112,草地小学校,大分県豊後高田市草地292-2,1,,,33.576425004591,131.461425680068,
1035,E4420900040111,真玉公民館,大分県豊後高田市中真玉2144-12,,,,33.609147,131.475478,
1036,E4420900042111,真玉小学校,大分県豊後高田市中真玉5809,1,,,33.6004092584195,131.492545534806,
1037,E4420900043111,田染小学校,大分県豊後高田市田染相原50,1,,,33.5145164301994,131.520344936312,
1038,E4420900044111,田染中学校,大分県豊後高田市田染池部1742,1,,,33.5157016509691,131.51976557917,
1039,E4420900046111,健康交流センター花いろ,大分県豊後高田市美和1335-1,,,,33.551042,131.458774,
1040,E4420900052121,障害者支援施設コスモス,大分県豊後高田市美和1684,,,市が特定した避難行動要支援者及びその家族等,33.556099,131.459485,
1041,E4420900047111,西土居集会所,大分県豊後高田市来縄2475-1,,,,33.549772,131.443734,
1042,E4421200001111,犬飼小学校体育館,大分県豊後大野市犬飼町久原711,1,,,33.0716125,131.641605,
1043,E4421200002111,犬飼中学校体育館,大分県豊後大野市犬飼町久原900,1,,,33.072755,131.6401094,
1044,E4421200003111,犬飼公民館,大分県豊後大野市犬飼町田原1476,1,,,33.06620861,131.6322819,
1045,E4421200004111,新田小学校体育館,大分県豊後大野市三重町久田1220,1,,,32.97062333,131.5585483,
1046,E4421200005111,三重農村環境改善センター,大分県豊後大野市三重町玉田1128,1,,,32.97803806,131.5725081,
1047,E4421200006111,三重第一小学校体育館,大分県豊後大野市三重町市場1062-1,1,,,32.97798167,131.5796211,
1048,E4421200007111,中央公民館,大分県豊後大野市三重町市場1200,1,,,32.97757861,131.5840969,
1049,E4421200008111,三重東小学校体育館,大分県豊後大野市三重町小坂3959,1,,,32.98968028,131.6098614,
1050,E4421200009111,百枝小学校体育館,大分県豊後大野市三重町西泉1512,1,,,33.00170194,131.5778117,
1051,E4421200011111,菅尾小学校体育館・すがお地域交流センター,大分県豊後大野市三重町浅瀬3304,1,,,33.0199625,131.6161736,
1052,E4421200012111,三重中学校体育館,大分県豊後大野市三重町内田1050,1,,,32.97767722,131.5900128,
1053,E4421200013111,大原総合体育館,大分県豊後大野市三重町百枝1086-35,1,,,32.98959972,131.5854189,
1054,E4421200014111,緒方小学校体育館,大分県豊後大野市緒方町馬場100,1,,,32.97289472,131.4731122,
1055,E4421200015111,緒方公民館,大分県豊後大野市緒方町馬場41-1,1,,,32.970761850613,131.47315502251,
1056,E4421200017111,清川小中学校体育館,大分県豊後大野市清川町砂田1795,1,,,32.96815833,131.5147772,
1057,E4421200018111,神楽会館,大分県豊後大野市清川町砂田810,1,,,32.9719125,131.5190208,
1058,E4421200021111,千歳公民館,大分県豊後大野市千歳町新殿706-1,1,,,33.040327139606,131.59660820846,
1059,E4421200023111,千歳小中学校体育館,大分県豊後大野市千歳町新殿809-1,1,,,33.04080472,131.5977483,
1060,E4421200024111,大野中学校体育館,大分県豊後大野市大野町田中2135,1,,,33.04283056,131.5009308,
1061,E4421200025111,大野小学校体育館,大分県豊後大野市大野町田中2261,1,,,33.04207583,131.5018522,
1062,E4421200026111,豊後大野市隣保館,大分県豊後大野市大野町田中74-1,1,,,33.03844306,131.5016886,
1063,E4421200027111,大野公民館,大分県豊後大野市大野町田中81-1,1,,,33.03842,131.50161,
1064,E4421200028111,朝地小中学校体育館,大分県豊後大野市朝地町朝地2030,1,,,33.01294806,131.4300219,
1065,E4421200029111,朝地公民館,大分県豊後大野市朝地町坪泉494,1,,,33.00269333,131.4302725,
1066,E4421300008111,旧阿蘇野小学校,大分県由布市庄内町阿蘇野4331,1,,,33.137386207069,131.34567733155,
1067,E4421300088121,特別養護老人ホーム　慶寿苑,大分県由布市庄内町柿原1569-1,,,,33.175871,131.420691,
1068,E4421300089121,養護老人ホーム　寿楽苑,大分県由布市庄内町柿原1602,,,,33.175305,131.420696,
1069,E4421300009111,由布市役所本庁舎,大分県由布市庄内町柿原302,1,,,33.179996205471,131.42684245611,
1070,E4421300105111,庄内中学校,大分県由布市庄内町柿原49,1,,,33.1856564858364,131.435930336424,
1071,E4421300092121,障害者支援施設　小松寮,大分県由布市庄内町高岡2379-13,,,,33.200728,131.401922,
1072,E4421300011112,西庄内小学校,大分県由布市庄内町高岡417-1,1,,,33.1842853287148,131.409845460943,
1073,E4421300011111,西庄内幼稚園,大分県由布市庄内町高岡417-1,1,,,33.1840339130477,131.409502138181,
1074,E4421300100122,指定障害者支援施設　向陽学園,大分県由布市庄内町小挾間1027-1,,,,33.222845,131.448647,
1075,E4421300012111,ほのぼの工芸館,大分県由布市庄内町庄内原321-4,1,,,33.183759,131.400073,
1076,E4421300013111,ほのぼの温泉館,大分県由布市庄内町庄内原355-1,1,,,33.183493,131.400057,
1077,E4421300070111,ほのぼのプラザ,大分県由布市庄内町庄内原365-1,1,,,33.184055540959,131.4001776193,
1078,E4421300015111,ゆふ移住交流センター星とぴあ,大分県由布市庄内町西1062-1,1,,,33.189927446367,131.37325450429,
1079,E4421300090121,社会福祉法人庄内厚生館地域交流ホーム,大分県由布市庄内町西長宝1433-1,,,,33.195108,131.447124,
1080,E4421300094111,由布支援学校,大分県由布市庄内町西長宝1796,1,,,33.1876849177062,131.449238178541,
1081,E4421300094121,大分県立由布支援学校,大分県由布市庄内町西長宝1796,1,,,33.187682,131.449147,
1082,E4421300087121,特別養護老人ホーム　情和園,大分県由布市庄内町西長宝870-1,,,,33.196251,131.442125,
1083,E4421300087123,情和園デイサービスセンターハッピー,大分県由布市庄内町西長宝870-1,,,,33.196155,131.442153,
1084,E4421300087122,情和園デイサービスセンター,大分県由布市庄内町西長宝870-1,,,,33.196093,131.442118,
1085,E4421300017111,庄内屋内競技場,大分県由布市庄内町大龍1314,1,,,33.1758749229923,131.430616858733,
1086,E4421300018112,庄内公民館,大分県由布市庄内町大龍1400,1,,,33.179568,131.431017,
1087,E4421300101111,東庄内小学校,大分県由布市庄内町大龍1835,1,,,33.1764578183271,131.435286662289,
1088,E4421300071111,大龍東部１区自治公民館,大分県由布市庄内町大龍2031-2,1,,,33.177680915035,131.44074016513,
1089,E4421300106111,庄内体育センター,大分県由布市庄内町大龍2131,1,,,33.1784487960655,131.443312379382,
1090,E4421300021111,由布高等学校,大分県由布市庄内町大龍2674-1,1,,,33.1821814735247,131.453307146588,
1091,E4421300022111,直山公民館,大分県由布市庄内町直野内山719-5,1,,,33.1545566573239,131.356559327349,
1092,E4421300107111,旧大津留小学校体育館,大分県由布市庄内町東大津留636,1,,,33.211490308325,131.441225835,
1093,E4421300108111,阿南小学校,大分県由布市庄内町東長宝523,1,,,33.1863317597599,131.45268353627,
1094,E4421300109111,阿南幼稚園,大分県由布市庄内町東長宝558,1,,,33.1869190588768,131.453072847061,
1095,E4421300026111,庄内ゆうゆう館,大分県由布市庄内町畑田851,1,,,33.197771318076,131.422473065732,
1096,E4421300028111,龍原自治公民館,大分県由布市庄内町龍原939,1,,,33.1680081075094,131.460378649964,
1097,E4421300093121,老人デイサービスセンターハニカム青春塾,大分県由布市庄内町櫟木982,,,,33.188278,131.464448,
1098,E4421300030111,幸野公民館（下湯平農民研修センター）,大分県由布市湯布院町下湯平2500-1,1,,,33.1956704383687,131.361893771702,
1099,E4421300102111,畑地区自治公民館,大分県由布市湯布院町下湯平582-2,1,,,33.196448,131.351008,
1100,E4421300103111,湯平地区公民館,大分県由布市湯布院町下湯平796,1,,,33.192855220442,131.33896072883,
1101,E4421300032111,温湯区公民館,大分県由布市湯布院町川上1525-1,1,,,33.2675863378088,131.363794222086,
1102,E4421300033111,若杉地区自治公民館,大分県由布市湯布院町川上185-1,1,,,33.28664833668,131.34196501425,
1103,E4421300034111,湯布院健康温泉館,大分県由布市湯布院町川上2863,1,,,33.2607745521599,131.359900999848,
1104,E4421300034112,湯布院福祉センター,大分県由布市湯布院町川上2863,1,,,33.2612298429601,131.359455753148,
1105,E4421300035111,乙丸地区公民館,大分県由布市湯布院町川上2938-1,1,,,33.26344293111,131.35709405815,
1106,E4421300036111,乙丸温泉館,大分県由布市湯布院町川上2946-1,1,,,33.2640891951933,131.358196272377,
1107,E4421300038111,ゆふいんラックホール,大分県由布市湯布院町川上3738-1,1,,,33.264358501273,131.35560141879,
1108,E4421300104111,由布院小学校,大分県由布市湯布院町川上3758,1,,,33.264174585253,131.35474842241,
1109,E4421300110111,並柳地区自治公民館,大分県由布市湯布院町川上643-1,1,,,33.275581443252,131.35425430534,
1110,E4421300041111,佐土原地区集会所,大分県由布市湯布院町川上854-3,1,,,33.273137152237,131.36255842444,
1111,E4421300042111,奥江公民館,大分県由布市湯布院町川西1981,1,,,33.21533321057,131.302501370363,
1112,E4421300043111,川西小学校,大分県由布市湯布院町川西3716,1,,,33.2357161528131,131.32410653166,
1113,E4421300044111,山崎地区集会所,大分県由布市湯布院町川南1162-7,1,,,33.252009407395,131.35114941812,
1114,E4421300045111,東石松３集会所,大分県由布市湯布院町川南35-1,1,,,33.259491607353,131.35513734416,
1115,E4421300046111,西石松地区集会所,大分県由布市湯布院町川南387-1,1,,,33.254220108881,131.35718434703,
1116,E4421300099121,有料老人ホーム　虹色,大分県由布市湯布院町川北1005-1,,,,33.261323,131.343932,
1117,E4421300047111,湯布院中学校,大分県由布市湯布院町川北1179,1,,,33.256414993306,131.34567880478,
1118,E4421300048111,湯布院Ｂ＆Ｇ海洋センター,大分県由布市湯布院町川北1205,1,,,33.2569145498889,131.344266982314,
1119,E4421300049111,石光地区集会所,大分県由布市湯布院町川北1243-2,1,,,33.259976128487,131.34177011971,
1120,E4421300096121,特別養護老人ホーム　白心荘,大分県由布市湯布院町川北1354-13,,,,33.25961,131.335923,
1121,E4421300098121,特別養護老人ホーム　温水園,大分県由布市湯布院町川北1964,,,,33.248401,131.336791,
1122,E4421300050111,荒木地区自治公民館,大分県由布市湯布院町川北241-1,1,,,33.262305795636,131.34679941033,
1123,E4421300111111,下依区公民館,大分県由布市湯布院町中川1050-1,1,,,33.2417705863693,131.334924339057,
1124,E4421300052111,川西農村健康交流センター（川西地区公民館）,大分県由布市湯布院町中川1358-1,1,,,33.240052906956,131.32471433146,
1125,E4421300053111,中依地区集会所,大分県由布市湯布院町中川330,1,,,33.244987484859,131.34052021906,
1126,E4421300112111,塚原小学校体育館・塚原地区自治公民館,大分県由布市湯布院町塚原510-2,1,,,33.306868235879,131.38704263279,
1127,E4421300083121,介護老人保健施設　健寿荘,大分県由布市挾間町鬼崎4-1,,,,33.195149,131.527447,
1128,E4421300081121,ケアハウス　豊友館,大分県由布市挾間町鬼崎4-16,,,,33.194593,131.526882,
1129,E4421300073112,由布川地域交流センター,大分県由布市挾間町古野115-1,1,,,33.211291,131.524633,
1130,E4421300056111,由布川小学校,大分県由布市挾間町古野211-1,1,,,33.210582242618,131.52900178051,
1131,E4421300084121,介護老人保健施設　ケアポート川崎,大分県由布市挾間町古野264,,,,33.210141,131.531269,
1132,E4421300082121,特別養護老人ホーム　若葉苑,大分県由布市挾間町向原1215-2,,,,33.19653,131.502729,
1133,E4421300080111,由布市役所挾間庁舎,大分県由布市挾間町向原128-1,1,,,33.198153177692,131.51339353373,
1134,E4421300057111,挾間体育センター,大分県由布市挾間町向原17-2,1,,,33.195861296994,131.517722495939,
1135,E4421300113111,挾間中学校,大分県由布市挾間町向原440,1,,,33.2004132333884,131.510047956297,
1136,E4421300060111,挾間小学校,大分県由布市挾間町向原89,1,,,33.1988255511229,131.514905277509,
1137,E4421300074113,時松農事集会所,大分県由布市挾間町時松632-2,1,,,33.205205,131.454269,
1138,E4421300085121,障害者支援施設大分県　のぞみ園,大分県由布市挾間町赤野339-1,,,,33.210686,131.50465,
1139,E4421300075112,赤野自治公民館,大分県由布市挾間町赤野409-4,1,,,33.209648,131.505735,
1140,E4421300076112,丸田公民館,大分県由布市挾間町赤野819-2,1,,,33.211236,131.496229,
1141,E4421300063111,谷小学校,大分県由布市挾間町谷699,1,,,33.1865287901213,131.492930535561,
1142,E4421300077112,中恵自治公民館,大分県由布市挾間町谷728-3,1,,,33.184756,131.493844,
1143,E4421300064111,南田代ふれあいホール,大分県由布市挾間町田代378-1,1,,,33.223613855949,131.48568067361,
1144,E4421300065111,旧石城西部小学校,大分県由布市挾間町田代388,1,,,33.2255359770176,131.484886365024,
1145,E4421300066111,詰公民館,大分県由布市挾間町内成3397-1,1,,,33.22463829722,131.46659494245,
1146,E4421300078112,朴木農事集会所,大分県由布市挾間町朴木638-2,1,,,33.219544,131.456399,
1147,E4421300067111,旧朴木小学校,大分県由布市挾間町朴木729-1,1,,,33.2193101567528,131.457693939885,
1148,E4421300079112,来鉢自治公民館,大分県由布市挾間町来鉢1210-1,1,,,33.219319,131.509724,
1149,E4421300068111,石城小学校,大分県由布市挾間町来鉢31-1,1,,,33.2228017484532,131.523198177337,
1150,E4421300086121,石城コミュニティースペース　庵,大分県由布市挾間町来鉢61,,,,33.222658,131.522547,
1151,E4421300069111,はさま未来館,大分県由布市挾間町挾間104-1,1,,,33.199242874289,131.513232842622,
