NO,共通ID,施設・場所名,住所,指定緊急避難場所との住所同一,その他市町村長が必要と認める事項,受入対象者,緯度,経度,備考
1,E4520900001111,岡元小学校体育館,宮崎県えびの市大字浦371,,,,32.02125931,130.7856976,
2,E4520900002111,えびの市国際交流センター,宮崎県えびの市大字榎田388-1,,,,32.05662755,130.8108814,
3,E4520900023112,南岡松公民館,宮崎県えびの市大字岡松1412-2,1,,,32.046853,130.754192,
4,E4520900003111,加久藤地区体育館,宮崎県えびの市大字栗下1168-13,,,,32.0456718,130.809285,
5,E4520900004111,加久藤中学校体育館,宮崎県えびの市大字栗下1269-1,,,,32.0447343,130.8109513,
6,E4520900005111,加久藤小学校体育館,宮崎県えびの市大字栗下151,,,,32.0460882,130.8136513,
7,E4520900006111,加久藤地区コミュニティセンター,宮崎県えびの市大字栗下64-1,,,,32.04457966,130.8128684,
8,E4520900007111,飯野小学校体育館,宮崎県えびの市大字原田110,,,,32.04755325,130.8671267,
9,E4520900008111,高齢者交流プラザ,宮崎県えびの市大字原田112-1,,,,32.046016,130.8674356,
10,E4520900009121,飯野地区コミュニティセンター,宮崎県えびの市大字原田112-11,1,,要配慮者、一般,32.046543,130.866803,
11,E4520900009111,飯野地区コミュニティセンター,宮崎県えびの市大字原田112-11,1,,,32.046543,130.866803,
12,E4520900010111,飯野中学校体育館,宮崎県えびの市大字原田190,,,,32.04548762,130.8707777,
13,E4520900011111,飯野駅前地区体育館,宮崎県えびの市大字原田2176,1,,,32.033567,130.872797,
14,E4520900012111,えびの市民体育館,宮崎県えびの市大字原田3056,,,,32.04472973,130.868628,
15,E4520900013111,真幸地区体育館,宮崎県えびの市大字向江1188-10,,,,32.043893,130.760976,
16,E4520900014111,えびの市老人福祉センター,宮崎県えびの市大字向江491-4,,,,32.048344,130.769248,
17,E4520900014121,えびの市老人福祉センター,宮崎県えびの市大字向江491-4,,,要配慮者、一般,32.04851921,130.7693014,
18,E4520900015111,真幸地区コミュニティセンター,宮崎県えびの市大字向江798,,,,32.04885163,130.763152,
19,E4520900016111,高野コミュニティセンター,宮崎県えびの市大字坂元1666,,,,32.0978831,130.8498257,
20,E4520900017111,上江小中学校体育館,宮崎県えびの市大字上江1580,,,,32.03264586,130.8476264,
21,E4520900018111,旧上江中学校体育館,宮崎県えびの市大字上江1735,,,,32.02844698,130.8451894,
22,E4520900019111,上江地区体育館,宮崎県えびの市大字上江1780-1,1,,,32.028676,130.843645,
23,E4520900020111,旧大河平小学校体育館,宮崎県えびの市大字大河平2410,,,,32.062756182382,130.915381193529,
24,E4520900028111,えびの市防災食育センター,宮崎県えびの市大字大明司1019-1,,,,32.05265,130.828946,
25,E4520900021112,えびの市保健センター,宮崎県えびの市大字大明司2146-2,1,,,32.05230957,130.8269055,
26,E4520900021111,えびの市文化センター,宮崎県えびの市大字大明司2146-2,1,,,32.05230957,130.8269055,
27,E4520900021121,えびの市文化センター,宮崎県えびの市大字大明司2146-2,1,,要配慮者、一般,32.05230957,130.8269055,
28,E4520900022112,中浦自治公民館,宮崎県えびの市大字島内2044-2,1,,,32.043173,130.779485,
29,E4520900027111,尾八重野コミュニティセンター,宮崎県えびの市大字東長江浦1652-368,,,,31.9923615921783,130.819726878286,
30,E4538300001111,揚町公民館,宮崎県綾町大字南俣1092-2,,,,31.997107,131.245835,
31,E4538300003111,中川原集会所,宮崎県綾町大字南俣1192-1,,,,31.994229,131.244509,
32,E4538300005111,四枝公民館,宮崎県綾町大字南俣2017-2,1,,,31.997203,131.231845,
33,E4538300007111,中堂公民館,宮崎県綾町大字南俣2534-1,1,,,31.997987,131.24012,
34,E4538300009111,西中坪公民館,宮崎県綾町大字南俣281-1,,,,31.997351,131.258611,
35,E4538300008111,綾小学校,宮崎県綾町大字南俣2811,,,,32.000939,131.251737,
36,E4538300011111,南麓公民館,宮崎県綾町大字南俣323-1,,,,31.998227,131.255841,
37,E4538300013111,宮谷公民館,宮崎県綾町大字南俣4365-1,,,,31.990932,131.244592,
38,E4538300015111,大平山公民館,宮崎県綾町大字南俣4877-2,,,,31.982899,131.247962,
39,E4538300016111,二反野公民館,宮崎県綾町大字南俣5176-32,,,,31.982331,131.222881,
40,E4538300019111,綾町武道館,宮崎県綾町大字南俣543,,,,31.995524,131.254925,
41,E4538300020111,綾町体育館,宮崎県綾町大字南俣545,,,,31.995883,131.254794,
42,E4538300021112,綾町中央公民館,宮崎県綾町大字南俣546,,,,31.996004,131.255723,
43,E4538300021111,綾町高年者研修センター,宮崎県綾町大字南俣546,,,,31.995514,131.255615,
44,E4538300022111,陣之尾公民館,宮崎県綾町大字南俣5511-158,1,,,31.997647,131.212592,
45,E4538300023111,倉輪公民館,宮崎県綾町大字南俣5586-1,,,,31.993796,131.203654,
46,E4538300024111,広沢公民館,宮崎県綾町大字南俣5639-1,,,,31.9918577663347,131.170959399145,
47,E4538300025111,八日町公民館,宮崎県綾町大字南俣69-18,,,,31.994778,131.267404,
48,E4538300026111,立町公民館,宮崎県綾町大字南俣777-1,,,,31.997436,131.250775,
49,E4538300028111,東中坪公民館,宮崎県綾町大字入野1197-1,,,,31.999201,131.260521,
50,E4538300029111,神下公民館,宮崎県綾町大字入野1204-2,,,,31.999617,131.262138,
51,E4538300031111,尾原公民館,宮崎県綾町大字入野1456-1,,,,31.985248,131.254163,
52,E4538300033111,古屋公民館,宮崎県綾町大字入野2223-1,,,,31.988581,131.261988,
53,E4538300034111,昭和公民館,宮崎県綾町大字入野2841-2,,,,31.992961,131.273572,
54,E4538300035111,上畑公民館,宮崎県綾町大字入野29-3,,,,31.999548,131.224199,
55,E4538300036111,元町公民館,宮崎県綾町大字入野30-1,,,,31.993936,131.263347,
56,E4538300037111,宮原公民館,宮崎県綾町大字入野4133-3,1,,,32.004203,131.268884,
57,E4538300040111,久木野々公民館,宮崎県綾町大字入野5598,,,,32.028098,131.260275,
58,E4538300041111,北麓公民館,宮崎県綾町大字北俣1405,,,,32.008809,131.249665,
59,E4538300042111,杢道公民館,宮崎県綾町大字北俣1593-2,,,,32.012681,131.243203,
60,E4538300043111,割付公民館,宮崎県綾町大字北俣2047,,,,32.011786,131.235307,
61,E4538300049111,小田爪公民館,宮崎県綾町大字北俣4119-1,,,,32.015263235517,131.246604582751,
62,E4538300050111,綾てるはドーム,宮崎県綾町大字北俣445-2,,,,32.000817,131.256839,
63,E4538300051111,綾中学校,宮崎県綾町大字北俣490,,,,32.001046,131.254443,
64,E4538300052111,尾立公民館,宮崎県綾町大字北俣4926-5,1,,,32.018001,131.221556,
65,E4538300053111,麓公民館,宮崎県綾町大字北俣539-1,,,,32.003504538807,131.251743695218,
66,E4538300055111,竹野公民館,宮崎県綾町北俣中尾国有林９１班2,,,,32.031555,131.212923,
67,E4520300026111,伊形小学校体育館,宮崎県延岡市伊形町5700,1,,,32.529519,131.667596,
68,E4520300031111,東海小学校体育館,宮崎県延岡市稲葉崎町1-1703,1,,,32.607886,131.677637,
69,E4520300060111,みのり園,宮崎県延岡市岡元町630-1,,,,32.567084,131.562622,
70,E4520300060121,特別養護老人ホーム　みのり園,宮崎県延岡市岡元町630-1,,,要配慮者,32.566715,131.562965,
71,E4520300062121,特別養護老人ホーム　ふれあいの里,宮崎県延岡市沖田町2240-1,,,要配慮者,32.541628,131.668433,
72,E4520300069111,下三輪多目的営農集会場,宮崎県延岡市下三輪町1320,1,,,32.560414,131.61217,
73,E4520300074111,九州保健福祉大学大学会館,宮崎県延岡市吉野町1714-1,1,,,32.567850581971,131.61652017994,
74,E4520300081121,障害児・者支援施設　ひかり学園,宮崎県延岡市櫛津町3427-4,,,要配慮者,32.505683,131.679433,
75,E4520300095111,延岡西小学校東校舎１階,宮崎県延岡市古城町2-9-9,1,,,32.568538,131.658977,
76,E4520300097111,県立延岡高校第２教室棟,宮崎県延岡市古城町3-233,1,,,32.56967,131.657356,
77,E4520300099111,延岡市立恒富中学校,宮崎県延岡市古城町4-149,1,,,32.565357,131.65635,
78,E4520300100111,古川町公民館,宮崎県延岡市古川町327-3,1,,,32.588463,131.650667,
79,E4520300101111,岡富コミュニティセンター,宮崎県延岡市幸町2-125,1,,,32.588173151596,131.67075030356,
80,E4520300105111,宮崎県むかばき青少年自然の家,宮崎県延岡市行縢町760-3,,,,32.617098545993,131.57727285275,
81,E4520300108111,岡富小学校体育館,宮崎県延岡市高千穂通3830,1,,,32.587354,131.666091,
82,E4520300113112,上南方小学校体育館,宮崎県延岡市細見町2971-13,1,,,32.57515,131.586959,
83,E4520300113111,南方中学校屋内運動場,宮崎県延岡市細見町2971-13,1,,,32.573651558212,131.58562489466,
84,E4520300118111,県立延岡商業高校体育館,宮崎県延岡市桜ケ丘3-7122,1,,,32.615854,131.668867,
85,E4520300121111,延岡市社会福祉センター,宮崎県延岡市三ツ瀬町1-12-4,1,,,32.574741,131.665939,
86,E4520300122111,法明寺,宮崎県延岡市三須町1319,1,,,32.561175,131.648732,
87,E4520300129111,千光寺,宮崎県延岡市祝子町3059,,,,32.605285,131.656104,
88,E4520300148111,小峰農業集落多目的集会所,宮崎県延岡市小峰町6958-1,,,,32.5819,131.628472,
89,E4520300162121,特別養護老人ホーム　敬寿園,宮崎県延岡市昭和町3-9-3,1,,要配慮者,32.589136,131.683716,
90,E4520300167111,本東寺,宮崎県延岡市松山町1133,1,,,32.585146,131.635209,
91,E4520300192111,西階陸上競技場,宮崎県延岡市西階町1-3800,1,,,32.570631,131.641332,
92,E4520300193111,西階中学校１Ｆ多目的ホール,宮崎県延岡市西階町1-4042-3,1,,,32.573083188126,131.64094153662,
93,E4520300217111,祐国寺,宮崎県延岡市川島町951-11,1,,,32.622413,131.69312,
94,E4520300241121,特別養護老人ホーム　水明荘,宮崎県延岡市鯛名町908-1,,,要配慮者,32.50643,131.69561,
95,E4520300242111,延岡市民体育館,宮崎県延岡市大貫町1-2894,1,,,32.580906,131.656333,
96,E4520300243111,延岡小学校体育館,宮崎県延岡市大貫町1-3000,1,,,32.578991,131.657535,
97,E4520300245111,延岡学園高校体育館,宮崎県延岡市大峡町7820,1,,,32.626127,131.677577,
98,E4520300249121,障害者支援施設　清松園　やわらぎの里,宮崎県延岡市大武町5334,1,,要配慮者,32.596778,131.688526,
99,E4520300255111,黒岩小中学校体育館,宮崎県延岡市大野町744-2,1,,,32.62957,131.624877,
100,E4520300259111,旭小学校体育館,宮崎県延岡市中川原町2-4623,1,,,32.594971,131.670349,
101,E4520300281111,天下地区多目的集会場,宮崎県延岡市天下町1151,1,,,32.570492,131.625873,
102,E4520300295111,延岡市公営住宅土々呂団地集会室,宮崎県延岡市土々呂町5-2378-1,,,,32.507031962974,131.66991249732,
103,E4520300299111,ポリテクセンター延岡　研修生ホール,宮崎県延岡市土々呂町6-3028,1,,,32.503513592912,131.67305727117,
104,E4520300300121,養護老人ホーム若葉荘,宮崎県延岡市土々呂町6-3028-9,1,,要配慮者,32.503180137862,131.67383785649,
105,E4520300316111,港小学校体育館,宮崎県延岡市東海町182,1,,,32.600764,131.70916,
106,E4520300324121,幼保連携型認定こども園一ツ岡南幼稚園,宮崎県延岡市南一ケ岡2-14-1,1,,要配慮者,32.520928,131.677215,
107,E4520300359111,旭中学校体育館,宮崎県延岡市富美山町298-1,1,,,32.594589,131.664488,
108,E4520300367111,県立延岡青朋高校体育館,宮崎県延岡市平原町2-2618-2,1,,,32.549145,131.671904,
109,E4520300445121,特別養護老人ホーム　千寿園,宮崎県延岡市北浦町古江2693,,,要配慮者,32.709131,131.816394,
110,E4520300455111,梅木生活改善センター,宮崎県延岡市北浦町三川内1405,1,,,32.774427,131.803329,
111,E4520300456111,三川内小中学校体育館,宮崎県延岡市北浦町三川内2761,1,,,32.764608,131.79427,
112,E4520300472111,大崩研修棟,宮崎県延岡市北川町川内名10457-1,1,,,32.729285,131.563829,
113,E4520300474111,下塚集会所,宮崎県延岡市北川町川内名1227,1,,,32.784069,131.728458,
114,E4520300475111,松瀬集会所,宮崎県延岡市北川町川内名1865,,,,32.750444,131.716852,
115,E4520300476111,瀬口集会所,宮崎県延岡市北川町川内名3132-32,,,,32.72222,131.719479,
116,E4520300478111,深瀬集会所,宮崎県延岡市北川町川内名5698-6,,,,32.708394,131.700884,
117,E4520300480111,北川コミュニティセンター,宮崎県延岡市北川町川内名7250,1,,,32.69021,131.694452,
118,E4520300482111,深崎集会所,宮崎県延岡市北川町川内名8497,1,,,32.717841,131.660324,
119,E4520300484111,下赤集会所,宮崎県延岡市北川町川内名9545-3,1,,,32.749153,131.630352,
120,E4520300485111,上赤集会所,宮崎県延岡市北川町川内名9862,,,,32.765759,131.617296,
121,E4520300487111,飛石集会所,宮崎県延岡市北川町長井5144-1,,,,32.672805,131.699525,
122,E4520300488121,特別養護老人ホーム　きたがわ荘,宮崎県延岡市北川町長井5565-8,,,要配慮者,32.665273944084,131.70459737301,
123,E4520300490111,俵野営農研修センター,宮崎県延岡市北川町長井6565-2,,,,32.651874,131.691977,
124,E4520300493111,旧下鹿川小学校体育館,宮崎県延岡市北方町下鹿川申214,,,,32.670003,131.447304,
125,E4520300494111,角田多目的研修館,宮崎県延岡市北方町角田丑,,,,32.562046,131.54564,
126,E4520300495121,障害者支援施設　はまゆう園,宮崎県延岡市北方町角田丑1369-35,,,要配慮者,32.557918152986,131.5292960086,
127,E4520300496111,足鍋公民館,宮崎県延岡市北方町角田丑738-1,,,,32.560929,131.538396,
128,E4520300498111,笠下黒原営農研修館,宮崎県延岡市北方町笠下寅167-3,1,,,32.550374998273,131.53738855952,
129,E4520300499111,笠下臼太鼓伝承館,宮崎県延岡市北方町笠下寅907-3,,,,32.556607637403,131.54518035386,
130,E4520300500111,三ケ村公民館,宮崎県延岡市北方町三ケ村,,,,32.622030183956,131.48255603307,
131,E4520300503111,神楽館,宮崎県延岡市北方町上鹿川申1000-2,,,,32.704468,131.480671,
132,E4520300505111,菅原営農研修館,宮崎県延岡市北方町菅原未1103-11,,,,32.635988,131.442925,
133,E4520300506111,中部地区集落センター,宮崎県延岡市北方町川水流卯1392-1,,,,32.559864809195,131.52277845768,
134,E4520300507121,特別養護老人ホーム　ひえいの郷,宮崎県延岡市北方町川水流卯1810-86,,,要配慮者,32.57296,131.515756,
135,E4520300508111,北方勤労者体育センター,宮崎県延岡市北方町川水流卯95-1,1,,,32.557098,131.528387,
136,E4520300509111,旧北方小学校体育館,宮崎県延岡市北方町川水流卯965,,,,32.565299,131.525542,
137,E4520300510111,北方学園武道館,宮崎県延岡市北方町川水流卯972,1,,,32.568847961233,131.52567460846,
138,E4520300511111,南部地区体育館,宮崎県延岡市北方町曽木子1759,1,,,32.57420096039,131.54212534259,
139,E4520300513111,曽木原営農研修館,宮崎県延岡市北方町曽木子2-13,1,,,32.574822,131.552721,
140,E4520300516111,早中営農研修館,宮崎県延岡市北方町早中巳1160-1,,,,32.600387,131.479885,
141,E4520300518111,早日渡営農研修館,宮崎県延岡市北方町早日渡巳259,,,,32.598601,131.491169,
142,E4520300520111,駄小屋営農研修館,宮崎県延岡市北方町蔵田辰63-42,,,,32.584015,131.514018,
143,E4520300521111,蔵田営農研修館,宮崎県延岡市北方町蔵田辰724,,,,32.581535,131.50563,
144,E4520300522111,滝下営農研修館,宮崎県延岡市北方町滝下未,,,,32.60865,131.467518,
145,E4520300524111,藤の木営農研修館,宮崎県延岡市北方町藤の木酉1268,1,,,32.598401,131.519906,
146,E4520300526111,唐立営農研修館,宮崎県延岡市北方町二股亥623-46,,,,32.609063,131.558544,
147,E4520300527111,旧三椪小学校体育館,宮崎県延岡市北方町板下戌465,1,,,32.615188,131.54247,
148,E4520300528111,板上営農研修館,宮崎県延岡市北方町板下戌782-1,,,,32.605902,131.532569,
149,E4520300529111,旧美々地小学校体育館,宮崎県延岡市北方町美々地未9,1,,,32.62952776194,131.45209971297,
150,E4520300530111,北久保山公民館,宮崎県延岡市北方町北久保山子3888-2,1,,,32.577152,131.530878,
151,E4520300531111,延岡星雲高校体育館,宮崎県延岡市牧町4722,1,,,32.597883,131.694489,
152,E4520300533111,延岡市社会教育センター,宮崎県延岡市本小路39-1,1,,,32.582184,131.659308,
153,E4520300534111,岡富中学校屋内運動場,宮崎県延岡市本小路75-2,1,,,32.583036403247,131.66007487466,
154,E4520300540121,障害者支援施設　もみじの里,宮崎県延岡市無鹿町1-2031-4,,,要配慮者,32.613707,131.68325,
155,E4520300541121,特別養護老人ホーム　楓荘,宮崎県延岡市無鹿町1-2031-5,,,要配慮者,32.614479,131.68345,
156,E4520300552111,県立延岡しろやま支援学校,宮崎県延岡市野地町3-3477-2,1,,,32.578358,131.647216,
157,E4520300552121,宮崎県立延岡しろやま支援学校,宮崎県延岡市野地町3-3477-2,1,,要配慮者,32.578588,131.647611,
158,E4520300555111,南方小学校体育館,宮崎県延岡市野田町5910,1,,,32.576901,131.633831,
159,E4520100002111,宮崎県立看護大学,宮崎県宮崎市まなび野3-5-1,1,,,31.859307,131.414743,
160,E4520100003111,宮崎市立宮崎東小学校,宮崎県宮崎市阿波岐原町火切塚1461,1,,,31.94270569,131.4513789,
161,E4520100004111,宮崎市立檍北小学校,宮崎県宮崎市阿波岐原町坂元1985,1,,,31.93117073,131.4527352,
162,E4520100006111,特別養護老人ホーム皇寿園,宮崎県宮崎市阿波岐原町前浜4276-650,1,,,31.939547,131.462633,
163,E4520100007111,宮崎県教育研修センター,宮崎県宮崎市阿波岐原町前浜4276-729,1,,,31.933967,131.463573,
164,E4520100008112,宮崎市立宮崎小学校,宮崎県宮崎市旭1-4-1,1,,,31.90945892,131.4257913,
165,E4520100008111,宮崎市教育情報研修センター,宮崎県宮崎市旭1-4-1,1,,,31.909918,131.425887,
166,E4520100017111,宮崎市立宮崎中学校,宮崎県宮崎市永楽町43,1,,,31.90740534,131.4337812,
167,E4520100020111,宮崎市宮崎東地区交流センター,宮崎県宮崎市下原町332-5,1,,,31.92356911,131.4321675,
168,E4520100031111,大淀川学習館,宮崎県宮崎市下北方町5348-1,1,,,31.948791,131.406484,
169,E4520100032111,宮崎市立大宮中学校,宮崎県宮崎市下北方町5945,1,,,31.94224277,131.4189545,
170,E4520100033111,宮崎市大宮地区交流センター,宮崎県宮崎市下北方町下郷6101,1,,,31.94512646,131.4175967,
171,E4520100034111,宮崎市立大宮小学校,宮崎県宮崎市下北方町新地849,1,,,31.94368157,131.4276792,
172,E4520100037111,花ヶ島公民館,宮崎県宮崎市花ケ島町赤江町1300,1,,,31.94743,131.431462,
173,E4520100044111,宮崎市総合福祉保健センター,宮崎県宮崎市花山手東3-25-2,1,,,31.89931048,131.4004804,
174,E4520100643111,宮崎市民文化ホール,宮崎県宮崎市花山手東3-25-3,1,,,31.898473,131.401435,
175,E4520100045111,宮崎大学教育文化学部附属小学校,宮崎県宮崎市花殿町7-49,1,,,31.92483,131.416749,
176,E4520100046111,宮崎大学教育文化学部附属中学校,宮崎県宮崎市花殿町7-67,1,,,31.924874,131.417931,
177,E4520100048111,宮崎大学,宮崎県宮崎市学園木花台西1-1,1,,,31.831003,131.412556,
178,E4520100049111,宮崎市立木花中学校,宮崎県宮崎市学園木花台南1-1,1,,,31.831124,131.4269602,
179,E4520100051111,宮崎市立学園木花台小学校,宮崎県宮崎市学園木花台南2-13,1,,,31.82580539,131.4237137,
180,E4520100055111,希望ヶ丘自治公民館,宮崎県宮崎市希望ケ丘3-11-5,1,,,31.857973,131.42422,
181,E4520100646111,宮崎市宮崎西地区交流センター,宮崎県宮崎市祇園1-49,1,,,31.926611,131.408371,
182,E4520100059111,宮崎市宮崎地区交流センター,宮崎県宮崎市吉村町ハシテ甲2386-139,1,,,31.90886364,131.4429032,
183,E4520100067111,宮崎市立檍中学校,宮崎県宮崎市吉村町江田原甲265,1,,,31.92610233,131.445692,
184,E4520100068111,宮崎市檍地区交流センター,宮崎県宮崎市吉村町江田原甲265-1,1,,,31.92555874,131.4448966,
185,E4520100081111,宮崎市立檍小学校,宮崎県宮崎市吉村町冬治867,1,,,31.92180838,131.444736,
186,E4520100084111,宮崎市立宮崎港小学校,宮崎県宮崎市吉村町南浜田甲4261,1,,,31.91045732,131.451166,
187,E4520100085111,宮崎市檍児童センター,宮崎県宮崎市吉村町平塚甲1797,1,,,31.91719629,131.4415522,
188,E4520100087111,北中自治公民館,宮崎県宮崎市吉村町北中甲1209,1,,,31.916501,131.446953,
189,E4520100093111,宮崎市役所（会議棟）,宮崎県宮崎市橘通西1-1-1,1,,,31.908645,131.41869,
190,E4520100095111,宮崎市立江平小学校,宮崎県宮崎市橘通西5-6-37,1,,,31.92378745,131.4239906,
191,E4520100097111,宮崎市総合体育館,宮崎県宮崎市宮崎駅東1-2-7,1,,,31.91460958,131.4353132,
192,E4520100097112,宮崎市中央公民館,宮崎県宮崎市宮崎駅東1-2-7,1,,,31.914128,131.4353071,
193,E4520100098111,宮崎県体育館,宮崎県宮崎市宮崎駅東2-4-1,1,,,31.917371,131.434717,
194,E4520100099111,宮崎市男女共同参画センター,宮崎県宮崎市宮崎駅東3-6-7,1,,,31.91975749,131.4352655,
195,E4520100101111,宮崎県自治会館,宮崎県宮崎市宮田町1-8,1,,,31.911331541543,131.42469570086,
196,E4520100104111,宮崎市大淀地区交流センター,宮崎県宮崎市京塚2-1-18,1,,,31.89824827,131.411322,
197,E4520100112111,宮崎市立赤江中学校,宮崎県宮崎市月見ケ丘1-25-1,1,,,31.88076076,131.4249563,
198,E4520100113111,宮崎市立共同利用施設月見ヶ丘六次センター,宮崎県宮崎市月見ケ丘3-17-1,1,,,31.87456292,131.4194679,
199,E4520100114111,宮崎市立共同利用施設月見ヶ丘センター,宮崎県宮崎市月見ケ丘4-23-13,1,,,31.8772,131.4190939,
200,E4520100116111,宮崎県立宮崎南高等学校,宮崎県宮崎市月見ケ丘5-2-1,1,,,31.884488,131.4191,
201,E4520100118111,宮崎市立宮崎西中学校,宮崎県宮崎市原町1-4,1,,,31.92257954,131.4227042,
202,E4520100119111,宮崎県福祉総合センター,宮崎県宮崎市原町2-22,1,,,31.922838,131.421848,
203,E4520100121111,源藤自治公民館,宮崎県宮崎市源藤町字堤513-8,1,,,31.88552384,131.4148,
204,E4520100122111,宮崎市立宮崎南小学校,宮崎県宮崎市源藤町池ノ内702,1,,,31.88260796,131.4130162,
205,E4520100123111,宮崎市立古城小学校,宮崎県宮崎市古城町山ノ城5735,1,,,31.8934313,131.3879682,
206,E4520100124111,古城老人いこいの家,宮崎県宮崎市古城町孫太郎2494,1,,,31.8860151091,131.37463746204,
207,E4520100130111,宮崎市南部記念体育館,宮崎県宮崎市恒久2-1-5,1,,,31.89339349,131.4252571,
208,E4520100131111,宮崎市立恒久小学校,宮崎県宮崎市恒久2-15-4,1,,,31.89521515,131.4266697,
209,E4520100132111,下城ヶ崎自治公民館,宮崎県宮崎市恒久3-20-13,1,,,31.893291,131.431021,
210,E4520100137111,津屋原自治公民館,宮崎県宮崎市恒久4-14-8,1,,,31.894555,131.433813,
211,E4520100138111,宮崎市赤江東地区交流センター,宮崎県宮崎市恒久6-11-4,1,,,31.889993180409,131.43991371963,
212,E4520100153111,宮崎市立江南小学校,宮崎県宮崎市江南4-26-1,1,,,31.90390087,131.3949898,
213,E4520100155111,宮崎市立宮崎東中学校,宮崎県宮崎市江平東2-7-9,1,,,31.93071827,131.4287213,
214,E4520100160111,宮崎市高岡交流プラザ,宮崎県宮崎市高岡町浦之名4365-4,1,,,31.9518563,131.2653144,
215,E4520100626111,下倉自治公民館,宮崎県宮崎市高岡町下倉永953,1,,,31.936498726754,131.33674433002,
216,E4520100164111,宮崎市東高岡体育館,宮崎県宮崎市高岡町花見923,1,,,31.94425251,131.3306323,
217,E4520100166111,株式会社　共立電機製作所,宮崎県宮崎市高岡町高浜1495-55,1,,,31.942413930003,131.29672958969,
218,E4520100168111,共に学ぶ森管理棟,宮崎県宮崎市高岡町紙屋9-1,1,,,31.98967,131.210261,
219,E4520100170111,宮崎市サンスポーツランド高岡,宮崎県宮崎市高岡町小山田3870,1,,,31.935989933206,131.32574328173,
220,E4520100171111,宮崎市農業団地センター,宮崎県宮崎市高岡町小山田69-2,1,,,31.93420766,131.3299588,
221,E4520100172111,宮崎市立穆佐小学校,宮崎県宮崎市高岡町小山田87-1,1,,,31.93415406,131.3292398,
222,E4520100173111,宮崎市穆佐体育館,宮崎県宮崎市高岡町小山田973,1,,,31.933565192032,131.32640857934,
223,E4520100176111,宮崎市内山農村研修センター,宮崎県宮崎市高岡町内山1072,1,,,31.96609453,131.2777531,
224,E4520100177111,宮崎市天ヶ城公園体育館,宮崎県宮崎市高岡町内山2007,1,,,31.957956,131.290679,
225,E4520100178111,宮崎市立高岡中学校,宮崎県宮崎市高岡町内山2700,1,,,31.96223325,131.2999749,
226,E4520100179111,宮崎市高岡福祉保健センター「穆園館」,宮崎県宮崎市高岡町内山2877,1,,,31.9575441,131.2987304,
227,E4520100180111,宮崎市高岡地区交流センター,宮崎県宮崎市高岡町内山2880-1,1,,,31.95686899,131.2979109,
228,E4520100181111,宮崎市高岡総合支所庁舎,宮崎県宮崎市高岡町内山2887,1,,,31.95680412,131.2971536,
229,E4520100182111,宮崎市立高岡小学校,宮崎県宮崎市高岡町内山2900,1,,,31.95770404,131.2973187,
230,E4520100183111,宮崎市高岡練士館道場,宮崎県宮崎市高岡町内山2902,1,,,31.957192,131.296799,
231,E4520100184111,旧去川小学校,宮崎県宮崎市高岡町内山3615-1,1,,,31.915862,131.228389,
232,E4520100197111,黒田地区学習等供用施設,宮崎県宮崎市佐土原下那珂7982,,,,32.014015,131.444943,
233,E4520100204111,宮崎市立広瀬中学校,宮崎県宮崎市佐土原町下田島20305-12,1,,,32.01739461,131.4748758,
234,E4520100205111,宮崎市立広瀬小学校,宮崎県宮崎市佐土原町下田島20308-10,1,,,32.01616661,131.4733033,
235,E4520100207111,宮崎市佐土原総合文化センター,宮崎県宮崎市佐土原町下田島20527-4,1,,,32.02304662,131.474181,
236,E4520100209111,佐土原保健センター,宮崎県宮崎市佐土原町下田島20660,1,,,32.023703,131.474062,
237,E4520100210111,宮崎市佐土原体育館,宮崎県宮崎市佐土原町下田島20688-74,1,,,32.02531155,131.47307,
238,E4520100211111,宮崎市立久峰中学校,宮崎県宮崎市佐土原町下田島21341,1,,,32.02249274,131.4687393,
239,E4520100212111,宮崎県立佐土原高等学校,宮崎県宮崎市佐土原町下田島21567,1,,,32.023143,131.46655,
240,E4520100215111,宮崎市佐土原武道館,宮崎県宮崎市佐土原町下那珂12900-2,1,,,32.02019072,131.4618092,
241,E4520100216111,宮崎市立広瀬西小学校,宮崎県宮崎市佐土原町下那珂13384,1,,,32.01440792,131.4561282,
242,E4520100218111,宮崎市広瀬地区交流センター,宮崎県宮崎市佐土原町下那珂2940-82,1,,,32.001564,131.47268,
243,E4520100226111,宮崎市立佐土原小学校,宮崎県宮崎市佐土原町上田島1350-9,1,,,32.04885917,131.4288806,
244,E4520100227111,宮崎市佐土原地区交流センター,宮崎県宮崎市佐土原町上田島1389,1,,,32.047067906126,131.4277554841,
245,E4520100228111,宮崎市佐土原西体育館,宮崎県宮崎市佐土原町上田島8387-2,1,,,32.04259431,131.4243,
246,E4520100229111,宮崎市立佐土原中学校,宮崎県宮崎市佐土原町上田島8476,1,,,32.04340132,131.4220071,
247,E4520100232111,宮崎市佐土原地域福祉センター,宮崎県宮崎市佐土原町東上那珂12948-1,1,,,32.021197305557,131.43410288053,
248,E4520100236111,那珂地区公民館,宮崎県宮崎市佐土原町東上那珂14502,1,,,32.027492,131.425823,
249,E4520100239111,宮崎市立那珂小学校,宮崎県宮崎市佐土原町東上那珂16350,1,,,32.0296661663779,131.426834385627,
250,E4520100240111,桜ヶ丘集会所,宮崎県宮崎市桜ケ丘町24-22,1,,,31.930248,131.399838,
251,E4520100242111,山崎農村研修センター,宮崎県宮崎市山崎町四郎房881-589,1,,,31.951953,131.46364,
252,E4520100254111,宮崎市立小松台小学校,宮崎県宮崎市小松台西1-10-9,1,,,31.93295711,131.3938242,
253,E4520100266111,宮崎学園中学校・高等学校,宮崎県宮崎市昭和町3,1,,,31.911278,131.435418,
254,E4520100292111,新別府町自治公民館,宮崎県宮崎市新別府町麓418,1,,,31.923924,131.449803,
255,E4520100296112,宮崎市北部老人福祉センター,宮崎県宮崎市神宮東1-2-27,1,,,31.93215068,131.4260459,
256,E4520100296111,宮崎市青少年プラザ体育館,宮崎県宮崎市神宮東1-2-27,1,,,31.932208,131.426267,
257,E4520100297111,宮崎県立宮崎大宮高等学校,宮崎県宮崎市神宮東1-3-10,1,,,31.932891,131.425314,
258,E4520100299111,宮崎市立加納中学校,宮崎県宮崎市清武町加納乙1040,1,,,31.87834404,131.3964799,
259,E4520100300111,宮崎市加納地区交流センター,宮崎県宮崎市清武町加納乙1047,1,,,31.875418051159,131.39363910582,
260,E4520100301111,宮崎市加納スポーツセンター,宮崎県宮崎市清武町加納乙213-4,1,,,31.88068854,131.4058383,
261,E4520100302111,宮崎市立加納小学校,宮崎県宮崎市清武町加納甲1010,1,,,31.86983177,131.3887349,
262,E4520100305111,宮崎学園短期大学,宮崎県宮崎市清武町加納丙1415,1,,,31.859864,131.394617,
263,E4520100306111,産機サービス,宮崎県宮崎市清武町今泉乙365-2,1,,,31.837509,131.372122,
264,E4520100307111,宮崎市清武地区交流センター,宮崎県宮崎市清武町今泉甲2694-3,1,,,31.85605964,131.3639431,
265,E4520100309111,宮崎市立大久保小学校,宮崎県宮崎市清武町今泉甲5645,1,,,31.85817697,131.3624327,
266,E4520100310111,ＪＡ南宮崎営農センター,宮崎県宮崎市清武町今泉甲5645-1,,,,31.856754,131.40863,
267,E4520100311111,宮崎市立清武中学校,宮崎県宮崎市清武町今泉甲6980,1,,,31.85314111,131.3876867,
268,E4520100312111,宮崎市立清武小学校,宮崎県宮崎市清武町今泉甲7023-1,1,,,31.85452745,131.3879597,
269,E4520100315111,宮崎市清武総合福祉センター,宮崎県宮崎市清武町西新町8-6,1,,,31.85404151,131.3893793,
270,E4520100322111,宮崎市清武体育館,宮崎県宮崎市清武町木原6652-2,1,,,31.85451812,131.3913394,
271,E4520100326111,宮崎市立生目台中学校,宮崎県宮崎市生目台東4-1-1,1,,,31.90432273,131.3798008,
272,E4520100327111,宮崎市立生目台東小学校,宮崎県宮崎市生目台東4-2-1,1,,,31.90310088,131.3780358,
273,E4520100645111,宮崎市生目台地区交流センター,宮崎県宮崎市生目台東4-6-2,1,,,31.904387,131.375032,
274,E4520100329111,宮崎市立西池小学校,宮崎県宮崎市西池町12-49,1,,,31.92322313,131.4198989,
275,E4520100334111,巖泉寺,宮崎県宮崎市青島4-9-1,1,,,31.794485,131.468176,
276,E4520100339111,宮崎市青島地区交流センター,宮崎県宮崎市青島西2-1,1,,,31.801991753088,131.46196975824,
277,E4520100340111,宮崎市青島浄化センター２階,宮崎県宮崎市青島西2-15-1,1,,,31.798828,131.466719,
278,E4520100342111,宮崎航空大学校,宮崎県宮崎市赤江飛江田652-2,1,,,31.879334,131.442367,
279,E4520100349111,宮崎公立大学（体育館）,宮崎県宮崎市船塚2-184,,,,31.928037683509,131.4180659053,
280,E4520100354111,光明保育園,宮崎県宮崎市村角町阿波2525,1,,,31.952981,131.449424,
281,E4520100355111,村角町公民館,宮崎県宮崎市村角町阿波2535,1,,,31.953038,131.448774,
282,E4520100356112,宮崎市立東大宮中学校,宮崎県宮崎市村角町島ノ前1346-1,1,,,31.95071385,131.4417377,
283,E4520100356111,宮崎市東大宮地区交流センター,宮崎県宮崎市村角町島ノ前1346-1,1,,,31.94870399,131.4417022,
284,E4520100372111,宮崎市立小戸小学校,宮崎県宮崎市大工1-5-43,1,,,31.91743506,131.4144013,
285,E4520100373111,国土交通省宮崎河川国道事務所,宮崎県宮崎市大工2-39,1,,,31.916156,131.410343,
286,E4520100376111,直純寺,宮崎県宮崎市大字瓜生野155,1,,,31.955835,131.398345,
287,E4520100377111,上野自治公民館,宮崎県宮崎市大字瓜生野2570,1,,,31.969217,131.387378,
288,E4520100378111,宮崎市立瓜生野小学校,宮崎県宮崎市大字瓜生野2589,1,,,31.97037304,131.3876062,
289,E4520100379111,宮崎市北地区交流センター,宮崎県宮崎市大字瓜生野3909,1,,,31.96267544,131.3829967,
290,E4520100380111,北部営農研修センター,宮崎県宮崎市大字塩路1341-3,1,,,31.982227027759,131.46970657804,
291,E4520100381111,円南寺,宮崎県宮崎市大字加江田3782,1,,,31.813127,131.434712,
292,E4520100384111,宮崎市自然休養村センター,宮崎県宮崎市大字加江田6896,1,,,31.80536843,131.4487142,
293,E4520100385111,宮崎市立鏡洲小学校,宮崎県宮崎市大字鏡洲2056,1,,,31.82129732,131.3901145,
294,E4520100386111,金崎コミュニティーセンター,宮崎県宮崎市大字金崎582,1,,,31.96893,131.356525,
295,E4520100388111,宮崎市立木花小学校,宮崎県宮崎市大字熊野10956,1,,,31.83218852,131.4345396,
296,E4520100389111,島山地区複合型津波避難施設,宮崎県宮崎市大字熊野1374-43,1,,,31.822896065615,131.44422530149,
297,E4520100392111,宮崎県総合運動公園（武道館）,宮崎県宮崎市大字熊野2206-1,1,,,31.829232400147,131.44650495681,
298,E4520100397111,ＪＡ宮崎中央木花支店,宮崎県宮崎市大字熊野565,1,,,31.830823,131.436528,
299,E4520100398111,宮崎市木花地区交流センター,宮崎県宮崎市大字熊野591,1,,,31.82909831,131.4364213,
300,E4520100403111,宮崎県青島青少年自然の家,宮崎県宮崎市大字熊野字藤兵衛中洲,1,,,31.819646,131.449613,
301,E4520100405111,宮崎県消防学校,宮崎県宮崎市大字郡司分甲210,1,,,31.849489,131.434721,
302,E4520100406111,宮崎市立国富小学校,宮崎県宮崎市大字郡司分甲2226,,,,31.85738324,131.4334073,
303,E4520100407111,宮崎第一中学高等学校,宮崎県宮崎市大字郡司分甲767,,,,31.849142,131.424144,
304,E4520100409111,西山崎センター,宮崎県宮崎市大字郡司分字中ノ迫丙9568-1,1,,,31.86648502,131.4179741,
305,E4520100410111,宮崎市広原体育館,宮崎県宮崎市大字広原1085-1,1,,,32.00025561,131.4367743,
306,E4520100411111,日章学園高等学校,宮崎県宮崎市大字広原836,1,,,32.002067,131.440667,
307,E4520100413111,大淀学園鵬翔高等学校,宮崎県宮崎市大字恒久4336,1,,,31.891235,131.417196,
308,E4520100415111,宮崎市南部老人福祉センター,宮崎県宮崎市大字恒久5124,1,,,31.88839271,131.4112011,
309,E4520100417111,宮崎市立赤江小学校,宮崎県宮崎市大字恒久556,1,,,31.88839387,131.4299343,
310,E4520100419111,吉永センター,宮崎県宮崎市大字恒久字吉永1287-3,1,,,31.88679675,131.4187806,
311,E4520100421111,宮崎市障がい者体育センター,宮崎県宮崎市大字恒久字西原5132,1,,,31.88865902,131.4117322,
312,E4520100422111,宮崎県立宮崎農業高等学校,宮崎県宮崎市大字恒久春日田1061,1,,,31.885907,131.42423,
313,E4520100423111,糸原自治公民館,宮崎県宮崎市大字糸原2552-1,1,,,31.955786,131.360974,
314,E4520100424111,宮崎市立倉岡小学校,宮崎県宮崎市大字糸原538,1,,,31.96206822,131.3673622,
315,E4520100428111,宮崎県立宮崎北高等学校,宮崎県宮崎市大字新名爪4567,1,,,31.97045,131.434942,
316,E4520100432111,飛江田団地集会所,宮崎県宮崎市大字赤江409,1,,,31.886217,131.439078,
317,E4520100433111,宮崎市立共同利用施設空港南センター,宮崎県宮崎市大字赤江字飛江田79-1,1,,,31.86927102,131.4346285,
318,E4520100434111,宮崎市緑松体育館,宮崎県宮崎市大字赤江字飛江田980,1,,,31.87960335,131.450509,
319,E4520100435111,宮崎液化ガス　宮崎事業部,宮崎県宮崎市大字赤江飛江田868-13,1,,,31.881673446097,131.44536437914,
320,E4520100437111,跡江自治公民館,宮崎県宮崎市大字跡江2203,1,,,31.945064,131.39119,
321,E4520100438111,宮崎市立生目中学校,宮崎県宮崎市大字跡江3131,1,,,31.93054123,131.3814205,
322,E4520100440121,生目の杜遊古館,宮崎県宮崎市大字跡江4200-3,,,要配慮者,31.946496,131.384148,
323,E4520100441111,宮崎市生目の杜運動公園,宮崎県宮崎市大字跡江4461-1,1,,,31.94352389,131.3737683,
324,E4520100442111,宮崎市立青島中学校,宮崎県宮崎市大字折生迫4828,1,,,31.78651566,131.4691743,
325,E4520100444111,宮崎市立宮崎北中学校,宮崎県宮崎市大字大瀬町247,1,,,31.96205658,131.3777403,
326,E4520100445111,平松自治公民館,宮崎県宮崎市大字大瀬町ヤゴロ迫5453-2,1,,,31.977865,131.387813,
327,E4520100446111,エコクリーンほがらか湯,宮崎県宮崎市大字大瀬町字倉永6176-8,1,,,32.004551,131.380334,
328,E4520100448111,宮崎市立赤江東中学校,宮崎県宮崎市大字田吉1031,1,,,31.88810078,131.4326732,
329,E4520100630121,宮崎県立赤江まつばら支援学校,宮崎県宮崎市大字田吉4977-371,,,要配慮者,31.868101,131.446714,
330,E4520100456111,宮崎市立共同利用施設南赤江センター,宮崎県宮崎市大字田吉字赤江278-2,1,,,31.87993241,131.4299045,
331,E4520100457111,田吉自治公民館,宮崎県宮崎市大字田吉字田吉1364-1,1,,,31.88742299,131.4367083,
332,E4520100458111,赤江地域センター,宮崎県宮崎市大字田吉字肥屋田5730-3,1,,,31.88503314,131.4282843,
333,E4520100459111,浜畑自治公民館,宮崎県宮崎市大字田吉字木寅4370-1,1,,,31.86989279,131.4433059,
334,E4520100460111,四本松営農研修センター,宮崎県宮崎市大字島之内10107-67,1,,,31.986189,131.46333,
335,E4520100462111,宮崎県立明星視覚支援学校,宮崎県宮崎市大字島之内1390,1,,,31.997376,131.459376,
336,E4520100631121,宮崎県立みやざき中央支援学校,宮崎県宮崎市大字島之内2100,,,要配慮者,31.994295,131.45311,
337,E4520100463111,宮崎市立住吉小学校,宮崎県宮崎市大字島之内5383,1,,,31.98474829,131.4406026,
338,E4520100464111,宮崎日本大学中学校・高等学校,宮崎県宮崎市大字島之内6822-2,1,,,31.984176,131.446432,
339,E4520100465111,宮崎市住吉児童センター,宮崎県宮崎市大字島之内7082-2,1,,,31.98830163,131.451266,
340,E4520100466111,宮崎市立住吉中学校,宮崎県宮崎市大字島之内7608,1,,,31.98919983,131.4506044,
341,E4520100467111,宮崎市立内海小学校,宮崎県宮崎市大字内海1024,1,,,31.75975326,131.472144,
342,E4520100469111,青島第２４区自治公民館,宮崎県宮崎市大字内海字大園7688-72,1,,,31.7285546556784,131.461926449507,
343,E4520100470111,宮崎市立生目小学校,宮崎県宮崎市大字浮田2920,1,,,31.93198961,131.3716888,
344,E4520100472111,宮崎市生目地区交流センター,宮崎県宮崎市大字浮田3000-1,1,,,31.929863,131.375815,
345,E4520100473111,宮崎市立生目南中学校,宮崎県宮崎市大字浮田662,1,,,31.92311391,131.3748185,
346,E4520100474111,宮崎市立住吉南小学校,宮崎県宮崎市大字芳士1811,1,,,31.96595289,131.4473696,
347,E4520100477111,金吹山自治公民館,宮崎県宮崎市大字芳士字大原3701-53,1,,,31.96766179308,131.45859944077,
348,E4520100480111,宮崎市赤江老人福祉センター,宮崎県宮崎市大字本郷南方2487-4,1,,,31.85403532,131.4334259,
349,E4520100481111,宮崎市本郷地区交流センター,宮崎県宮崎市大字本郷南方2793,1,,,31.85937847,131.4310842,
350,E4520100490111,宮崎市立本郷中学校,宮崎県宮崎市大字本郷南方5460,1,,,31.86263886,131.4242791,
351,E4520100493111,特別養護老人ホーム　ヴィラ・サザン,宮崎県宮崎市大字本郷北方2717-15,1,,,31.874701,131.409411,
352,E4520100494111,宮崎市立本郷小学校,宮崎県宮崎市大字本郷北方3926,1,,,31.86343199,131.4241004,
353,E4520100496111,山崎台センター,宮崎県宮崎市大字本郷北方字乙戸3406-79,1,,,31.86859397,131.425164,
354,E4520100497111,宮崎市立共同利用施設津和田センター,宮崎県宮崎市大字本郷北方字大丸36-1,1,,,31.87318172,131.4306391,
355,E4520100498111,城ノ下・池田自治公民館,宮崎県宮崎市大字本郷北方字池田4485-12,1,,,31.86966559,131.4312522,
356,E4520100499111,有田ふれあい館,宮崎県宮崎市大字有田髙峯ノ下1980,1,,,31.95073,131.372044,
357,E4520100503111,宮崎市立宮崎西小学校,宮崎県宮崎市大塚台西2-19-1,1,,,31.91493983,131.3843866,
358,E4520100504111,大塚台西３丁目地区コミュニティーセンター,宮崎県宮崎市大塚台西3-15-18,1,,,31.908654,131.382667,
359,E4520100505111,宮崎市大塚台児童センター,宮崎県宮崎市大塚台西3-22-3,1,,,31.91075697,131.38283,
360,E4520100507111,宮崎市立大塚中学校,宮崎県宮崎市大塚町鎌ケ迫2296,1,,,31.91988689,131.3894758,
361,E4520100508111,宮崎市立大塚小学校,宮崎県宮崎市大塚町鎌ケ迫2296-2,1,,,31.91779622,131.3892186,
362,E4520100509111,宮崎市大塚地区交流センター,宮崎県宮崎市大塚町鎌ケ迫2296-3,1,,,31.91879059,131.3896419,
363,E4520100521111,大塚町中区自治公民館,宮崎県宮崎市大塚町樋ノ口1992-1,1,,,31.91897,131.398157,
364,E4520100523111,宮崎県立宮崎西高等学校,宮崎県宮崎市大塚町柳ケ迫3975-2,1,,,31.907968,131.386457,
365,E4520100526111,多宝寺,宮崎県宮崎市大塚町六ツ合686,1,,,31.924888,131.400625,
366,E4520100530111,宮崎市立東大宮小学校,宮崎県宮崎市大島町西田2143,1,,,31.94385294,131.4355682,
367,E4520100544111,学校法人日向学院,宮崎県宮崎市大和町110,1,,,31.917928,131.436641,
368,E4520100546111,宮崎市立池内小学校,宮崎県宮崎市池内町榎迫508,1,,,31.95611155,131.4170222,
369,E4520100547111,宮崎市平和が丘児童センター,宮崎県宮崎市池内町陣ノ平594-5,1,,,31.95389456,131.4161172,
370,E4520100557111,宮崎市立潮見小学校,宮崎県宮崎市潮見町118,1,,,31.90478935,131.4394699,
371,E4520100563111,宮崎市立小戸保育所,宮崎県宮崎市鶴島3-93,,,,31.912718,131.40852,
372,E4520100564111,宮崎市立大淀中学校,宮崎県宮崎市天満1-2-6,1,,,31.9014583,131.4144083,
373,E4520100566111,宮崎県立宮崎工業高等学校,宮崎県宮崎市天満町9-1,1,,,31.899923,131.412836,
374,E4520100572111,宮崎市田野地区交流センター北分館,宮崎県宮崎市田野町乙10847-1,1,,,31.845962,131.30682,
375,E4520100573111,宮崎市田野体育館,宮崎県宮崎市田野町乙10905-26,1,,,31.84563739,131.3065686,
376,E4520100574111,宮崎市立七野小学校,宮崎県宮崎市田野町乙3521-2,1,,,31.83119277,131.2769801,
377,E4520100575111,宮崎市田野地区交流センター西分館,宮崎県宮崎市田野町乙3533-1,1,,,31.83111331,131.277353,
378,E4520100577111,宮崎市田野地区交流センター,宮崎県宮崎市田野町甲2818,1,,,31.83948744,131.3012082,
379,E4520100578111,宮崎市立田野中学校,宮崎県宮崎市田野町甲2826-3,1,,,31.83590498,131.300385,
380,E4520100579111,宮崎市立田野小学校,宮崎県宮崎市田野町甲2856,1,,,31.83732826,131.30177,
381,E4520100580111,宮崎市住吉地区交流センター,宮崎県宮崎市島之内7410-1,1,,,31.9822065,131.4503429,
382,E4520100586111,南方保育園,宮崎県宮崎市南方町御供田1191,1,,,31.961322,131.418915,
383,E4520100587111,宮崎県立宮崎海洋高等学校,宮崎県宮崎市日の出町1,1,,,31.904955,131.452324,
384,E4520100592111,ＪＡ学びの杜教育センター,宮崎県宮崎市柏原508-6,1,,,31.938085,131.367368,
385,E4520100594111,宮崎市生目南地区交流センター,宮崎県宮崎市浮田662-14,1,,,31.92267418,131.3757781,
386,E4520100596111,平和が丘自治公民館,宮崎県宮崎市平和が丘西町15-1,1,,,31.957349,131.414253,
387,E4520100599111,青水自治公民館,宮崎県宮崎市芳士字金田田286-2,1,,,31.965865,131.434324,
388,E4520100604111,ＪＡ・ＡＺＭホール,宮崎県宮崎市霧島1-1-1,1,,,31.926307,131.415193,
389,E4520100608111,南九州大学・南九州短期大学,宮崎県宮崎市霧島5-1-2,1,,,31.93662,131.41563,
390,E4520100610111,九州森林管理局宮崎森林管理署,宮崎県宮崎市柳丸町388-5,1,,,31.924271,131.432256,
391,E4520100613111,宮崎市立大淀小学校,宮崎県宮崎市淀川2-3-7,1,,,31.90332211,131.4164141,
392,E4520100615111,宮崎県医師会館,宮崎県宮崎市和知川原1-101,1,,,31.925182,131.414208,
393,E4520100622111,宮崎県立宮崎商業高等学校,宮崎県宮崎市和知川原3-24,1,,,31.923963,131.40822,
394,E4520700095111,一氏公民館,宮崎県串間市大字一氏一氏,,,,31.530724,131.21861,
395,E4520700096111,三ヶ平公民館,宮崎県串間市大字一氏三ケ平,,,,31.534022,131.21594,
396,E4520700097111,三幸ヶ野集落センター,宮崎県串間市大字一氏三幸ケ野,,,,31.546011,131.211622,
397,E4520700098111,大重野集落センター,宮崎県串間市大字一氏大重ケ野,,,,31.539022,131.218759,
398,E4520700003121,ゆうゆうの森,宮崎県串間市大字串間1094,,,,31.496153,131.250678,
399,E4520700006111,西上池公民館,宮崎県串間市大字串間西上池,,,,31.487459,131.24583,
400,E4520700099111,東上池集落センター,宮崎県串間市大字串間東上池,,,,31.488873,131.24703,
401,E4520700008111,高松公民館,宮崎県串間市大字高松高松,,,,31.456803,131.177455,
402,E4520700009111,永田公民館,宮崎県串間市大字崎田永田,,,,31.40400481,131.2458559,
403,E4520700010111,崎田多目的集会施設,宮崎県串間市大字崎田上南,,,,31.41774407,131.2430587,
404,E4520700012111,旧市木中学校,宮崎県串間市大字市木1835,1,,,31.461158,131.344121,
405,E4520700013111,市木小学校,宮崎県串間市大字市木7295,1,,,31.464214,131.342642,
406,E4520700014111,串間市市木公民館,宮崎県串間市大字市木7350-7,,,,31.464634,131.343562,
407,E4520700015111,市木支所,宮崎県串間市大字市木7375-1,,,,31.464604,131.346328,
408,E4520700016111,海北公民館,宮崎県串間市大字市木海北,,,,31.473367,131.349071,
409,E4520700017111,郡司部公民館,宮崎県串間市大字市木郡司部,,,,31.484447,131.327757,
410,E4520700018111,石原公民館,宮崎県串間市大字市木石原,,,,31.464449,131.332558,
411,E4520700019111,石波公民館,宮崎県串間市大字市木石波,,,,31.45505626,131.3636417,
412,E4520700020111,築島集会所,宮崎県串間市大字市木築島,,,,31.477401,131.388256,
413,E4520700021111,藤公民館,宮崎県串間市大字市木藤,,,,31.46825534,131.3576324,
414,E4520700022111,内ノ畑集落センター,宮崎県串間市大字市木内ノ畑,,,,31.461185,131.338494,
415,E4520700023111,漁民研修センター,宮崎県串間市大字市木舳,,,,31.4820337,131.3848435,
416,E4520700024111,秋山小学校,宮崎県串間市大字秋山2485,1,,,31.500892,131.266287,
417,E4520700002121,さつき園,宮崎県串間市大字西方1213,,,,31.495236,131.235829,
418,E4520700026111,有明小学校,宮崎県串間市大字西方15077-2,1,,,31.456726,131.204727,
419,E4520700027111,福島高校,宮崎県串間市大字西方4015,1,,,31.46935,131.233309,
420,E4520700028111,福島小学校,宮崎県串間市大字西方4148,1,,,31.468431,131.230819,
421,E4520700004121,寿楽園,宮崎県串間市大字西方4341-1,,,,31.469757,131.229268,
422,E4520700030111,串間市役所,宮崎県串間市大字西方5550,,,,31.464578,131.228553,
423,E4520700031111,シティプラザエクセレントビル,宮崎県串間市大字西方6563-1,,,,31.461851,131.228971,
424,E4520700032111,メゾン谷口,宮崎県串間市大字西方6628-1,,,,31.459969,131.227778,
425,E4520700033111,正国寺,宮崎県串間市大字西方7009,,,,31.45862,131.218455,
426,E4520700034111,寺里団地,宮崎県串間市大字西方7264-6,,,,31.458583,131.220049,
427,E4520700035111,本町かんな住宅,宮崎県串間市大字西方7314,,,,31.461475,131.225849,
428,E4520700036111,串間中学校,宮崎県串間市大字西方8607,1,,,31.474076,131.226427,
429,E4520700037112,市総合体育館,宮崎県串間市大字西方9050,,,,31.4648,131.218996,
430,E4520700039111,桂原地区研修センター,宮崎県串間市大字西方桂原,,,,31.500124,131.236023,
431,E4520700040111,松尾集落センター,宮崎県串間市大字西方松尾,,,,31.468217,131.222613,
432,E4520700041111,穂佐ヶ原研修施設,宮崎県串間市大字西方穂佐ケ原,,,,31.491733,131.232594,
433,E4520700042111,霧島地区集落センター,宮崎県串間市大字西方霧島,,,,31.479837,131.231316,
434,E4520700044111,大平小学校,宮崎県串間市大字大平1881,1,,,31.560833,131.244943,
435,E4520700045111,旧大束中学校,宮崎県串間市大字大平5714,1,,,31.523458,131.23514,
436,E4520700046112,大束小学校,宮崎県串間市大字大平5715,1,,,31.525024,131.236314,
437,E4520700046111,石木田公民館,宮崎県串間市大字大平5715,1,,,31.508246,131.250448,
438,E4520700047111,井牟田公民館,宮崎県串間市大字大平井牟田,,,,31.503072,131.238153,
439,E4520700048111,広野集落センター,宮崎県串間市大字大平広野,,,,31.564719,131.244609,
440,E4520700049111,高則集落センター,宮崎県串間市大字大平高則,,,,31.536815,131.241474,
441,E4520700050111,市ノ瀬公民館,宮崎県串間市大字大平市ノ瀬,,,,31.516666,131.228664,
442,E4520700051111,大平集落センター,宮崎県串間市大字大平大平,,,,31.558786,131.249601,
443,E4520700052111,中原営農研修施設,宮崎県串間市大字大平中原,,,,31.555678,131.249298,
444,E4520700053111,揚原集落センター,宮崎県串間市大字大平揚原,,,,31.526338,131.237099,
445,E4520700054111,赤池活性化センター,宮崎県串間市大字大矢取608,,,,31.562473,131.202298,
446,E4520700055111,上大矢取公民館,宮崎県串間市大字大矢取大矢取,,,,31.587859,131.21179,
447,E4520700056111,都井基幹集落センター,宮崎県串間市大字都井2157,,,,31.397487,131.305608,
448,E4520700057111,都井小学校,宮崎県串間市大字都井2257-1,1,,,31.398821,131.305961,
449,E4520700058111,旧都井中学校,宮崎県串間市大字都井4766,1,,,31.392607,131.317674,
450,E4520700059111,黒井公民館,宮崎県串間市大字都井黒井,,,,31.389896,131.291427,
451,E4520700060111,笠祇小学校,宮崎県串間市大字奴久見1297,1,,,31.500408,131.185483,
452,E4520700061111,虎渓寺,宮崎県串間市大字奈留1704,,,,31.529889,131.260895,
453,E4520700062111,串間市大束公民館,宮崎県串間市大字奈留5225-1,,,,31.511261,131.247763,
454,E4520700005111,長寿の里,宮崎県串間市大字奈留5298-3,,,,31.513361,131.246655,
455,E4520700064111,下園田研修施設,宮崎県串間市大字奈留5490-1,,,,31.51252374,131.2453455,
456,E4520700065111,烏帽子野公民館,宮崎県串間市大字奈留烏帽子野,,,,31.513533,131.252931,
457,E4520700066111,小山集落センター,宮崎県串間市大字奈留小山,,,,31.506798,131.246174,
458,E4520700067111,上園田集落センター,宮崎県串間市大字奈留上園田,,,,31.514598,131.245174,
459,E4520700068111,西ノ園集落センター,宮崎県串間市大字奈留西ノ園,,,,31.5184275,131.2480787,
460,E4520700069111,仲別府営農研修施設,宮崎県串間市大字奈留仲別府,,,,31.529565,131.269195,
461,E4520700070111,堂園集落センター,宮崎県串間市大字奈留堂園,,,,31.51893112,131.2507974,
462,E4520700071111,徳山公民館,宮崎県串間市大字奈留徳山,,,,31.500182,131.249808,
463,E4520700072111,白坂公民館,宮崎県串間市大字奈留白坂,,,,31.502907,131.256102,
464,E4520700001112,あすか園,宮崎県串間市大字南方3431-5,,,,31.441022,131.225888,
465,E4520700074111,望洋の郷,宮崎県串間市大字南方4201-1,,,,31.4438,131.216076,
466,E4520700074121,望洋の郷,宮崎県串間市大字南方4201-1,,,,31.4438,131.216076,
467,E4520700074112,望洋の郷,宮崎県串間市大字南方4201-1,,,,31.4438,131.216076,
468,E4520700075111,金谷小学校,宮崎県串間市大字南方4438,1,,,31.445599,131.212917,
469,E4520700076111,下弓田公民館,宮崎県串間市大字南方下弓田,,,,31.441902,131.223543,
470,E4520700077111,北方農村研修センター,宮崎県串間市大字北方1466-1,,,,31.482204,131.243835,
471,E4520700007112,めぐみの郷,宮崎県串間市大字北方1599,,,,31.4813023550176,131.253113336472,
472,E4520700079111,旧北方中学校,宮崎県串間市大字北方3768,1,,,31.485968,131.248323,
473,E4520700080111,農村環境改善センター,宮崎県串間市大字北方4117-1,,,,31.480897,131.24432,
474,E4520700081111,北方小学校,宮崎県串間市大字北方4894,1,,,31.469634,131.243338,
475,E4520700082111,屋治地区集落センター,宮崎県串間市大字北方屋治,,,,31.480806,131.24756,
476,E4520700083111,旧本城中学校,宮崎県串間市大字本城5951-2,1,,,31.435941,131.263412,
477,E4520700084111,本城小学校,宮崎県串間市大字本城7764,1,,,31.433999,131.262414,
478,E4520700085111,本城支所,宮崎県串間市大字本城987,,,,31.435453,131.277703,
479,E4520700086111,下千野集落センター,宮崎県串間市大字本城下千野,,,,31.43183588,131.2372598,
480,E4520700087111,中園公民館,宮崎県串間市大字本城下中園,,,,31.435891,131.272029,
481,E4520700088111,居城田公民館,宮崎県串間市大字本城居城田,,,,31.445244,131.280901,
482,E4520700089111,港公民館,宮崎県串間市大字本城港,,,,31.42695585,131.2442825,
483,E4520700090111,小田代公民館,宮崎県串間市大字本城小田代,,,,31.43026436,131.2713814,
484,E4520700091111,中千野集落センター,宮崎県串間市大字本城中千野,,,,31.434693,131.243603,
485,E4520700092111,道場公民館,宮崎県串間市大字本城道場,,,,31.43399274,131.273222,
486,E4520700093111,遍保ヶ野公民館,宮崎県串間市大字本城遍保ケ野,,,,31.44891148,131.2795879,
487,E4520700094111,ビッグプリンス３０００,宮崎県串間市東町12-1,,,,31.46273,131.232783,
488,E4544300001111,鞍岡小学校体育館,宮崎県五ヶ瀬町大字鞍岡1696,1,,,32.64775851,131.1635644,
489,E4544300002111,１２区集落センター,宮崎県五ヶ瀬町大字鞍岡2216,,,,32.64104519,131.1472569,
490,E4544300003111,１１区集落センター,宮崎県五ヶ瀬町大字鞍岡2827-1,,,,32.6438022,131.1578188,
491,E4544300004111,１３区集落センター,宮崎県五ヶ瀬町大字鞍岡5004,,,,32.61720122,131.162308,
492,E4544300005111,鞍岡地区公民館,宮崎県五ヶ瀬町大字鞍岡5793,,,,32.64166845,131.1585263,
493,E4544300006111,鞍岡地区複合型交流施設,宮崎県五ヶ瀬町大字鞍岡5929,1,,,32.6432726,131.1598764,
494,E4544300007111,９区生活改善センター,宮崎県五ヶ瀬町大字鞍岡7154-2,,,,32.67302565,131.1589501,
495,E4544300008111,桑野内交流センター,宮崎県五ヶ瀬町大字桑野内1514-5,,,,32.72990499,131.2336469,
496,E4544300008121,共生型福祉施設ぬくもり,宮崎県五ヶ瀬町大字桑野内1514-5,,,避難生活が困難なお年寄りや障害のある方など,32.72957105,131.2336576,
497,E4544300009111,桑野内生活改善センター,宮崎県五ヶ瀬町大字桑野内3848-3,,,,32.72198145,131.2143874,
498,E4544300010111,上組小学校・体育館,宮崎県五ヶ瀬町大字桑野内4915-1,1,,,32.713322,131.200131,
499,E4544300011111,上組生活改善センター,宮崎県五ヶ瀬町大字桑野内4918-1,,,,32.71288863,131.2015166,
500,E4544300012111,五ヶ瀬町町民センター,宮崎県五ヶ瀬町大字三ケ所10693-1,,,,32.68389272,131.1990824,
501,E4544300014111,三ヶ所小学校体育館,宮崎県五ヶ瀬町大字三ケ所10750,1,,,32.684416,131.201503,
502,E4544300015111,五ヶ瀬中学校体育館,宮崎県五ヶ瀬町大字三ケ所11530,1,,,32.686358,131.196815,
503,E4544300016111,五ヶ瀬町役場,宮崎県五ヶ瀬町大字三ケ所1670,1,,,32.683389,131.196901,
504,E4544300017111,荒踊の館,宮崎県五ヶ瀬町大字三ケ所3268,,,,32.653628,131.225284,
505,E4544300018111,坂本小学校体育館,宮崎県五ヶ瀬町大字三ケ所3446,1,,,32.652328,131.222449,
506,E4544300019111,長迫地区集会施設,宮崎県五ヶ瀬町大字三ケ所5622-7,,,,32.63089388,131.2247821,
507,E4544300020111,牧集落センター,宮崎県五ヶ瀬町大字三ケ所6020-2,,,,32.650494,131.222965,
508,E4544300021111,坂狩地区集落センター,宮崎県五ヶ瀬町大字三ケ所8039-1,,,,32.65806873,131.2208554,
509,E4544300022111,宮の原生活改善センター,宮崎県五ヶ瀬町大字三ケ所8705,,,,32.67203115,131.2131279,
510,E4544300023111,五ヶ瀬町Ｇドーム,宮崎県五ヶ瀬町大字三ケ所9223,1,,,32.679888,131.210135,
511,E4544300024121,五ヶ瀬町子育て支援施設,宮崎県五ヶ瀬町大字三ケ所9400,,,避難生活が困難なお年寄りや障害のある方など,32.67754166,131.2097548,
512,E4544300025111,五ヶ瀬中等教育学校,宮崎県五ヶ瀬町大字三ケ所9468-30,,,,32.67743755,131.208002,
513,E4544300013121,五ヶ瀬町福祉センター,宮崎県五ヶ瀬町大字三ヶ所10725-5,,,避難生活が困難なお年寄りや障害のある方など,32.68545577,131.1983724,
514,E4536100038111,並木公民館,宮崎県高原町大字蒲牟田1158-1,,,,31.923027,130.9941,
515,E4536100038121,並木公民館,宮崎県高原町大字蒲牟田1158-1,,,,31.92315,130.994189,
516,E4536100003111,蒲牟田活性化センター,宮崎県高原町大字蒲牟田2909,,,,31.916787583297,131.0102857405,
517,E4536100005111,湯之元集落センター,宮崎県高原町大字蒲牟田4901-2,,,,31.900160792104,130.98952459351,
518,E4536100007112,狭野小学校,宮崎県高原町大字蒲牟田5543,,,,31.904469593691,130.98022261881,
519,E4536100012112,後川内中学校,宮崎県高原町大字後川内2651,,,,31.924716198198,131.07104215502,
520,E4536100013112,後川内小学校,宮崎県高原町大字後川内2666,,,,31.924538630413,131.06976005911,
521,E4536100014111,上後川内地区多目的活動施設,宮崎県高原町大字後川内2903,,,,31.92225785081,131.06115100379,
522,E4536100015111,下後川内多目的集会施設,宮崎県高原町大字後川内4203-1,,,,31.922470211429,131.08288441805,
523,E4536100017111,広原小学校体育館,宮崎県高原町大字広原1472,,,,31.960719373764,130.98778945584,
524,E4536100017112,広原小学校,宮崎県高原町大字広原1472,,,,31.961026581431,130.98787528654,
525,E4536100018111,上広原地区多目的活動施設,宮崎県高原町大字広原2072-5,,,,31.960260825408,130.99103474565,
526,E4536100019111,下広原構造改善センター,宮崎県高原町大字広原3432,,,,31.953925259863,130.99721455522,
527,E4536100021111,高原町中央運動公園,宮崎県高原町大字広原4952-127,,,,31.930282257145,130.99407799455,
528,E4536100023111,常盤台活性化センター,宮崎県高原町大字広原5993-7,,,,31.926072211741,130.97552517611,
529,E4536100024111,西広原活性化センター,宮崎県高原町大字広原644-4,,,,31.96666697778,130.9827098254,
530,E4536100025121,高原町教育集会所,宮崎県高原町大字西麓1552-1,,,,31.924484,131.010445,
531,E4536100027111,出口農業構造改善センター,宮崎県高原町大字西麓2885,,,,31.934585852983,131.02133737207,
532,E4536100029112,高原小学校,宮崎県高原町大字西麓340,,,,31.927923586438,131.00664057268,
533,E4536100029111,高原小学校体育館,宮崎県高原町大字西麓340,,,,31.927615375966,131.00737690172,
534,E4536100031111,高原町総合保健福祉センターほほえみ館,宮崎県高原町大字西麓360-1,,,,31.926920830828,131.00463219774,
535,E4536100031121,高原町総合保健福祉センターほほえみ館,宮崎県高原町大字西麓360-1,,,要配慮者,31.926920830828,131.00463219774,
536,E4536100034111,越農業構造改善センター,宮崎県高原町大字西麓4274-4,,,,31.945839257424,131.04776926278,
537,E4536100035111,鹿児山農業構造改善センター,宮崎県高原町大字西麓4401-5,,,,31.944695283111,131.03474555237,
538,E4536100036112,高原中学校,宮崎県高原町大字西麓709-144,,,,31.933896740712,131.00411393178,
539,E4536100036111,高原中学校体育館,宮崎県高原町大字西麓709-144,,,,31.934130305261,131.00489854059,
540,E4536100039121,高原町高齢者等交流館,宮崎県高原町大字西麓868-2,,,,31.926833,131.006529,
541,E4536100039111,高原町高齢者等交流館,宮崎県高原町大字西麓868-2,,,,31.930348,131.007959,
542,E4536100037111,高原町総合運動公園,宮崎県高原町大字西麓７０９－９外,,,,31.932262677779,131.00674338551,
543,E4544100032111,押方体育館,宮崎県高千穂町大字押方1291-1,,,,32.709619721265,131.29351161886,
544,E4544100033111,山附活性化センター,宮崎県高千穂町大字押方1822-1,,,,32.690490744618,131.28272645643,
545,E4544100003111,三原尾野公民館,宮崎県高千穂町大字押方2819-2,,,,32.701016021895,131.27305597645,
546,E4544100004111,下押方公民館,宮崎県高千穂町大字押方5602,,,,32.712623557323,131.29065506628,
547,E4544100005111,押方小学校体育館,宮崎県高千穂町大字押方561-1,,,,32.710859492532,131.27771561885,
548,E4544100006111,五ヶ村西公民館,宮崎県高千穂町大字押方842,,,,32.728697213231,131.26814865044,
549,E4544100007111,下野西公民館,宮崎県高千穂町大字下野5163,,,,32.737211827275,131.3026460808,
550,E4544100008111,田原中学校校舎,宮崎県高千穂町大字河内1576,,,,32.77072443978,131.25547106399,
551,E4544100009111,下河内公民館,宮崎県高千穂町大字河内2626,,,,32.760230344754,131.24593461332,
552,E4544100010111,田原小学校体育館,宮崎県高千穂町大字河内36,,,,32.776331533302,131.25407257033,
553,E4544100011111,田原出張所,宮崎県高千穂町大字河内45,,,,32.777092516646,131.25607053484,
554,E4544100012111,奥鶴公民館,宮崎県高千穂町大字河内670-10,,,,32.780358634348,131.24419505728,
555,E4544100014111,岩戸小学校体育館,宮崎県高千穂町大字岩戸1076-1,,,,32.734707425221,131.34974630668,
556,E4544100015111,岩戸体育館,宮崎県高千穂町大字岩戸4518-2,,,,32.738070619844,131.35262476223,
557,E4544100016111,旧五ヶ所小学校体育館,宮崎県高千穂町大字五ケ所697-2,,,,32.812685287554,131.28084878169,
558,E4544100017111,旧向山北小学校校舎,宮崎県高千穂町大字向山1232-1,,,,32.695753871181,131.31247603208,
559,E4544100018111,椎屋谷公民館,宮崎県高千穂町大字向山457,,,,32.697595084277,131.30181544011,
560,E4544100019111,旧向山南校体育館,宮崎県高千穂町大字向山4815-1,,,,32.668082868073,131.30951849083,
561,E4544100020111,高千穂小学校体育館,宮崎県高千穂町大字三田井122,,,,32.711798510115,131.31051998962,
562,E4544100034111,高千穂高校体育館,宮崎県高千穂町大字三田井1234,,,,32.70969,131.303724,
563,E4544100021112,自然休養村管理センター,宮崎県高千穂町大字三田井1339-1,,,,32.714787954752,131.30277676235,
564,E4544100021111,高千穂町武道館,宮崎県高千穂町大字三田井1339-1,,,,32.713754364713,131.30268020283,
565,E4544100002121,高千穂町保健福祉総合センターげんき荘,宮崎県高千穂町大字三田井435-1,,,,32.716959990992,131.31523472427,
566,E4544100001122,高千穂町デイサービスセンター,宮崎県高千穂町大字三田井750-1,,,,32.7095715800749,131.31125787992,
567,E4544100001121,高千穂町老人福祉館,宮崎県高千穂町大字三田井750-1,,,,32.7097465329746,131.311169476264,
568,E4544100026111,旧上岩戸小学校体育館,宮崎県高千穂町大字上岩戸532,,,,32.761924037743,131.38566712671,
569,E4544100027111,黒口公民館,宮崎県高千穂町大字上野2535,,,,32.751601057124,131.27999642397,
570,E4544100028112,上野公民館（出張所）,宮崎県高千穂町大字上野4961,,,,32.755765170042,131.29874506497,
571,E4544100028111,上野体育館,宮崎県高千穂町大字上野4961,,,,32.756191495643,131.29904010795,
572,E4544100029111,下田原公民館,宮崎県高千穂町大字田原2079,,,,32.758891641209,131.26765470055,
573,E4544100030111,高岩公民館,宮崎県高千穂町大字田原2989,,,,32.749433340041,131.26126301474,
574,E4544100031111,上田原公民館,宮崎県高千穂町大字田原554-5,,,,32.766930254186,131.27769603072,
575,E4540100006111,高鍋信用金庫,宮崎県高鍋町大字高鍋町673,,,,32.12723,131.50929,
576,E4540100009111,高鍋西中学校（体育館）,宮崎県高鍋町大字持田1524-1,,,,32.141659994952,131.50717249999,
577,E4540100010111,南薩食鳥,宮崎県高鍋町大字持田1991,1,,,32.1432873677825,131.519310272695,
578,E4540100016111,農業大学校（体育館）,宮崎県高鍋町大字持田5733,,,,32.167961915193,131.52128114031,
579,E4540100017111,高鍋農業高等学校（体育館）,宮崎県高鍋町大字上江1339-2,1,,,32.123443959274,131.50517462527,
580,E4540100019111,高鍋西小学校（体育館）,宮崎県高鍋町大字上江1951,1,,,32.138891180878,131.50278065741,
581,E4540100022111,東児湯消防組合,宮崎県高鍋町大字上江4526,,,,32.154889918638,131.5005753902,
582,E4540100025111,めいりんの湯,宮崎県高鍋町大字上江6900,1,,,32.11932211315,131.47872737343,
583,E4540100026121,社会福祉法人晴陽会うからの里,宮崎県高鍋町大字上江7778,,,要配慮者,32.130804342587,131.49703607958,
584,E4540100027121,はぐはぐこども村,宮崎県高鍋町大字上江7785,,,要配慮者,32.129122089207,131.49876629819,
585,E4540100028111,高鍋町スポーツセンター,宮崎県高鍋町大字上江7790,1,,,32.127686319673,131.4995346931,
586,E4540100032111,高鍋町中央公民館,宮崎県高鍋町大字上江8113,,,,32.131338206699,131.50530994261,
587,E4540100034111,高鍋町体育館,宮崎県高鍋町大字上江8339,,,,32.130645619646,131.50488013918,
588,E4540100035111,高鍋町防災センター（役場来客駐車場内）,宮崎県高鍋町大字上江8437,,,,32.128382452094,131.50309869178,
589,E4540100056111,ホテル四季亭,宮崎県高鍋町大字北高鍋5224,1,,,32.12710262,131.5061595,
590,E4538200001111,国富町農業者トレーニングセンター,宮崎県国富町大字三名1657,,,,32.0082185,131.3425825,
591,E4538200002111,国富町立森永小学校体育館,宮崎県国富町大字森永1967,,,,31.99979499,131.2840667,
592,E4538200003111,国富町深年体育館,宮崎県国富町大字深年5590-1,,,,32.02163684,131.290278,
593,E4538200004111,須志田地区農業構造改善センター,宮崎県国富町大字須志田1104-2,,,,32.01153319,131.2844296,
594,E4538200005111,国富町立八代中学校体育館,宮崎県国富町大字八代南俣1710,,,,32.02646147,131.3072606,
595,E4538200006111,国富町立八代小学校体育館,宮崎県国富町大字八代南俣2101,,,,32.02801371,131.3077057,
596,E4538200007111,国富町籾木体育館,宮崎県国富町大字八代南俣3808-1,,,,32.05843556,131.2956963,
597,E4538200008111,国富町北俣体育館,宮崎県国富町大字八代北俣2365-8,,,,32.04725309,131.3166681,
598,E4538200009111,国富町中央コミュニティセンター,宮崎県国富町大字本庄11895,,,,31.99553557,131.3351899,
599,E4538200010111,国富町東部体育館,宮崎県国富町大字本庄2367-2,,,,31.98452472,131.337107,
600,E4538200011111,国富町立本庄小学校体育館,宮崎県国富町大字本庄4056,,,,31.98818722,131.3247863,
601,E4538200012112,国富町農村環境改善センター,宮崎県国富町大字本庄4778,,,,31.99043263,131.324257,
602,E4538200012111,国富町武道館,宮崎県国富町大字本庄4778,,,,31.99056878,131.3247945,
603,E4538200013111,宮崎県立本庄高等学校,宮崎県国富町大字本庄5071,,,,31.98697657,131.3184965,
604,E4538200014111,国富町立本庄中学校体育館,宮崎県国富町大字本庄6686,,,,31.99254649,131.3108515,
605,E4538200015111,国富町立木脇中学校体育館,宮崎県国富町大字木脇1707,,,,31.99097808,131.3552179,
606,E4538200016111,国富町立木脇小学校体育館,宮崎県国富町大字木脇1730,,,,31.99237081,131.3560384,
607,E4538200017111,木脇地区農業構造改善センター,宮崎県国富町大字木脇3096-1,,,,31.98558622,131.368479,
608,E4538200018111,国富町川南地区健康増進センター,宮崎県国富町大字嵐田1518-1,,,,31.97445639,131.3088109,
609,E4534100001111,三股西小体育館,宮崎県三股町花見原11-1,1,,,31.737456,131.105537,
610,E4534100002111,武道体育館,宮崎県三股町五本松13-4,,,,31.730553,131.121675,
611,E4534100003111,三股町体育館,宮崎県三股町五本松7-1,,,,31.730971,131.122534,
612,E4534100004111,中央公民館,宮崎県三股町五本松8-1,,,,31.730863,131.123346,
613,E4534100007111,西部地区体育館,宮崎県三股町大字樺山1765-10,,,,31.7272107424567,131.110884599221,
614,E4534100009111,第９地区分館,宮崎県三股町大字樺山1867-2,,,,31.725536,131.107109,
615,E4534100010111,西植木コミュニティーセンター,宮崎県三股町大字樺山1908-1,,,,31.726064,131.105087,
616,E4534100011111,第２地区分館,宮崎県三股町大字樺山2724-91,,,,31.723776,131.128064,
617,E4534100012111,第２地区交流プラザ,宮崎県三股町大字樺山2730,,,,31.724193,131.128158,
618,E4534100013121,総合福祉センター　元気の杜,宮崎県三股町大字樺山3384-2,,,要配慮者,31.728867,131.121577,
619,E4534100014111,文化会館,宮崎県三股町大字樺山3404-2,1,,,31.72874,131.123413,
620,E4534100015111,第１地区分館,宮崎県三股町大字樺山3480-2,,,,31.731379,131.126648,
621,E4534100016111,三股中学校,宮崎県三股町大字樺山3548,1,,,31.73128,131.128302,
622,E4534100018111,第７地区分館,宮崎県三股町大字樺山4373-2,,,,31.736206,131.116061,
623,E4534100019111,三股小体育館,宮崎県三股町大字樺山4489,1,,,31.733778,131.125608,
624,E4534100020111,第８地区分館,宮崎県三股町大字樺山4598,,,,31.729956,131.114191,
625,E4534100021111,宮村小体育館,宮崎県三股町大字宮村1295,1,,,31.707759,131.12286,
626,E4534100022111,第３地区分館,宮崎県三股町大字宮村1494-1,,,,31.707961,131.121063,
627,E4534100025111,梶山児童館,宮崎県三股町大字長田2860-1,,,,31.738093,131.144133,
628,E4534100026111,梶山小体育館,宮崎県三股町大字長田2876,1,,,31.737978,131.1449,
629,E4534100027111,第４地区分館,宮崎県三股町大字長田3093,,,,31.733577,131.15113,
630,E4534100030111,大野集落センター,宮崎県三股町大字長田5674-3,,,,31.7462492138088,131.207969836703,
631,E4534100031111,長田小体育館,宮崎県三股町大字長田6203,1,,,31.73443,131.185472,
632,E4534100032111,轟木集落センター,宮崎県三股町大字長田6437-1,,,,31.7281004777945,131.177719883447,
633,E4534100033111,殿岡生活改善センター,宮崎県三股町大字餅原1023-4,1,,,31.750151,131.119641,
634,E4534100034111,勝岡小体育館,宮崎県三股町大字餅原973,1,,,31.753815,131.120898,
635,E4534100035111,第６地区分館,宮崎県三股町大字蓼池2295,,,,31.756181,131.118557,
636,E4534100036111,蓼池児童館,宮崎県三股町大字蓼池3494,,,,31.765541,131.119849,
637,E4542900001111,諸塚村役場,宮崎県諸塚村大字家代2683,1,,,32.512288055556,131.33042138889,
638,E4542900002111,塚原伝統芸能伝習館,宮崎県諸塚村大字家代2850,1,,,32.516334403782,131.33042675331,
639,E4542900003111,川の口公民館,宮崎県諸塚村大字家代296,1,,,32.555070881215,131.33157204101,
640,E4542900004111,諸塚村福祉館,宮崎県諸塚村大字家代3066,1,,,32.510928611904,131.33015871032,
641,E4542900004112,諸塚村中央公民館,宮崎県諸塚村大字家代3066,1,,,32.517234722222,131.33607555556,
642,E4542900006111,合宿所「六峰館」,宮崎県諸塚村大字家代3087,1,,,32.519730473206,131.33445288227,
643,E4542900007111,諸塚村民体育館,宮崎県諸塚村大字家代3094,1,,,32.518295368724,131.33435096825,
644,E4542900008111,諸塚小学校体育館,宮崎県諸塚村大字家代3180,1,,,32.519239492207,131.33404378704,
645,E4542900010111,諸塚中学校体育館,宮崎県諸塚村大字家代3292,1,,,32.521538528216,131.34051739022,
646,E4542900011111,家代公民館,宮崎県諸塚村大字家代3788,1,,,32.5215975,131.34741583333,
647,E4542900013111,南川生活改善センター,宮崎県諸塚村大字家代5245,1,,,32.514241966653,131.37680987952,
648,E4542900014111,荒谷小学校　体育館,宮崎県諸塚村大字家代6159,1,,,32.502657782854,131.37268355754,
649,E4542900015111,荒谷公民館,宮崎県諸塚村大字家代6389,1,,,32.492031111111,131.38442777778,
650,E4542900016111,黒葛原公民館,宮崎県諸塚村大字家代801,1,,,32.538075,131.33426916667,
651,E4542900017111,穂白尾公民館,宮崎県諸塚村大字七ツ山1144-12,1,,,32.533066388889,131.30108222222,
652,E4542900018111,七ツ山公民館,宮崎県諸塚村大字七ツ山2106,1,,,32.564085277778,131.29025,
653,E4542900019111,七ツ山社会教育施設体育館,宮崎県諸塚村大字七ツ山2549,1,,,32.568095395304,131.27853143717,
654,E4542900020111,川内公民館,宮崎県諸塚村大字七ツ山2899-2,1,,,32.551860632805,131.26148992857,
655,E4542900021111,松の平公民館,宮崎県諸塚村大字七ツ山357-12,1,,,32.508545873742,131.30727387566,
656,E4542900022111,小原井公民館,宮崎県諸塚村大字七ツ山4458-7,1,,,32.570622457163,131.27390722222,
657,E4542900023111,宮の元体育館,宮崎県諸塚村大字七ツ山4459-2,1,,,32.570986449464,131.27415409789,
658,E4542900024111,八重の平生活改善センター,宮崎県諸塚村大字七ツ山4801-2,1,,,32.583029901216,131.28259085119,
659,E4542900026111,立岩社会教育施設体育館,宮崎県諸塚村大字七ツ山6993-1,1,,,32.588232540356,131.32410607011,
660,E4542900027111,立岩公民館,宮崎県諸塚村大字七ツ山7194-1,1,,,32.587890047917,131.32199518585,
661,E4542900028111,飯干公民館,宮崎県諸塚村大字七ツ山8028,1,,,32.611092233954,131.2721237209,
662,E4542900029111,只石生活改善センター,宮崎県諸塚村大字七ツ山8272-5,1,,,32.598612772573,131.28043968652,
663,E4520500002111,南小学校体育館,宮崎県小林市細野1265,1,,,31.9931573,130.9680942,
664,E4520500004111,文化会館,宮崎県小林市細野1650,,,,31.99123862,130.9737678,
665,E4520500006111,地域・観光交流センター,宮崎県小林市細野1829-16,,,,31.9911898154949,130.975613918232,
666,E4520500007111,小林小学校体育館,宮崎県小林市細野184-1,1,,,31.99517074,130.9764615,
667,E4520500009111,市民体育館,宮崎県小林市細野38-1,,,,31.9939118,130.9829618,
668,E4520500009112,中央公民館,宮崎県小林市細野38-1,,,,31.99348868,130.9835036,
669,E4520500010111,細野小学校体育館,宮崎県小林市細野3921,1,,,31.97837368,130.9645818,
670,E4520500011112,細野中学校体育館,宮崎県小林市細野4374,1,,,31.97509826,130.9647564,
671,E4520500012111,小林中学校体育館,宮崎県小林市細野565-1,1,,,32.00219734,130.964685,
672,E4520500013111,南地区体育館,宮崎県小林市細野979-1,,,,31.98850341,130.9641723,
673,E4520500015111,真方地区体育館,宮崎県小林市真方4906-1,,,,32.0026641,130.9907809,
674,E4520500063111,西諸広域行政事務組合消防本部,宮崎県小林市真方493,,,,31.992026,130.988271,
675,E4520500016111,下田地区農業構造改善センター永田館,宮崎県小林市須木下田1244-1,,,,32.07302631,131.0744986,
676,E4520500017111,須木小学校体育館,宮崎県小林市須木下田1392-3,,,,32.07151874,131.0729809,
677,E4520500019111,高齢者コミュニティセンター城山館,宮崎県小林市須木下田662-1,,,,32.06545864,131.0797118,
678,E4520500020111,須木中学校体育館,宮崎県小林市須木中原1730,1,,,32.07619534,131.0702016,
679,E4520500023111,原地区集会施設,宮崎県小林市須木中原1819-2,,,,32.08047594,131.0695959,
680,E4520500024111,中河間地区生活改善センター,宮崎県小林市須木中原2346,,,,32.08388938,131.0628019,
681,E4520500025111,夏木地区多目的研修集会施設夏木館,宮崎県小林市須木鳥田町2858-2,,,,32.10215875,131.0443464,
682,E4520500026111,堂屋敷公民館,宮崎県小林市須木鳥田町3070-57,,,,32.14155858,131.0413007,
683,E4520500027111,旧鳥田町小学校体育館,宮崎県小林市須木鳥田町3181,1,,,32.09415719,131.0345868,
684,E4520500028111,下九瀬公民館,宮崎県小林市須木鳥田町3497-1,,,,32.08891251,131.0293783,
685,E4520500029111,上九瀬公民館,宮崎県小林市須木鳥田町3734-5,,,,32.07575482,131.0259335,
686,E4520500030111,旧内山小中学校体育館,宮崎県小林市須木内山5052,1,,,32.00506727,131.1148073,
687,E4520500031111,内山地域福祉センター,宮崎県小林市須木内山5203-1,,,,32.00280493,131.1158989,
688,E4520500034111,三松中学校体育館,宮崎県小林市堤2331-3,1,,,31.9759178,130.9979931,
689,E4520500035111,三松小学校体育館,宮崎県小林市堤3519,1,,,31.97091042,131.0019951,
690,E4520500036111,三松地区体育館,宮崎県小林市堤3699-32,,,,31.96429924,131.008026,
691,E4520500037111,東方中学校体育館,宮崎県小林市東方3094-2,1,,,32.00879984,131.0094164,
692,E4520500038111,東方小学校体育館,宮崎県小林市東方3216,1,,,32.01267768,131.0075825,
693,E4520500039111,奈佐木地区多目的研修集会施設,宮崎県小林市奈佐木4214-1,,,,32.0418167,131.0614144,
694,E4520500041111,西小林小学校体育館,宮崎県小林市南西方6068-1,1,,,32.00815616,130.9126567,
695,E4520500042111,西小林中学校体育館,宮崎県小林市南西方6149,1,,,32.01048094,130.9128515,
696,E4520500044111,幸ヶ丘小学校体育館,宮崎県小林市南西方7772,1,,,31.9809478,130.9139477,
697,E4520500045111,永久津地区体育館,宮崎県小林市北西方4076,,,,32.02589002,130.9751739,
698,E4520500046111,永久津小学校体育館,宮崎県小林市北西方4440-8,1,,,32.02274644,130.9711916,
699,E4520500047111,永久津中学校体育館,宮崎県小林市北西方4578,1,,,32.02104528,130.9656882,
700,E4520500064111,西小林地区体育館,宮崎県小林市北西方６２１２－イ－３,,,,32.01348022,130.9068172,
701,E4520500050111,いきいきコミュニテイセンター,宮崎県小林市野尻町三ケ野山4094-4,,,,31.9775655,131.0612109,
702,E4520500051111,三ヶ野山地区体育館,宮崎県小林市野尻町三ケ野山4095-3,,,,31.9774219,131.0617922,
703,E4520500053111,栗須小学校体育館,宮崎県小林市野尻町三ケ野山4136-1,,,,31.97693957,131.0630351,
704,E4520500055111,野尻町農村環境センター,宮崎県小林市野尻町三ケ野山4336-54,,,,31.96451833,131.0789695,
705,E4520500056111,紙屋中学校体育館,宮崎県小林市野尻町紙屋1754,1,,,31.96416305,131.1832352,
706,E4520500057111,紙屋小学校体育館,宮崎県小林市野尻町紙屋1766-1,1,,,31.96304918,131.1802136,
707,E4520500058111,紙屋老人福祉館,宮崎県小林市野尻町紙屋1994-1,,,,31.96403176,131.1732177,
708,E4520500059111,紙屋地区体育館,宮崎県小林市野尻町紙屋2897-6,,,,31.96232721,131.1692101,
709,E4520500061111,野尻小学校体育館,宮崎県小林市野尻町東麓25,1,,,31.95743364,131.1046946,
710,E4520500062111,野尻中学校体育館,宮崎県小林市野尻町東麓2570-4,1,,,31.96110104,131.0815391,
711,E4540200001111,伊倉地区集会所,宮崎県新富町大字伊倉13,,,,32.073109,131.438597,
712,E4540200002111,中須地区集会所,宮崎県新富町大字伊倉1349,,,,32.065886,131.433514,
713,E4540200003111,東五反田地区集会所,宮崎県新富町大字下富田1316-1,,,,32.057746,131.499821,
714,E4540200005111,西五反田地区集会所,宮崎県新富町大字下富田1553-1,,,,32.057564,131.495204,
715,E4540200006111,江梅瀬地区集会所,宮崎県新富町大字下富田2752-8,,,,32.054883,131.489372,
716,E4540200007111,横江地区集会所,宮崎県新富町大字下富田3296,,,,32.054817,131.485239,
717,E4540200009111,軍瀬地区集会所,宮崎県新富町大字下富田3661,,,,32.055791,131.48282,
718,E4540200010111,王子地区集会所,宮崎県新富町大字下富田476-2,,,,32.052944,131.50039,
719,E4540200011121,特別養護老人ホームしんとみ希望の里,宮崎県新富町大字下富田629-5,1,,要配慮者,32.055484,131.500038,
720,E4540200012111,宮之首地区集会所,宮崎県新富町大字三納代1005-1,,,,32.0847,131.478697,
721,E4540200013111,矢床地区集会所,宮崎県新富町大字三納代1083-12,,,,32.085394,131.481237,
722,E4540200014111,奥地区集会所,宮崎県新富町大字三納代1272-6,,,,32.082549,131.482792,
723,E4540200016111,下三納代地区集会所,宮崎県新富町大字三納代1864-47,,,,32.073202,131.497553,
724,E4540200017111,新町地区集会所,宮崎県新富町大字三納代2308-1,,,,32.073235,131.499206,
725,E4540200018111,弁指地区集会所,宮崎県新富町大字三納代2516,,,,32.071773,131.489087,
726,E4540200019111,平伊倉地区集会所,宮崎県新富町大字三納代2847-10,,,,32.088141,131.472042,
727,E4540200020111,大渕地区集会所,宮崎県新富町大字上富田2612,,,,32.051681,131.476509,
728,E4540200021111,田中地区集会所,宮崎県新富町大字上富田3802,,,,32.062097,131.482139,
729,E4540200022111,新馬場地区集会所,宮崎県新富町大字上富田4106,,,,32.058416,131.471458,
730,E4540200023111,富田町地区集会所,宮崎県新富町大字上富田436,,,,32.060763,131.466581,
731,E4540200024121,障がい者支援施設あゆみの里,宮崎県新富町大字上富田4726-1,,,要配慮者,32.062431,131.472604,
732,E4540200025111,上城元地区集会所,宮崎県新富町大字上富田5135-1,,,,32.065171,131.469647,
733,E4540200026111,新富町総合交流センターきらり,宮崎県新富町大字上富田6345-5,1,,,32.070532,131.485258,
734,E4540200028111,新富町文化会館,宮崎県新富町大字上富田6367-1,1,,,32.070017,131.483517,
735,E4540200029111,下城元地区集会所,宮崎県新富町大字上富田7464-3,,,,32.068449,131.483182,
736,E4540200030111,新富町福祉学習等共用施設,宮崎県新富町大字上富田7485-14,1,,,32.069248,131.486717,
737,E4540200031111,新富町体育館,宮崎県新富町大字上富田7485-4,1,,,32.068817,131.486599,
738,E4540200032111,富田小学校（講堂）,宮崎県新富町大字上富田7694-2,,,,32.067939,131.493247,
739,E4540200033111,平田地区集会所,宮崎県新富町大字上富田7731-1,,,,32.069661,131.494162,
740,E4540200034111,富田中学校（体育館）,宮崎県新富町大字上富田7776-1,,,,32.069866,131.4948,
741,E4540200035111,鬼付女地区集会所,宮崎県新富町大字上富田8572-1,,,,32.067756,131.499464,
742,E4540200037111,竹渕地区集会所,宮崎県新富町大字新田10011-7,,,,32.080674,131.424707,
743,E4540200038111,新田原学習等供用施設,宮崎県新富町大字新田1148-1,,,,32.089307,131.460168,
744,E4540200039112,瀬口地区集会所,宮崎県新富町大字新田11711-1,,,,32.085176,131.410834,
745,E4540200039111,柳瀬地区集会所,宮崎県新富町大字新田11711-1,,,,32.062266,131.425908,
746,E4540200040111,下今町地区集会所,宮崎県新富町大字新田121-1,,,,32.058279,131.461216,
747,E4540200041111,溜水地区集会所,宮崎県新富町大字新田1270-7,,,,32.076605,131.45799,
748,E4540200042111,大和地区集会所,宮崎県新富町大字新田1318-1,,,,32.06837,131.45584,
749,E4540200043111,春日地区集会所,宮崎県新富町大字新田13867,,,,32.097402,131.419689,
750,E4540200045111,川床地区集会所,宮崎県新富町大字新田15258-5,,,,32.104962,131.434309,
751,E4540200046111,祇園原地区集会所,宮崎県新富町大字新田15871,,,,32.105093,131.426458,
752,E4540200047111,十文字地区集会所,宮崎県新富町大字新田16274-1,,,,32.095378,131.442776,
753,E4540200048111,一丁田地区集会所,宮崎県新富町大字新田16367-2,,,,32.099971,131.446465,
754,E4540200049111,上新田小学校（講堂）,宮崎県新富町大字新田16416,1,,,32.10143,131.448018,
755,E4540200050111,黒坂地区集会所,宮崎県新富町大字新田16763-24,,,,32.11497,131.437237,
756,E4540200051111,勤労者体育センター,宮崎県新富町大字新田17043-1,1,,,32.104426,131.446349,
757,E4540200053111,上新田中学校（体育館）,宮崎県新富町大字新田17053,,,,32.105,131.44807,
758,E4540200054111,上新田公民館,宮崎県新富町大字新田17053-17,1,,,32.104585,131.447695,
759,E4540200056111,西畦原地区集会所,宮崎県新富町大字新田17306-2,,,,32.112068,131.44875,
760,E4540200057111,東畦原地区集会所,宮崎県新富町大字新田17487-3,,,,32.115573,131.453981,
761,E4540200058111,三財原地区集会所,宮崎県新富町大字新田18009-3,,,,32.108512,131.457931,
762,E4540200059111,湯之宮地区集会所,宮崎県新富町大字新田18648-1,,,,32.098116,131.454612,
763,E4540200060111,湯風呂地区集会所,宮崎県新富町大字新田19073-5,,,,32.099643,131.471432,
764,E4540200061111,北畦原地区集会所,宮崎県新富町大字新田21750,,,,32.122873,131.446438,
765,E4540200062111,上今町地区集会所,宮崎県新富町大字新田2322-1,,,,32.058592,131.457565,
766,E4540200063111,新田新町地区集会所,宮崎県新富町大字新田3338,,,,32.066438,131.455317,
767,E4540200064111,舟津地区集会所,宮崎県新富町大字新田3450,,,,32.060676,131.454784,
768,E4540200065121,介護老人保健施設シルバーケア新富,宮崎県新富町大字新田481-1,,,要配慮者,32.064424,131.460689,
769,E4540200066111,塚原地区集会所,宮崎県新富町大字新田573-1,,,,32.064433,131.464251,
770,E4540200067111,成法寺地区集会所,宮崎県新富町大字新田5743-11,,,,32.068797,131.446659,
771,E4540200068111,新田学園中学部（講堂）,宮崎県新富町大字新田5795,,,,32.070964,131.445827,
772,E4540200069111,末永地区集会所,宮崎県新富町大字新田6141-4,,,,32.065404,131.448039,
773,E4540200095111,新田コミュニティセンター,宮崎県新富町大字新田7045-1,1,,,32.070238,131.442892,
774,E4540200070111,西体育館,宮崎県新富町大字新田7287,1,,,32.070004,131.443612,
775,E4540200072111,新田学園小学部（講堂）,宮崎県新富町大字新田7717,,,,32.071593,131.443574,
776,E4540200074111,麓地区集会所,宮崎県新富町大字新田8277-1,,,,32.074903,131.441359,
777,E4540200075111,山之坊地区集会所,宮崎県新富町大字新田9382-3,,,,32.07955,131.432658,
778,E4540200076111,中村地区集会所,宮崎県新富町大字新田9807-2,,,,32.075777,131.426196,
779,E4540200077111,今別府地区集会所,宮崎県新富町大字日置1600-2,,,,32.07556,131.502871,
780,E4540200078111,上日置地区集会所,宮崎県新富町大字日置3440-10,,,,32.090439,131.503836,
781,E4540200079111,追分地区集会所,宮崎県新富町大字日置5156-1,,,,32.106068,131.488318,
782,E4540200080111,富田小学校旧追分分校（講堂）,宮崎県新富町大字日置5161-1,1,,,32.106039,131.488337,
783,E4540200081111,六反田地区集会所,宮崎県新富町大字日置672-11,,,,32.08149,131.512115,
784,E4540200082111,野中地区集会所,宮崎県新富町大字日置70,,,,32.084673,131.513974,
785,E4540200083111,岩脇地区集会所,宮崎県新富町大字日置822-45,,,,32.078574,131.509927,
786,E4540200084111,日之出地区集会所,宮崎県新富町大字日置964-29,,,,32.079589,131.515082,
787,E4540200089111,越馬場地区集会所,宮崎県新富町富田東1-30-2,,,,32.067747,131.493964,
788,E4540200093111,八幡地区集会所,宮崎県新富町富田南1-101,,,,32.065582,131.489087,
789,E4540200094111,新富町商工業研修センター,宮崎県新富町富田南1-112-2,,,,32.0647771665191,131.488737059246,
790,E4520800004111,宮崎県農業協同組合　西都地区本部,宮崎県西都市右松2071,,,,32.102053,131.404793,
791,E4520800007111,西都市児童館,宮崎県西都市下妻4,1,,,32.106312,131.406125,
792,E4520800009111,三財小・中学校,宮崎県西都市下三財8195,,,,32.070964,131.341967,
793,E4520800012111,三納小・中学校,宮崎県西都市三納3231-5,,,,32.112866,131.349544,
794,E4520800099111,西都市文化ホール,宮崎県西都市小野崎1-76,,,,32.106134,131.404433,ホール内はつり天井のため改修工事が完了するまでは講習室を避難所として使用。
795,E4520800014111,西都市民会館,宮崎県西都市小野崎2-49,1,,,32.103415,131.405921,
796,E4520800016111,東米良　仁の里,宮崎県西都市上揚2-2,,,,32.272383,131.247911,
797,E4520800019111,西都市公民館,宮崎県西都市聖陵町2-26,1,,,32.108282,131.401141,
798,E4520800021111,妻高等学校,宮崎県西都市大字右松2330,1,,,32.108726,131.39611,
799,E4520800022111,妻中学校,宮崎県西都市大字右松2534,1,,,32.107068,131.401669,
800,E4520800023112,妻中学校　第二体育館,宮崎県西都市大字右松2606-1,1,,,32.10665,131.402501,
801,E4520800024111,妻北小学校,宮崎県西都市大字右松2688,1,,,32.113508,131.402148,
802,E4520800026111,岩崎保育園,宮崎県西都市大字下三財3324-1,1,,,32.06168,131.358356,
803,E4520800027111,岩崎元村自治公民館,宮崎県西都市大字下三財3330-4,1,,,32.062131,131.358143,
804,E4520800028112,三財地区館,宮崎県西都市大字下三財5211-2,1,,,32.060251,131.35949,
805,E4520800028111,三財地区体育館,宮崎県西都市大字下三財5211-2,1,,,32.060523,131.359594,
806,E4520800030121,介護老人保健施設　並木の里,宮崎県西都市大字下三財8124-8,,,市が特定した者（要配慮者）,32.069345,131.344856,
807,E4520800032111,旧三財中学校体育館,宮崎県西都市大字下三財8242,1,,,32.07166754642,131.33879092597,
808,E4520800033121,特別養護老人ホーム　とのこおり荘,宮崎県西都市大字岩爪1645,,,市が特定した者（要配慮者）,32.045173,131.38421,
809,E4520800034111,都於郡中学校,宮崎県西都市大字岩爪2422,1,,,32.053777,131.383297,
810,E4520800035111,銀上小・銀鏡中学校,宮崎県西都市大字銀鏡466,1,,,32.261563,131.252445,
811,E4520800036111,銀鏡自治公民館,宮崎県西都市大字銀鏡702,1,,,32.26551,131.252144,
812,E4520800037111,銀鏡集会所,宮崎県西都市大字銀鏡85,1,,,32.264126116165,131.25226134582,
813,E4520800038111,都於郡地区南体育館,宮崎県西都市大字荒武3877-1,1,,,32.028681,131.365709,
814,E4520800040111,学習等供用施設黒生野館,宮崎県西都市大字黒生野261-1,1,,,32.072074,131.410116,
815,E4520800041111,西都市民体育館,宮崎県西都市大字妻1509,1,,,32.10642,131.400455,
816,E4520800098121,特別養護老人ホーム　妻の杜,宮崎県西都市大字妻1680-1,,,市が特定した者（要配慮者）,32.104907,131.400296,
817,E4520800045111,妻南小学校,宮崎県西都市大字三宅166,1,,,32.098736,131.401861,
818,E4520800046111,学習等供用施設川路館,宮崎県西都市大字三宅2845,1,,,32.096271,131.397013,
819,E4520800047111,学習等供用施設三宅館,宮崎県西都市大字三宅3013-1,1,,,32.098719,131.39642,
820,E4520800048112,西都原運動公園屋内練習場,宮崎県西都市大字三宅3392,1,,,32.107218037487,131.39010325264,
821,E4520800048111,西都原運動公園野球場,宮崎県西都市大字三宅3392,1,,,32.1063632657943,131.392131959911,
822,E4520800050111,学習等供用施設石貫館,宮崎県西都市大字三宅4604,1,,,32.121013,131.39401,
823,E4520800052111,三納地区体育館,宮崎県西都市大字三納12506,1,,,32.11467194,131.3500224,
824,E4520800053111,学習等供用施設永野館,宮崎県西都市大字三納2072-1,1,,,32.112869,131.361042,
825,E4520800055111,旧三納中学校体育館,宮崎県西都市大字三納3256,1,,,32.112666501253,131.3489510383,
826,E4520800056111,三納地区館,宮崎県西都市大字三納3312,1,,,32.114275,131.349685,
827,E4520800057111,浄土寺,宮崎県西都市大字三納9728,1,,,32.110966,131.340653,
828,E4520800058111,学習等供用施設山田館,宮崎県西都市大字山田1311-2,1,,,32.047359,131.351761,
829,E4520800060111,旧都於郡小学校山田分校,宮崎県西都市大字山田3252,1,,,32.043527,131.351444,
830,E4520800061111,学習等供用施設馬継谷館,宮崎県西都市大字鹿野田1453,1,,,32.07666,131.392829,
831,E4520800062111,都於郡地区体育館,宮崎県西都市大字鹿野田1570,1,,,32.075487,131.388602,
832,E4520800063111,都於郡地区館,宮崎県西都市大字鹿野田5068-1,1,,,32.0556,131.382255,
833,E4520800064111,都於郡小学校,宮崎県西都市大字鹿野田6111,1,,,32.0574,131.380411,
834,E4520800066111,上三財地区健康増進施設,宮崎県西都市大字上三財5460-2,1,,,32.076581,131.3171,
835,E4520800067121,社会福祉法人善仁会　東米良仁の里,宮崎県西都市大字上揚2-2,1,,市が特定した者（要配慮者）,32.272338,131.24772,
836,E4520800068111,宮崎医療福祉専門学校,宮崎県西都市大字清水1000,1,,,32.103232,131.376959,
837,E4520800069121,西都市総合福祉センター,宮崎県西都市大字清水1048,,,市が特定した者（要配慮者）,32.101146,131.379539,
838,E4520800071121,養護老人ホーム　静和園,宮崎県西都市大字清水792,,,市が特定した者（要配慮者）,32.100538,131.381525,
839,E4520800102121,社会福祉法人光陽会,宮崎県西都市大字清水793,,,市が特定した者（要配慮者）,32.099632,131.381393,
840,E4520800070111,学習等供用施設清水館,宮崎県西都市大字清水１４１－イ1,1,,,32.094847,131.388286,
841,E4520800073111,茶臼原地区体育館,宮崎県西都市大字茶臼原706,1,,,32.139947,131.424055,
842,E4520800074111,中茶自治公民館,宮崎県西都市大字茶臼原736-1,1,,,32.138745,131.423658,
843,E4520800101121,特別養護老人ホーム　幸楽荘,宮崎県西都市大字茶臼原941-1,,,市が特定した者（要配慮者）,32.140516,131.417622,
844,E4520800075111,東米良診療所,宮崎県西都市大字中尾171-9,1,,,32.22062,131.283169,
845,E4520800076111,宮崎県農業協同組合　三財支店,宮崎県西都市大字藤田496,1,,,32.069502,131.365705,
846,E4520800077111,学習等供用施設童子丸館,宮崎県西都市大字童子丸583,1,,,32.123132,131.39662,
847,E4520800078111,穂北中学校,宮崎県西都市大字南方2276,1,,,32.135552,131.393012,
848,E4520800079111,穂北小学校,宮崎県西都市大字南方2291,1,,,32.134216,131.393462,
849,E4520800080111,穂北地区館,宮崎県西都市大字南方2579-1,1,,,32.132431,131.393928,
850,E4520800083111,小八重自治公民館,宮崎県西都市大字尾八重1606,1,,,32.213206,131.332155,
851,E4520800084111,岩井谷自治公民館,宮崎県西都市大字尾八重1738,1,,,32.24612,131.340789,
852,E4520800086111,学習等供用施設上平郡館,宮崎県西都市大字平郡1125-2,1,,,32.091706,131.365608,
853,E4520800087111,平野自治公民館,宮崎県西都市大字平郡3677,1,,,32.098604,131.329297,
854,E4520800088111,学習等供用施設宮の下館,宮崎県西都市大字平郡543-1,1,,,32.088711,131.375681,
855,E4520800089121,特別養護老人ホーム　三納の里,宮崎県西都市大字平郡598-1,,,市が特定した者（要配慮者）,32.087445,131.373786,
856,E4520800090111,学習等供用施設平郡館,宮崎県西都市大字平郡925-1,1,,,32.091098,131.371246,
857,E4520800091111,学習等供用施設囲館,宮崎県西都市大字穂北4495,1,,,32.142068,131.39747,
858,E4520800092111,茶臼原小学校,宮崎県西都市大字穂北5253-4,1,,,32.135211,131.440661,
859,E4520800092121,介護老人保健施設　菜花園,宮崎県西都市大字穂北5253-4,1,,市が特定した者（要配慮者）,32.134767,131.441681,
860,E4520800094111,学習等供用施設串木館,宮崎県西都市大字穂北827-1,1,,,32.143893,131.38706,
861,E4520800097111,尾八重自治公民館,宮崎県西都市尾八重857-2,,,,32.2744417094361,131.308283596822,
862,E4540300001111,越野尾活性化センター,宮崎県西米良村大字越野尾58,1,西米良村  0983-36-1111,,32.198643177871,131.24431967683,
863,E4540300002111,横野活性化センター,宮崎県西米良村大字横野11,1,西米良村  0983-36-1111,,32.198388689565,131.19471746689,
864,E4540300003111,小川多目的集会室,宮崎県西米良村大字小川989-1,1,西米良村  0983-36-1111,,32.233017554234,131.21691138564,
865,E4540300004111,上米良多目的集会室,宮崎県西米良村大字上米良154,1,西米良村  0983-36-1111,,32.266771084428,131.13119493708,
866,E4540300005111,柔剣道場及び管理棟,宮崎県西米良村大字村所1-7,1,西米良村  0983-36-1111,,32.233433382606,131.1533990111,
867,E4540300006111,基幹集落センター,宮崎県西米良村大字村所19,1,西米良村  0983-36-1111,,32.226426357598,131.15479959373,
868,E4540300007111,菊池記念館,宮崎県西米良村大字村所2,1,菊池記念館36-1020,,32.22959693473,131.15204880358,
869,E4540300008111,放課後児童クラブ,宮崎県西米良村大字村所2-1,1,西米良村  0983-36-1111,,32.227052452709,131.15463053736,
870,E4540300008112,村所小へき地集会室,宮崎県西米良村大字村所2-1,1,小学校  36-1034,,32.227097832534,131.15462517295,
871,E4540300009111,松之本地区集会所,宮崎県西米良村大字村所726-13,1,西米良村  0983-36-1111,,32.238039186785,131.11597031607,
872,E4540300010121,特別養護老人ホーム天包荘,宮崎県西米良村大字竹原432,1,,高齢者、障がい者など特別な配慮を必要とする方,32.240944767923,131.15199851542,
873,E4540300011111,西米良村立ふたば園,宮崎県西米良村大字竹原437-1,,ふたば園　0983-36-1073,,32.241428590448,131.15217633601,
874,E4540300012111,板谷多目的集会施設,宮崎県西米良村大字板谷149-2,1,西米良村  0983-36-1111,,32.22339320128,131.0980380282,
875,E4540500002121,特別養護老人ホーム　鈴南の里,宮崎県川南町大字川南12707,,,要配慮者,32.2093215840079,131.538542261934,
876,E4540500003121,養護老人ホーム　福寿園,宮崎県川南町大字川南13428-8,,,要配慮者,32.2078998247914,131.51655731295,
877,E4540500004111,川南小学校体育館,宮崎県川南町大字川南13493-1,1,,,32.207114,131.522337,
878,E4540500005111,農村センター,宮崎県川南町大字川南13679-2,1,,,32.19162749,131.5254143,
879,E4540500006112,川南町総合福祉センター,宮崎県川南町大字川南13680-1,1,,,32.192729,131.526169,
880,E4540500006121,川南町保健センター,宮崎県川南町大字川南13680-1,1,,要配慮者,32.1911974006801,131.525983227841,
881,E4540500007121,尾鈴クリニック,宮崎県川南町大字川南13681-1,,,要配慮者,32.1908078504336,131.525759381929,
882,E4540500009111,多賀小学校体育館,宮崎県川南町大字川南15113-2,1,,,32.181919,131.48295,
883,E4540500012111,山本地区コミュニティセンター,宮崎県川南町大字川南17741,1,,,32.23236567,131.5088319,
884,E4540500013111,山本小学校体育館,宮崎県川南町大字川南17741-1,1,,,32.231889,131.508608,
885,E4540500014121,特別養護老人ホーム　フェニックス,宮崎県川南町大字川南17979-87,,,要配慮者,32.2159456185951,131.515693295298,
886,E4540500015111,川南西地区コミュニティセンター,宮崎県川南町大字川南19301-1,1,,,32.2083365,131.5224837,
887,E4540500016111,唐瀬原中学校体育館,宮崎県川南町大字川南19664-1,1,,,32.213899,131.531259,
888,E4540500018111,東小学校体育館,宮崎県川南町大字川南21909-1,1,,,32.219137,131.548715,
889,E4540500019111,東地区コミュニティセンター,宮崎県川南町大字川南21986,1,,,32.21884245,131.5495654,
890,E4540500022111,国光原中学校体育館,宮崎県川南町大字川南23566-1,1,,,32.170268,131.51664,
891,E4540500026111,多賀地区コミュニティセンター,宮崎県川南町大字川南27532-1,1,,,32.18388222,131.4840393,
892,E4540500035121,（有）エコフィールド　湯癒亭,宮崎県川南町大字平田2379-1,,,要配慮者,32.193466,131.528782,
893,E4540500037111,通山地区コミュニティセンター,宮崎県川南町大字平田6383,1,,,32.170373,131.533838,
894,E4540500037112,通山小学校体育館,宮崎県川南町大字平田6383,1,,,32.170804,131.533374,
895,E4543000049111,椎葉中学校,宮崎県椎葉村大字下福良102,,,,32.456517,131.150596,
896,E4543000002111,仲塔渓谷の館,宮崎県椎葉村大字下福良1183,,,,32.537439192363,131.17276497861,
897,E4543000003111,旧財木分校,宮崎県椎葉村大字下福良1259,,,,32.581277838533,131.19150289043,
898,E4543000004111,木浦集会センター,宮崎県椎葉村大字下福良1374,,,,32.552307359669,131.1563177113,
899,E4543000005111,鹿野遊ふれあいセンター,宮崎県椎葉村大字下福良1647,,,,32.501451390738,131.18668214714,
900,E4543000006112,夢織りの館,宮崎県椎葉村大字下福良1747-13,1,,,32.46792534842,131.15955236495,
901,E4543000006111,椎葉小学校,宮崎県椎葉村大字下福良1747-13,1,,,32.468373413099,131.15976694167,
902,E4543000007111,椎葉村開発センター,宮崎県椎葉村大字下福良1761-1,,,,32.467726207848,131.15899446548,
903,E4543000008111,尾八重農産加工施設,宮崎県椎葉村大字下福良2149,,,,32.475590960222,131.1151476077,
904,E4543000009111,尾八重集落センター,宮崎県椎葉村大字下福良2226,,,,32.474839748481,131.1041505512,
905,E4543000010111,尾八重地区体育館,宮崎県椎葉村大字下福良2327-7,,,,32.475793,131.102622,
906,E4543000011111,尾田山中集会所,宮崎県椎葉村大字下福良278,,,,32.460801292461,131.16020687649,
907,E4543000013111,夜狩内集落センター,宮崎県椎葉村大字下福良439,,,,32.464350446831,131.20751665755,
908,E4543000014111,総合運動公園体育館,宮崎県椎葉村大字下福良54-2,,,,32.455031532857,131.14767913013,
909,E4543000001121,特別養護老人ホーム平寿園,宮崎県椎葉村大字下福良54-337,,,,32.4542583310964,131.147798372494,
910,E4543000016111,十根川営農研修センター,宮崎県椎葉村大字下福良895-2,,,,32.5120187012,131.19231818291,
911,E4543000012111,間柏原多目的集会センター,宮崎県椎葉村大字下福良３７５－５ロ2,,,,32.461738226539,131.19434603284,
912,E4543000017111,竹の八重営農研修センター,宮崎県椎葉村大字松尾1111-1,,,,32.502399979543,131.25789142829,
913,E4543000018111,旧岩屋戸集会所,宮崎県椎葉村大字松尾1264-10,,,,32.48995987663,131.24726719838,
914,E4543000019111,小河内営農研修センター,宮崎県椎葉村大字松尾1336-2,,,,32.503896345625,131.23390876144,
915,E4543000020111,中の八重集会センター,宮崎県椎葉村大字松尾260,,,,32.478567,131.239479,
916,E4543000021111,下松尾営農研修センター,宮崎県椎葉村大字松尾396-3,,,,32.484539387572,131.24884928284,
917,E4543000022111,水越営農研修センター,宮崎県椎葉村大字松尾40-1,,,,32.467658853644,131.22746981364,
918,E4543000023111,松尾大いちょうふれあいセンター,宮崎県椎葉村大字松尾409-57,,,,32.48895178215,131.24375832844,
919,E4543000024111,松尾小学校,宮崎県椎葉村大字松尾429,,,,32.487734586582,131.25059796144,
920,E4543000025111,上松尾集会所,宮崎県椎葉村大字松尾569,,,,32.472937216108,131.25486679012,
921,E4543000026111,栗の尾営農研修センター,宮崎県椎葉村大字松尾937-1,,,,32.499474348333,131.27591084309,
922,E4543000027111,大河内小学校,宮崎県椎葉村大字大河内1111,,,,32.370649,131.141569,
923,E4543000028111,矢立キャンプ場,宮崎県椎葉村大字大河内1251-95,,,,32.351236794844,131.09483219984,
924,E4543000029111,矢立集会所,宮崎県椎葉村大字大河内1302-149,,,,32.360679206132,131.10495179516,
925,E4543000030111,合戦原集会,宮崎県椎葉村大字大河内1302-318,,,,32.381884493568,131.126352512,
926,E4543000031111,川の口集落センター,宮崎県椎葉村大字大河内1407-2,,,,32.41196008453,131.09339255654,
927,E4543000032111,旧小崎小学校,宮崎県椎葉村大字大河内1665,,,,32.432985013368,131.11906699654,
928,E4543000033111,栂尾の館,宮崎県椎葉村大字大河内185-13,,,,32.41094639634,131.24190746975,
929,E4543000034111,竹の枝尾日添営農研修センター,宮崎県椎葉村大字大河内1902-2,,,,32.437947205782,131.12923793312,
930,E4543000035111,竹の枝尾日当営農研修センター,宮崎県椎葉村大字大河内1939-10,,,,32.441994631286,131.12740330216,
931,E4543000036111,栂尾集落センター（神社横）,宮崎県椎葉村大字大河内234-2,,,,32.405013931756,131.24375287642,
932,E4543000037111,大藪集落センター,宮崎県椎葉村大字大河内500-43,,,,32.345868860004,131.16546371502,
933,E4543000038111,九大演習林事務所,宮崎県椎葉村大字大河内949,,,,32.372470165508,131.14432112475,
934,E4543000039111,中山集会所,宮崎県椎葉村大字大河内95,,,,32.4169,131.2481,
935,E4543000040111,不土野生活改善センター,宮崎県椎葉村大字不土野1377-1,,,,32.44480466658,131.06496417821,
936,E4543000041112,不土野小学校,宮崎県椎葉村大字不土野1396,,,,32.44128089468,131.06431974687,
937,E4543000041111,不土野へき地保育所,宮崎県椎葉村大字不土野1396,,,,32.441687,131.064706,
938,E4543000043111,尾向小学校,宮崎県椎葉村大字不土野383,,,,32.497651896601,131.07334782921,
939,E4543000045111,新ひむか椎葉学習塾,宮崎県椎葉村大字不土野627-23,,,,32.49376752628,131.05021742103,
940,E4543000046111,向山農作業準備休憩施設,宮崎県椎葉村大字不土野710-34,,,,32.489021980374,131.03651294471,
941,E4543000047111,追手納営農研修センター,宮崎県椎葉村大字不土野760-1,,,,32.494757053126,131.03082397939,
942,E4543000048111,向山日添営農研修センター,宮崎県椎葉村大字不土野907-2,,,,32.491705920806,131.04613789153,
943,E4543000042111,尾前上営農研修センター,宮崎県椎葉村大字不土野３０２－ロ,,,,32.507201016531,131.07448765994,
944,E4543000044111,向山日当多目的集会施設,宮崎県椎葉村大字不土野５８８－乙,,,,32.495442492761,131.05375686609,
945,E4520200001111,安久小学校体育館,宮崎県都城市安久町2667,1,,,31.694306,131.093891,
946,E4520200002111,尾平野自治公民館,宮崎県都城市安久町3464-1,1,,,31.6469289067014,131.156489114152,
947,E4520200003121,中郷地区市民交流センター,宮崎県都城市安久町6623,1,,要配慮者,31.6850919084604,131.077618486139,
948,E4520200003111,中郷地区市民交流センター,宮崎県都城市安久町6623,1,,,31.6850919084604,131.077618486139,
949,E4520200004111,乙房小学校体育館,宮崎県都城市乙房町1707,1,,,31.7668690594697,131.059266776196,
950,E4520200096111,勤労青少年体育センター,宮崎県都城市下長飯町1989,,,,31.7119936095192,131.067738312809,
951,E4520200005111,都城市ふるさとセンター,宮崎県都城市下長飯町5441-1,1,,,31.7063118077231,131.052485819666,
952,E4520200006111,夏尾小学校体育館,宮崎県都城市夏尾町6644,1,,,31.8451824605207,130.974811965875,
953,E4520200007111,夏尾中学校体育館,宮崎県都城市夏尾町6673-4,1,,,31.8437742378931,130.973304770569,
954,E4520200008111,菓子野小学校体育館,宮崎県都城市菓子野町9555,1,,,31.7785537731861,131.043007680686,
955,E4520200009111,みやざき学園・白雲小中学校体育館,宮崎県都城市丸谷町388,1,,,31.8123640675252,131.054369152823,
956,E4520200010111,吉之元小学校体育館,宮崎県都城市吉之元町4518,1,,,31.826311478724,130.915145842506,
957,E4520200101111,都城工業高等専門学校,宮崎県都城市吉尾町473-1,,,,31.7605848684627,131.079882107129,
958,E4520200011111,五十市中学校体育館,宮崎県都城市久保原町2-6,1,,,31.7193886799828,131.035999736888,
959,E4520200012111,明和小学校体育館,宮崎県都城市久保原町34-27,1,,,31.7231035481322,131.027278692424,
960,E4520200013111,祝吉地区公民館,宮崎県都城市郡元1-1-4,1,,,31.74423691,131.0891866,
961,E4520200013121,祝吉地区公民館,宮崎県都城市郡元1-1-4,1,,要配慮者,31.74423691,131.0891866,
962,E4520200014111,五十市小学校体育館,宮崎県都城市五十町2242,1,,,31.7135046958571,131.037300056086,
963,E4520200015121,五十市地区公民館,宮崎県都城市五十町2284,1,,要配慮者,31.7170063761515,131.036141311584,
964,E4520200015111,五十市地区公民館,宮崎県都城市五十町2284,1,,,31.7170063761515,131.036141311584,
965,E4520200016111,御池小学校体育館,宮崎県都城市御池町5844-291,1,,,31.8646848883269,130.946489063771,
966,E4520200017111,江平農村環境改善センター,宮崎県都城市高崎町江平2329-9,1,,,31.8896201809515,131.095679882195,
967,E4520200108111,前田児童館,宮崎県都城市高崎町前田2336,,,,31.9062930914957,131.042998854576,
968,E4520200107111,高崎麓小学校,宮崎県都城市高崎町前田758,,,,31.9080846297272,131.040704432448,
969,E4520200018111,高崎小学校体育館,宮崎県都城市高崎町大牟田1179-1,1,,,31.873520805463,131.066266554101,
970,E4520200019111,総合体育館,宮崎県都城市高崎町大牟田1326-1,1,,,31.8803474762293,131.067957938571,
971,E4520200020111,高崎福祉保健センター,宮崎県都城市高崎町大牟田1340-3,1,,,31.8821416506824,131.063207070406,
972,E4520200020121,高崎福祉保健センター,宮崎県都城市高崎町大牟田1340-3,1,,要配慮者,31.8821416506824,131.063207070406,
973,E4520200021111,高崎中学校体育館,宮崎県都城市高崎町大牟田1904-1,1,,,31.8706268064974,131.07634339202,
974,E4520200106111,笛水小中学校,宮崎県都城市高崎町笛水948-1,,,,31.9313439206243,131.117423003267,
975,E4520200022111,笛水小中学校体育館・クラブハウス,宮崎県都城市高崎町笛水959,1,,,31.9312731795038,131.118568640451,
976,E4520200023111,東霧島多目的集会所,宮崎県都城市高崎町東霧島757-1,1,,,31.8525447898054,131.074379150157,
977,E4520200024111,縄瀬小学校体育館,宮崎県都城市高崎町縄瀬1411,1,,,31.8492057021595,131.10371119581,
978,E4520200025111,縄瀬多目的集会所,宮崎県都城市高崎町縄瀬1823-3,1,,,31.8498095961366,131.099475011188,
979,E4520200026111,高城横原地区コミュニティセンター,宮崎県都城市高城町桜木159-1,1,,,31.7765601988083,131.119940360138,
980,E4520200027111,高城勤労青少年ホーム,宮崎県都城市高城町桜木1962,1,,,31.7849613152017,131.122433982306,
981,E4520200028111,高城地区公民館四家分館,宮崎県都城市高城町四家969-17,1,,,31.92364702,131.182612,
982,E4520200029111,石山体育センター,宮崎県都城市高城町石1109-3,,,,31.835465,131.126681,
983,E4520200104111,石山小学校,宮崎県都城市高城町石山3661,,,,31.8357307407508,131.128426916717,
984,E4520200031111,高城生涯学習センター,宮崎県都城市高城町穂満坊105,1,,,31.7996074486973,131.130787226553,
985,E4520200031121,高城生涯学習センター,宮崎県都城市高城町穂満坊105,1,,要配慮者,31.79960745,131.1307872,
986,E4520200032111,高城中学校体育館,宮崎県都城市高城町穂満坊115-1,1,,,31.7992353829082,131.130480861784,
987,E4520200033111,ふれあい武道館,宮崎県都城市高城町穂満坊1452,1,,,31.8069341135668,131.125376074151,
988,E4520200034111,高城小学校体育館,宮崎県都城市高城町穂満坊20,1,,,31.7989369642691,131.132768289423,
989,E4520200035111,高城運動公園総合体育館,宮崎県都城市高城町穂満坊2492,1,,,31.8129483478125,131.131658991832,
990,E4520200036111,有水中学校体育館,宮崎県都城市高城町有3656-1,,,,31.8565333302295,131.142002365807,
991,E4520200037111,高城農村環境改善センター,宮崎県都城市高城町有水2986-1,1,,,31.8565670672432,131.134267590056,
992,E4520200038111,有水小学校体育館,宮崎県都城市高城町有水3354-1,1,,,31.8550938177908,131.136185977191,
993,E4520200040111,今町小学校体育館,宮崎県都城市今町8923,1,,,31.6925979977388,131.036283029542,
994,E4520200041111,妻ケ丘中学校体育館,宮崎県都城市妻ケ丘町13-3,1,,,31.7269435144048,131.074409170345,
995,E4520200042111,山田中学校体育館,宮崎県都城市山田町山田2189-1,1,,,31.8081645973209,131.03474921552,
996,E4520200043111,山田体育館,宮崎県都城市山田町山田3717-1,,,,31.8130220224249,131.038463217489,
997,E4520200045111,山田小学校体育館,宮崎県都城市山田町山田3931,1,,,31.8156221849501,131.037526562108,
998,E4520200046111,山田総合福祉センター（けねじゅ苑）,宮崎県都城市山田町山田4319-2,1,,,31.8158239559608,131.042196844961,
999,E4520200046121,山田総合福祉センター,宮崎県都城市山田町山田4319-2,1,,要配慮者,31.8158239559608,131.042196844961,
1000,E4520200047111,木之川内小学校体育館,宮崎県都城市山田町山田9350,1,,,31.8299962860921,131.059095446972,
1001,E4520200048111,山田木之川内体育センター,宮崎県都城市山田町山田9371-1,1,,,31.8295789701574,131.057242637598,
1002,E4520200105111,健康の館,宮崎県都城市山田町中霧島1912,,,,31.7998814919126,131.01407463613,
1003,E4520200049111,山田農業者トレーニングセンター,宮崎県都城市山田町中霧島3281-2,1,,,31.7915010959054,131.051378280042,
1004,E4520200050111,中霧島小学校体育館,宮崎県都城市山田町中霧島3470-1,1,,,31.7921363139925,131.039497314134,
1005,E4520200051111,山之口中学校体育館,宮崎県都城市山之口町花木1536,1,,,31.777127395206,131.152722617459,
1006,E4520200053111,山之口地区公民館,宮崎県都城市山之口町花木2005,,,,31.779842,131.153204,
1007,E4520200053112,山之口総合センター多目的ホール,宮崎県都城市山之口町花木2005,,,,31.77985,131.15319,
1008,E4520200054111,山之口体育館,宮崎県都城市山之口町花木2381-4,1,,,31.7883487807765,131.159103696243,
1009,E4520200103111,山之口小学校,宮崎県都城市山之口町花木2580,,,,31.7819379700077,131.155913643868,
1010,E4520200102111,青井岳荘,宮崎県都城市山之口町山之口2123,,,,31.8295421972311,131.225159365476,
1011,E4520200056111,山之口麓文弥節人形浄瑠璃資料館（人形の館）,宮崎県都城市山之口町山之口2921-1,1,,,31.800429,131.168794,
1012,E4520200057111,麓小学校体育館,宮崎県都城市山之口町山之口3842,1,,,31.7997905091442,131.161106535372,
1013,E4520200058111,富吉小学校体育館,宮崎県都城市山之口町富吉1659-1,1,,,31.768973641055,131.149285445098,
1014,E4520200059111,上富吉地区体育館,宮崎県都城市山之口町富吉1752-4,1,,,31.7677892905473,131.14863807011,
1015,E4520200060111,県立都城農業高等学校,宮崎県都城市祝吉1-5-1,1,,,31.7404843386154,131.081034834815,
1016,E4520200061111,祝吉小学校体育館,宮崎県都城市祝吉3-14-1,1,,,31.7421952597638,131.085039904626,
1017,E4520200062111,庄内小学校体育館,宮崎県都城市庄内町12680,1,,,31.7736407559676,131.018259078959,
1018,E4520200063111,庄内地区公民館,宮崎県都城市庄内町12692-2,1,,,31.7719669,131.0191703,
1019,E4520200063121,庄内地区公民館,宮崎県都城市庄内町12692-2,1,,要配慮者,31.7719669,131.0191703,
1020,E4520200064111,庄内中学校体育館,宮崎県都城市庄内町8976,1,,,31.7754783401508,131.025180028018,
1021,E4520200065121,総合社会福祉センター,宮崎県都城市松元町4-17,1,,要配慮者,31.722036854877,131.05941371811,
1022,E4520200065111,総合社会福祉センター,宮崎県都城市松元町4-17,1,,,31.722036854877,131.05941371811,
1023,E4520200066121,志和池地区公民館,宮崎県都城市上水流町1536,1,,要配慮者,31.80783414,131.0946434,
1024,E4520200066111,志和池地区公民館,宮崎県都城市上水流町1536,1,,,31.80783414,131.0946434,
1025,E4520200067111,志和池小学校体育館,宮崎県都城市上水流町1666,1,,,31.8106018105933,131.098175688051,
1026,E4520200068111,志和池中学校体育館,宮崎県都城市上水流町4323-1,1,,,31.8097993267306,131.094253048081,
1027,E4520200099111,上長飯小学校,宮崎県都城市上長飯町5252,,,,31.7152487424352,131.091513538595,
1028,E4520200069111,東小学校,宮崎県都城市上東町11-20,1,,,31.724737393464,131.076219326172,
1029,E4520200070111,祝吉中学校体育館,宮崎県都城市千町4962,1,,,31.7378967733145,131.084348530228,
1030,E4520200071111,早水公園体育文化センター,宮崎県都城市早水町3867,1,,,31.7392477766465,131.093247319918,
1031,E4520200072111,ウエルネス交流プラザ,宮崎県都城市蔵原町11-25,1,,,31.7244382584841,131.065871083625,
1032,E4520200073111,沖水地区公民館,宮崎県都城市太郎坊町1840-2,1,,,31.77765308,131.08977,
1033,E4520200073121,沖水地区公民館,宮崎県都城市太郎坊町1840-2,1,,要配慮者,31.77765308,131.08977,
1034,E4520200074111,沖水小学校体育館,宮崎県都城市太郎坊町1979,1,,,31.7762308475719,131.093287797591,
1035,E4520200075111,小松原中学校体育館,宮崎県都城市大王町19-1,1,,,31.7319991478489,131.066679872305,
1036,E4520200076111,大王小学校体育館,宮崎県都城市大王町20-1,1,,,31.7321371760114,131.065749812687,
1037,E4520200077111,長寿館,宮崎県都城市鷹尾3-4523-2,1,,,31.7270872048313,131.046161383173,
1038,E4520200079111,勤労身体障害者教養文化体育施設,宮崎県都城市都原町3369,,,,31.732503,131.046623,
1039,E4520200079121,都城市勤労身体障害者教養文化体育施設（サンアビリティーズ都城）,宮崎県都城市都原町3369,,,要配慮者,31.7325413862483,131.046621814546,
1040,E4520200080111,西中学校体育館,宮崎県都城市都原町7707,1,,,31.7367419129885,131.035415166554,
1041,E4520200100111,地場産業振興センター,宮崎県都城市都北町5225-1,,,,31.7687984797798,131.095307340678,
1042,E4520200081111,沖水中学校体育館,宮崎県都城市都北町6515,1,,,31.7638618109496,131.091141777705,
1043,E4520200082111,西小学校体育館,宮崎県都城市南横市町3800,1,,,31.7418515792564,131.033945494434,
1044,E4520200083111,中郷中学校体育館,宮崎県都城市梅北町2912-1,1,,,31.6851025515578,131.073295830739,
1045,E4520200084111,今町地区多目的研修集会施設,宮崎県都城市梅北町435,1,,,31.6884517353545,131.038942329382,
1046,E4520200085111,梅北小学校体育館,宮崎県都城市梅北町4687,1,,,31.6752401057511,131.058694373641,
1047,E4520200086111,明道小学校体育館,宮崎県都城市八幡町12-4,1,,,31.7202679961952,131.06040287939,
1048,E4520200087121,西岳小学校体育館・クラブハウス,宮崎県都城市美川町2928,1,,要配慮者,31.80821,130.957875,
1049,E4520200087111,西岳小学校体育館・クラブハウス,宮崎県都城市美川町2928,1,,,31.8081112112261,130.957892273307,
1050,E4520200088111,都城市コミュニティセンター,宮崎県都城市姫城町10-6,1,,,31.7186227773142,131.063230022658,
1051,E4520200098111,姫城中学校,宮崎県都城市姫城町25-71,,,,31.7168317306628,131.065910543687,
1052,E4520200089111,都城市総合文化ホール,宮崎県都城市北原町1106-100,1,,,31.7326563521423,131.073294382987,
1053,E4520200090111,丸野小学校体育館,宮崎県都城市野々美谷町2941,,,,31.7932726840204,131.072879533793,
1054,E4520200092111,南九州大学都城キャンパス体育館,宮崎県都城市立野町3764-1,1,,,31.7279146348789,131.096309260891,
1055,E4540600002111,都農南小学校体育館,宮崎県都農町大字川北1073,1,,,32.247255,131.550233,
1056,E4540600003121,養護老人ホーム愛寿園,宮崎県都農町大字川北11592-1,,,要配慮者,32.270323,131.551977,
1057,E4540600004111,都農町消防団中央分団第３部機庫,宮崎県都農町大字川北11761-1,,,,32.270991,131.552548,
1058,E4540600008112,都農中学校体育館,宮崎県都農町大字川北14120,1,,,32.264127,131.56572,
1059,E4540600008111,都農中学校柔剣道場,宮崎県都農町大字川北14120,1,,,32.263681566147,131.5659532832,
1060,E4540600009111,都農小学校体育館,宮崎県都農町大字川北14162-1,1,,,32.264812,131.562856,
1061,E4540600017111,都農東小学校体育館,宮崎県都農町大字川北18655,1,,,32.291725,131.574719,
1062,E4540600019111,都農東小学校内野々分校体育館,宮崎県都農町大字川北20500,1,,,32.289971,131.550071,
1063,E4540600032111,旧都農高校,宮崎県都農町大字川北4661,,,,32.25202767476,131.55982125397,
1064,E4540600028121,都農町中町福祉避難所,宮崎県都農町大字川北4890-1,,,要配慮者,32.254898,131.561118,
1065,E4540600029111,都農町民体育館,宮崎県都農町大字川北4910-3,,,,32.256652,131.560696,
1066,E4540600031111,道の駅「つの」,宮崎県都農町大字川北5129,1,,,32.260511,131.557845,
1067,E4520600002111,永江公民館,宮崎県日向市永江町3-111,,,,32.424577,131.639646,
1068,E4520600004111,梶木公民館,宮崎県日向市梶木町1-24,,,,32.453449,131.642706,
1069,E4520600009111,大王谷コミュニティセンター,宮崎県日向市亀崎東4-10,,,,32.437148,131.636547,
1070,E4520600016111,下原町公民館,宮崎県日向市原町3-36,,,,32.422416,131.633596,
1071,E4520600019121,介護老人保健施設　メディケア盛年館,宮崎県日向市向江町1-196-2,1,,福祉施設や医療機関等に入所又は入院するに至らない在宅の要援護者で、一般の避難所生活において何らかの特別な配慮を必要とする者。,32.429305,131.62908,
1072,E4520600030111,山下公民館,宮崎県日向市山下町1-42,,,,32.414917,131.627494,
1073,E4520600045111,大王谷学園初等部,宮崎県日向市大王町5-1,1,,,32.43838,131.634078,
1074,E4520600046111,大王谷学園中等部,宮崎県日向市大王町5-2-1,1,,,32.439068,131.63204,
1075,E4520600047111,永田集落センター,宮崎県日向市大字塩見10507,,,,32.40788,131.587545,
1076,E4520600227121,介護老人保健施設　慶穣塾,宮崎県日向市大字塩見10947-1,,,福祉施設や医療機関等に入所又は入院するに至らない在宅の要援護者で、一般の避難所生活において何らかの特別な配慮を必要とする者。,32.410653,131.594732,
1077,E4520600229121,宮崎県立日向ひまわり支援学校,宮崎県日向市大字塩見12161,,,ひまわり支援学校に在籍する児童生徒及び要配慮者等で身体等の状況が医療機関、特別養護老人ホーム等へ入所するに至らない程度の在宅の者であって、大規模災害時に一般的な避難所では生活に支障が想定される者。,32.408109,131.601598,
1078,E4520600048111,農村交流館,宮崎県日向市大字塩見206-3,,,,32.413622,131.603202,
1079,E4520600049111,塩見小学校,宮崎県日向市大字塩見2678,1,,,32.418592,131.602428,
1080,E4520600052111,奥野集落センター,宮崎県日向市大字塩見6651,,,,32.416499,131.591096,
1081,E4520600228121,障がい者支援施設　しおみの里,宮崎県日向市大字塩見8026,,,福祉施設や医療機関等に入所又は入院するに至らない在宅の要援護者で、一般の避難所生活において何らかの特別な配慮を必要とする者。,32.414401,131.58715,
1082,E4520600054111,旧幸脇小学校体育館,宮崎県日向市大字幸脇1337,1,,,32.342351,131.61262,
1083,E4520600055111,遠見公民館,宮崎県日向市大字幸脇162-5,,,,32.343206,131.622299,
1084,E4520600060111,細島東部まちづくり事務所,宮崎県日向市大字細島132-5,,,,32.427418521823,131.66955933995,
1085,E4520600062111,細島東部まちづくり第２事務所,宮崎県日向市大字細島275,,,,32.426323353989,131.66839637037,
1086,E4520600068112,細島公民館,宮崎県日向市大字細島593,1,,,32.424566,131.660049,
1087,E4520600068111,細島小学校,宮崎県日向市大字細島593,1,,,32.424494,131.659723,
1088,E4520600069111,細島保育所,宮崎県日向市大字細島733,,,,32.427008,131.661424,
1089,E4520600075111,切島山２区公民館,宮崎県日向市大字財光寺1185,,,,32.405303,131.628993,
1090,E4520600082111,長江公民館,宮崎県日向市大字財光寺188-3,,,,32.415543,131.63472,
1091,E4520600083111,財光寺南小学校,宮崎県日向市大字財光寺2867,1,,,32.399579,131.62609,
1092,E4520600089111,切島山１区公民館,宮崎県日向市大字財光寺3541-1,,,,32.401223,131.623441,
1093,E4520600092111,松原公民館,宮崎県日向市大字財光寺4026-17,,,,32.405561,131.623209,
1094,E4520600096111,財光寺中学校,宮崎県日向市大字財光寺4863-34,1,,,32.405937,131.616104,
1095,E4520600099111,日向高等学校,宮崎県日向市大字財光寺6265,1,,,32.412545,131.61501,
1096,E4520600109111,日知屋児童センター,宮崎県日向市大字日知屋1425-1,,,,32.419353,131.640827,
1097,E4520600109112,日知屋公民館,宮崎県日向市大字日知屋1425-1,,,,32.419303,131.640822,
1098,E4520600110111,庄手公民館,宮崎県日向市大字日知屋14276,,,,32.445671827207,131.62928301692,
1099,E4520600111111,日知屋東小学校,宮崎県日向市大字日知屋16196-2,1,,,32.424744,131.643312,
1100,E4520600122111,幡浦公民館,宮崎県日向市大字日知屋5884,,,,32.430375,131.652019,
1101,E4520600230121,特別養護老人ホーム　伊勢の郷,宮崎県日向市大字日知屋622-116,,,福祉施設や医療機関等に入所又は入院するに至らない在宅の要援護者で、一般の避難所生活において何らかの特別な配慮を必要とする者。,32.415357,131.656158,
1102,E4520600124111,日知屋小学校,宮崎県日向市大字日知屋8097-2,1,,,32.418779,131.638712,
1103,E4520600125111,富島中学校,宮崎県日向市大字日知屋8263,1,,,32.418882,131.636257,
1104,E4520600126111,日向市総合福祉センター,宮崎県日向市大字富高207-3,,,,32.417859,131.61973,
1105,E4520600129111,西川内営農研修センター,宮崎県日向市大字富高3401,,,,32.434919,131.602732,
1106,E4520600130111,富高保育園,宮崎県日向市大字富高3534,1,,,32.43468,131.607696,
1107,E4520600226121,特別養護老人ホーム　永寿園,宮崎県日向市大字富高546-1,,,福祉施設や医療機関等に入所又は入院するに至らない在宅の要援護者で、一般の避難所生活において何らかの特別な配慮を必要とする者。,32.421212,131.617349,
1108,E4520600131111,本谷営農研修センター,宮崎県日向市大字富高5597-1,,,,32.436238,131.60877,
1109,E4520600132111,八幡神社,宮崎県日向市大字富高5895,,,,32.432773,131.61122,
1110,E4520600133111,日向台不動寺公民館,宮崎県日向市大字富高6276-4,,,,32.439596,131.624122,
1111,E4520600134111,花ヶ丘公民館,宮崎県日向市大字富高6440-1,,,,32.43242,131.622504,
1112,E4520600135111,富高小学校,宮崎県日向市大字富高6520,1,,,32.429382,131.62324,
1113,E4520600137111,上町保育所,宮崎県日向市大字富高6740,,,,32.43034,131.623409,
1114,E4520600139111,日向中学校,宮崎県日向市大字富高733,1,,,32.422065,131.616256,
1115,E4520600142111,曙地区集落センター,宮崎県日向市大字平岩10750-1,,,,32.383054,131.625286,
1116,E4520600145111,金ヶ浜地区集落センター,宮崎県日向市大字平岩1606-1,,,,32.364078,131.620916,
1117,E4520600147111,籾木集落センター,宮崎県日向市大字平岩3192-2,,,,32.359658,131.6053,
1118,E4520600148111,平岩小中学校,宮崎県日向市大字平岩33-3,1,,,32.373393,131.633953,
1119,E4520600151111,旧平岩小学校鵜毛分校,宮崎県日向市大字平岩4499,1,,,32.365426,131.590184,
1120,E4520600152111,南日向公民館,宮崎県日向市大字平岩737-2,,,,32.369864,131.628115,
1121,E4520600154111,日向工業高等学校,宮崎県日向市大字平岩8750,1,,,32.391941,131.624659,
1122,E4520600156112,日向市中央公民館,宮崎県日向市中町1-31,,,,32.419766,131.627236,
1123,E4520600156111,日向市文化交流センター,宮崎県日向市中町1-31,,,,32.420084,131.627206,
1124,E4520600157111,堀一方公民館,宮崎県日向市中堀町2-84,,,,32.417192,131.649954,
1125,E4520600163111,富島高等学校,宮崎県日向市鶴町3-1-43,1,,,32.426686,131.633281,
1126,E4520600167111,越表地区体育館,宮崎県日向市東郷町下三ケ1604-3,,,,32.348774,131.386543,
1127,E4520600168111,越表区公民館,宮崎県日向市東郷町下三ケ1615-3,,,,32.348498,131.387018,
1128,E4520600169111,下渡川地区集会施設,宮崎県日向市東郷町下三ケ2031,1,,,32.343527,131.364477,
1129,E4520600170111,福瀬公民館,宮崎県日向市東郷町山陰乙1800,,,,32.379572,131.552955,
1130,E4520600171111,旧福瀬小学校体育館,宮崎県日向市東郷町山陰乙1864-1,1,,,32.379121696261,131.552174541,
1131,E4520600173111,中野原第２地区営農研修施設,宮崎県日向市東郷町山陰乙801-1,1,,,32.396513,131.550696,
1132,E4520600174111,田野区コミュニティセンター,宮崎県日向市東郷町山陰己1044,1,,,32.383209,131.505023,
1133,E4520600175111,稲葉野地区多目的集会施設,宮崎県日向市東郷町山陰己367-5,1,,,32.384224,131.487366,
1134,E4520600176111,田野区公民館,宮崎県日向市東郷町山陰己692-2,1,,,32.379893,131.501856,
1135,E4520600177111,迫野内区公民館,宮崎県日向市東郷町山陰庚1278,1,,,32.41489,131.518089,
1136,E4520600178111,東上地区コミュニティセンター,宮崎県日向市東郷町山陰庚767-1,,,,32.424178,131.512658,
1137,E4520600179111,寺迫小学校,宮崎県日向市東郷町山陰甲347,1,,,32.316154,131.583262,
1138,E4520600180111,寺迫小学校国民体育館,宮崎県日向市東郷町山陰甲363-1,,,,32.315674,131.582488,
1139,E4520600181111,吉牟田地区コミュニティセンター,宮崎県日向市東郷町山陰甲701-11,1,,,32.317256,131.561041,
1140,E4520600183111,庭田公民館,宮崎県日向市東郷町山陰甲765-89,,,,32.324313,131.549052,
1141,E4520600185111,東郷学園,宮崎県日向市東郷町山陰辛31,1,,,32.391325,131.519195,
1142,E4520600186111,鶴野内区公民館,宮崎県日向市東郷町山陰辛409,,,,32.392297,131.511556,
1143,E4520600187111,大工野地区集落センター,宮崎県日向市東郷町山陰辛670-6,,,,32.396796,131.505035,
1144,E4520600190111,東郷地区総合福祉センター,宮崎県日向市東郷町山陰丙126,,,,32.393596806546,131.53194916205,
1145,E4520600191111,東郷地区文化センター,宮崎県日向市東郷町山陰丙1325,,,,32.391131,131.529883,
1146,E4520600192111,東郷体育館,宮崎県日向市東郷町山陰丙1390,1,,,32.392019,131.530399,
1147,E4520600232121,特別養護老人ホーム　牧水園,宮崎県日向市東郷町山陰丙1422-2,,,福祉施設や医療機関等に入所又は入院するに至らない在宅の要援護者で、一般の避難所生活において何らかの特別な配慮を必要とする者。,32.394241,131.531819,
1148,E4520600193111,仲深区公民館,宮崎県日向市東郷町山陰戊393-4,1,,,32.364826,131.48713,
1149,E4520600195111,牧水公園ふるさとの家,宮崎県日向市東郷町坪谷1267,1,,,32.361081,131.462443,
1150,E4520600225111,坪谷区公民館,宮崎県日向市東郷町坪谷161-1,,,,32.363384,131.451355,
1151,E4520600196111,坪谷小学校,宮崎県日向市東郷町坪谷253-1,1,,,32.363721,131.451079,
1152,E4520600198111,八重原区公民館,宮崎県日向市東郷町八重原迫野内693-1,,,,32.406743,131.501608,
1153,E4520600202111,財光寺小学校,宮崎県日向市比良町3-22,1,,,32.412387,131.62291,
1154,E4520600206111,美々津公民館,宮崎県日向市美々津3432-1,,,,32.337287,131.611208,
1155,E4520600207111,宮ノ下地区構造改善センター,宮崎県日向市美々津町1006-1,,,,32.308577,131.588216,
1156,E4520600208111,高松公民館,宮崎県日向市美々津町1429-4,,,,32.316418,131.590388,
1157,E4520600209111,落鹿公民館,宮崎県日向市美々津町1823-1,,,,32.324758,131.590235,
1158,E4520600211111,美々津中学校,宮崎県日向市美々津町2755,1,,,32.328338,131.60483,
1159,E4520600213111,美々津小学校,宮崎県日向市美々津町3506,1,,,32.336809,131.609106,
1160,E4520600231121,特別養護老人ホーム　立縫の里,宮崎県日向市美々津町4074,,,福祉施設や医療機関等に入所又は入院するに至らない在宅の要援護者で、一般の避難所生活において何らかの特別な配慮を必要とする者。,32.332962,131.597903,
1161,E4520600217111,旧美々津小学校田の原分校,宮崎県日向市美々津町5744-2,1,,,32.338931,131.555287,
1162,E4520600220112,日向市体育センター,宮崎県日向市本町10-5,1,,,32.422233,131.623602,
1163,E4520600220111,日向市武道館,宮崎県日向市本町10-5,1,,,32.421948,131.623458,
1164,E4520400063111,酒谷小学校,宮崎県日南市酒谷乙9086,,,,31.622873,131.291688,
1165,E4520400007111,日南高校,宮崎県日南市星倉5800,,,,31.6267746633039,131.365670157041,
1166,E4520400009111,鵜戸支所,宮崎県日南市大字宮浦2434,,,,31.670032,131.450074,
1167,E4520400010111,クリーンセンター管理棟,宮崎県日南市大字隈谷乙1671,,,,31.581241,131.370335,
1168,E4520400012111,生活改善センター,宮崎県日南市大字酒谷乙4557,1,,,31.616192,131.308443,
1169,E4520400013111,都市農村交流センター,宮崎県日南市大字上方1013-1,,,,31.561964,131.345192,
1170,E4520400017111,東郷公民館,宮崎県日南市大字東弁分乙758,,,,31.622722,131.394563,
1171,E4520400020111,サンライフ日南,宮崎県日南市大字風田3202,1,,,31.612701,131.415528,
1172,E4520400022111,大堂津地域交流センター,宮崎県日南市大堂津3-12-1,,,,31.557512,131.38053,
1173,E4520400023111,ふれあい健やかセンター,宮崎県日南市中央通1-1-1,,,,31.60133,131.378352,
1174,E4520400025111,多目的体育館,宮崎県日南市殿所2200,,,,31.6161582218868,131.381840404292,
1175,E4520400026111,榎原小学校,宮崎県日南市南郷町榎原甲160,1,,,31.537036,131.306653,
1176,E4520400029111,西町体育館,宮崎県日南市南郷町西町1-2,,,,31.542782,131.376248,
1177,E4520400030111,南郷ハートフルセンター,宮崎県日南市南郷町中村乙7051-25,,,,31.5231884405318,131.373303299359,
1178,E4520400032111,潟上小学校,宮崎県日南市南郷町脇本2855,1,,,31.518016,131.357004,
1179,E4520400036111,さくらアリーナ,宮崎県日南市北郷町郷之原甲110-3,,,,31.6908039768677,131.374005340901,
1180,E4520400039111,大藤公民館,宮崎県日南市北郷町大藤甲2159-1,,,,31.66021,131.375,
1181,E4520400041111,坂元山村振興会館,宮崎県日南市北郷町北河内431,,,,31.6956453393776,131.347697162737,
1182,E4520400043111,生涯学習センターまなびピア,宮崎県日南市木山2-4-44,,,,31.592686,131.397826,
1183,E4520400044111,飫肥小学校,宮崎県日南市飫肥10-1-3,1,,,31.628945,131.352427,
1184,E4520400047111,飫肥公民館,宮崎県日南市飫肥2-12-8,1,,,31.627229,131.355558,
1185,E4544200001111,古園公民館,宮崎県日之影町大字岩井川1193-4,1,高齢者・一般,,32.66959098,131.3577713,
1186,E4544200002111,日之影中学校体育館,宮崎県日之影町大字岩井川1952,1,高齢者・一般,,32.65989656,131.3743746,
1187,E4544200003111,大人地区農村集落多目的共同利用施設,宮崎県日之影町大字岩井川2387-2,1,高齢者・一般,,32.65825206,131.370128,
1188,E4544200004112,山附地区多目的活性化センター,宮崎県日之影町大字岩井川5187-47,1,,,32.61926745,131.3757135,
1189,E4544200004111,横迫公民館,宮崎県日之影町大字岩井川5187-47,1,高齢者・一般,,32.612888,131.385704,
1190,E4544200005111,松の木コミュニティ施設,宮崎県日之影町大字岩井川543-8,1,高齢者・一般,,32.67382625,131.3276963,
1191,E4544200006111,上小原公民館,宮崎県日之影町大字岩井川897-4,1,高齢者・一般,,32.67853799,131.3471002,
1192,E4544200007111,見立地区高齢者総合在宅支援施設,宮崎県日之影町大字見立2254-4,1,高齢者・一般,,32.7788942,131.4414792,
1193,E4544200008111,仲組小跡集会室,宮崎県日之影町大字見立2944-1,1,高齢者・一般,,32.73275198,131.4126793,
1194,E4544200009111,長谷川地区高齢者等活性化センター,宮崎県日之影町大字七折11669,1,高齢者・一般,,32.6847616,131.3619991,
1195,E4544200010111,平底コミュニティセンター,宮崎県日之影町大字七折12217-4,1,高齢者・一般,,32.675375,131.364578,
1196,E4544200011112,深角地区地域交流センター,宮崎県日之影町大字七折12629-2,1,高齢者・一般,,32.68978953,131.3456641,
1197,E4544200012111,椎谷地区多目的研修集会施設,宮崎県日之影町大字七折13683-1,1,高齢者・一般,,32.685227821529,131.32643642308,
1198,E4544200014121,養護老人ホーム　八戸清流園,宮崎県日之影町大字七折1850-1,1,,要配慮者,32.6227688,131.42947,
1199,E4544200025111,八戸本通公民館,宮崎県日之影町大字七折2023-1,,高齢者・一般,,32.619582,131.432236,
1200,E4544200015111,八戸地区構造改善センター,宮崎県日之影町大字七折2097,1,高齢者・一般,,32.621185473741,131.43028524167,
1201,E4544200016111,日之影町活性化センター,宮崎県日之影町大字七折3461,1,高齢者・一般,,32.65608434,131.3885762,
1202,E4544200017111,鹿川地区交流センター,宮崎県日之影町大字七折4892,1,高齢者・一般,,32.70483256,131.4699324,
1203,E4544200018111,大菅地区女性・若者等活動促進施設,宮崎県日之影町大字七折7009,1,高齢者・一般,,32.6824276,131.4078454,
1204,E4544200019111,石垣茶屋,宮崎県日之影町大字七折7282-1,1,高齢者・一般,,32.70011934,131.4027279,
1205,E4544200020121,高齢者生活福祉センター　天神荘,宮崎県日之影町大字七折8840,1,,要配慮者,32.6584438,131.3840974,
1206,E4544200021121,日之影町保健センター,宮崎県日之影町大字七折9074-3,1,,要配慮者・身体・知的障害者,32.65999739,131.3824774,
1207,E4544200022111,日之影町役場,宮崎県日之影町大字七折9079,1,高齢者・一般,,32.659485,131.380956,
1208,E4544200023111,宮水小学校体育館,宮崎県日之影町大字七折9090,1,高齢者・一般,,32.66173637,131.3826169,
1209,E4544200024111,小川平高齢者支援施設,宮崎県日之影町大字分城735-1,1,高齢者・一般,,32.59982764,131.3991721,
1210,E4543100002111,中区コミュニティセンター,宮崎県美郷町西郷山三ケ2562,1,,,32.501602,131.328134,
1211,E4543100003111,谷内地区コミュニティセンター,宮崎県美郷町西郷山三ケ3151,1,,,32.45514342498,131.34421663558,
1212,E4543100004111,上区コミュニティセンター,宮崎県美郷町西郷山三ケ4175,,,,32.487758,131.322926,
1213,E4543100006111,持田コミュニティセンター,宮崎県美郷町西郷山三ケ4800,1,,,32.497367,131.289376,
1214,E4543100008111,下区集会センター,宮崎県美郷町西郷山三ケ610,1,,,32.467731,131.375668,
1215,E4543100009111,小原集会センター,宮崎県美郷町西郷小原1289-1,1,,,32.457913,131.398214,
1216,E4543100012111,若宮コミュニティセンター,宮崎県美郷町西郷田代10321-1,1,,,32.4654341698794,131.426579374148,
1217,E4543100015121,西郷生きいきトレーニングセンター,宮崎県美郷町西郷田代1668-1,,,要配慮者,32.430557555707,131.426643650538,
1218,E4543100016112,ニューホープセンター,宮崎県美郷町西郷田代1870,1,,,32.43733226313,131.42244010912,
1219,E4543100016111,農村環境改善センター,宮崎県美郷町西郷田代1870,1,,,32.43764988798,131.42184490542,
1220,E4543100017111,上野原文化伝承館,宮崎県美郷町西郷田代2813-2,1,,,32.426092,131.419194,
1221,E4543100018111,峰集会センター,宮崎県美郷町西郷田代347-3,1,,,32.439872,131.424546,
1222,E4543100019111,越コミュニティセンター,宮崎県美郷町西郷田代3672-1,,,,32.424585,131.42491,
1223,E4543100020111,西郷義務教育学校体育館,宮崎県美郷町西郷田代471-1,1,,,32.438503,131.428148,
1224,E4543100021111,小川集会センター,宮崎県美郷町西郷田代4974-6,1,,,32.414071,131.432188,
1225,E4543100026111,下八峡コミュニティセンター,宮崎県美郷町西郷田代6674-1,1,,,32.4474712381502,131.456435966586,
1226,E4543100027111,上八峡集会センター,宮崎県美郷町西郷田代7307,1,,,32.457069,131.466423,
1227,E4543100028111,舟戸コミュニティセンター,宮崎県美郷町西郷田代7680-1,1,,,32.45147,131.432164,
1228,E4543100030111,和田若宮地区体育館,宮崎県美郷町西郷田代9121,1,,,32.463327264675,131.43620709325,
1229,E4543100033111,鬼神野基幹集落センター,宮崎県美郷町南郷鬼神野2309,1,,,32.381849,131.304212,
1230,E4543100034111,鬼神野折立営農センター,宮崎県美郷町南郷鬼神野422,1,,,32.387776,131.312105,
1231,E4543100035111,森の駅きじの,宮崎県美郷町南郷鬼神野981-1,1,,,32.381664,131.300219,
1232,E4543100039111,渡川公民館,宮崎県美郷町南郷上渡川3057,1,,,32.348129,131.278424,
1233,E4543100040111,渡川中央公民館,宮崎県美郷町南郷上渡川3254,1,,,32.3469972739334,131.273900200008,
1234,E4543100041111,長堀営農センター,宮崎県美郷町南郷神門1039-1,1,,,32.388311026336,131.328285501575,
1235,E4543100043111,神門上区営農改善センター,宮崎県美郷町南郷神門2147,1,,,32.395596,131.325496,
1236,E4543100045111,多目的研修センター,宮崎県美郷町南郷神門287,1,,,32.3862272417401,131.334395573721,
1237,E4543100048111,美郷南学園体育館,宮崎県美郷町南郷神門773-1,1,,,32.38492,131.334736,
1238,E4543100050111,小又集会センター,宮崎県美郷町南郷水清谷2339-2,1,,,32.384485421508,131.37560363558,
1239,E4543100051111,水清谷集落センター,宮崎県美郷町南郷水清谷65,1,,,32.3984428550367,131.370745209056,
1240,E4543100055111,長野生活改善センター,宮崎県美郷町北郷宇納間2538-1,1,,,32.489590913404,131.452457325983,
1241,E4543100058112,北郷林業総合センター,宮崎県美郷町北郷宇納間401,1,,,32.501841,131.444027,
1242,E4543100058111,北郷総合交流センター,宮崎県美郷町北郷宇納間401,1,,,32.501579,131.443356,
1243,E4543100059111,北郷総合保健センター,宮崎県美郷町北郷宇納間439,1,,,32.500801,131.443807,
1244,E4543100063111,黒木営農改善施設,宮崎県美郷町北郷黒木517,1,,,32.5251946040868,131.5161827741,
1245,E4543100065111,入下多目的集会施設,宮崎県美郷町北郷入下1021,1,,,32.4947309418508,131.486617939294,
1246,E4543100067111,入下公民館,宮崎県美郷町北郷入下845,1,,,32.495028,131.487831,
1247,E4540400003121,木城地域ふれあい館　輝ららフィットネス棟,宮崎県木城町大字高城1427-1,,,町が特定した者,32.167826359885,131.47905342478,
1248,E4540400004121,特別養護老人ホーム　新納荘,宮崎県木城町大字高城3078,,,町が特定した者,32.166744255458,131.46428350808,
1249,E4540400005111,高城児童館,宮崎県木城町大字高城3876-1,1,,,32.166236559972,131.47405303217,
1250,E4540400007111,石河内公民館,宮崎県木城町大字石河内412-2,1,,,32.21846476979,131.41551247821,
1251,E4540400008111,川原公民館,宮崎県木城町大字川原807,1,,,32.169099358663,131.425835491,
1252,E4540400009111,中之又総合福祉センター,宮崎県木城町大字中之又351-11,1,,,32.304052874659,131.35635374433,
1253,E4540400011113,みどりの杜木城学園体育館,宮崎県木城町大字椎木2010-1,1,,,32.16032884,131.4670746,
1254,E4540400011112,みどりの杜木城学園,宮崎県木城町大字椎木2010-1,1,,,32.160877,131.467225,
1255,E4540400012111,みどりの杜木城学園講堂,宮崎県木城町大字椎木2190,1,,,32.1604,131.466404,
1256,E4540400013121,複合型福祉施設　仁の里,宮崎県木城町大字椎木3950-1,,,町が特定した者,32.156028489964,131.46367287159,
1257,E4540400016121,木城世代間交流福祉館,宮崎県木城町大字椎木4176,,,町が特定した者,32.159379274104,131.46783546352,
1258,E4540400017121,木城町病児・病後児保育施設ひだまり,宮崎県木城町大字椎木4246,1,,町が特定した者,32.157498,131.469961,
1259,E4542100001111,総合福祉センター,宮崎県門川町庵川西6-60,1,,,32.482719534336,131.67392502664,
1260,E4542100002111,草川小学校,宮崎県門川町加草4-98,1,,,32.487797790767,131.66515430142,
1261,E4542100003111,門川中学校,宮崎県門川町西栄町2-3-1,1,,,32.479487002853,131.64899253185,
1262,E4542100004111,かどがわ温泉心の杜,宮崎県門川町大字庵川1942,1,,,32.485726461809,131.67569796679,
1263,E4542100005111,中村公民館,宮崎県門川町大字加草3369-1,1,,,32.497891665331,131.64587483882,
1264,E4542100006111,三ヶ瀬集落センター,宮崎県門川町大字川内1986-3,1,,,32.474582904836,131.56052659393,
1265,E4542100007111,西門川総合活性化センター,宮崎県門川町大字川内2671-3,1,,,32.489705357164,131.57197253648,
1266,E4542100008111,松瀬集落センター,宮崎県門川町大字川内3428,1,,,32.527565622376,131.53899745887,
1267,E4542100009111,門川小学校,宮崎県門川町大字門川尾末1502-2,1,,,32.472181404323,131.6523642932,
1268,E4542100010111,中央公民館,宮崎県門川町大字門川尾末1616-1,1,,,32.473569700732,131.6507402782,
1269,E4542100011111,門川高等学校,宮崎県門川町大字門川尾末2680,1,,,32.469793937458,131.64116011801,
1270,E4542100012111,五十鈴小学校,宮崎県門川町大字門川尾末6270,1,,,32.472082233834,131.63187493568,
1271,E4542100014111,子育て人づくりセンター,宮崎県門川町東栄町1-1-2,1,,,32.474402413424,131.65080465122,
1272,E4542100015111,南ケ丘公民館,宮崎県門川町南ケ丘1-108,1,,,32.458843723375,131.64099977951,
1273,E4542100016111,クリエイティブセンター,宮崎県門川町南町6-1,1,,,32.464018425559,131.64944779629,
1274,E4542100017111,平城保育所,宮崎県門川町平城西14-2,1,,,32.476370634649,131.64280474907,
