NO,共通ID,施設・場所名,住所,指定緊急避難場所との住所同一,その他市町村長が必要と認める事項,受入対象者,緯度,経度,備考
1,E4721300003111,具志川商業高等学校　体育館,沖縄県うるま市みどり町6-10-1,,,,26.381031,127.853796,
2,E4721300071121,健康福祉センターうるみん,沖縄県うるま市安慶名1-8-1,,,高齢者、障がい者、乳幼児その他の特に配慮を要する者,26.373714,127.854236,
3,E4721300007111,あげな中学校,沖縄県うるま市安慶名2-18-37,,,,26.377753,127.850058,
4,E4721300010111,具志川中学校,沖縄県うるま市喜屋武591,,,,26.360611,127.841171,
5,E4721300012111,兼原小学校,沖縄県うるま市喜屋武66,,,,26.363303,127.85031,
6,E4721300014111,具志川高等学校　体育館,沖縄県うるま市喜仲3-28-1,,,,26.353408,127.844365,
7,E4721300019111,中原小学校,沖縄県うるま市宮里731,,,,26.351162,127.833795,
8,E4721300072121,具志川ドーム,沖縄県うるま市具志川2336,,,高齢者、障がい者、乳幼児その他の特に配慮を要する者,26.359814,127.866832,
9,E4721300020111,具志川東中学校,沖縄県うるま市具志川2803,,,,26.362885,127.861107,
10,E4721300026111,津堅小中学校,沖縄県うるま市勝連津堅1327,,,,26.248353,127.935911,
11,E4721300028111,勝連小学校　体育館,沖縄県うるま市勝連内間1173,,,,26.316507,127.899547,
12,E4721300030111,与勝中学校,沖縄県うるま市勝連南風原3615,,,,26.328774,127.883749,
13,E4721300032111,旧比嘉小学校特別教室棟,沖縄県うるま市勝連比嘉620,,,,26.32325,127.960753,
14,E4721300033111,与勝高等学校　体育館,沖縄県うるま市勝連平安名3248,,,,26.313055,127.895649,
15,E4721300037111,平敷屋小学校,沖縄県うるま市勝連平敷屋3850,,,,26.307013,127.918117,
16,E4721300039111,あげな小学校,沖縄県うるま市西原151,,,,26.375322,127.848791,
17,E4721300041111,伊波小学校,沖縄県うるま市石川伊波287,,,,26.416954161632,127.82122086774,
18,E4721300042111,石川高等学校　体育館,沖縄県うるま市石川伊波861,,,,26.414812,127.820292,
19,E4721300050111,伊波中学校,沖縄県うるま市石川東恩納993,,,,26.407438,127.822199,
20,E4721300058111,赤道小学校　体育館,沖縄県うるま市赤道921,,,,26.363437,127.83192,
21,E4721300060111,中部農林高等学校　体育館,沖縄県うるま市田場1570,,,,26.371212,127.854407,
22,E4721300061111,前原高等学校　体育館,沖縄県うるま市田場1827,,,,26.372332,127.862647,
23,E4721300062111,田場小学校,沖縄県うるま市田場713,,,,26.365572,127.862449,
24,E4721300073111,伊計公民館,沖縄県うるま市与那城伊計237,,,,26.386655,127.993379,
25,E4721300074111,宮城島コミュニティ防災センター,沖縄県うるま市与那城宮城122-2,,,,26.368552,127.984427,
26,E4721300066111,島しょ地域交流施設,沖縄県うるま市与那城宮城163,,,,26.371215,127.985255,
27,E4721300070111,与勝第二中学校,沖縄県うるま市与那城饒辺153,,,,26.31479,127.907249,
28,E4735500001111,西地区農村集落総合管理施設,沖縄県粟国村字西165,1,,,26.58354453,127.2230744,
29,E4735500002111,ビジターセンター,沖縄県粟国村字東1142,1,,,26.58211359,127.2333999,
30,E4735500004111,東ふれあいセンター,沖縄県粟国村字東1981,1,,,26.58513003,127.2287044,
31,E4735500005112,粟国村役場,沖縄県粟国村字東483,1,,,26.58176,127.228859,
32,E4736000003111,伊是名区ふるさとの村宿泊交流施設,沖縄県伊是名村字伊是名739-1,1,,,26.91649,127.933356,
33,E4736000005111,諸見地区交流促進センター,沖縄県伊是名村字諸見4947,1,,,26.932403,127.947534,
34,E4736000014111,伊是名村臨海ふれあい公園,沖縄県伊是名村字諸見565-4,1,,,26.931526,127.953258,
35,E4736000007111,勢理客区ふるさとの村宿泊交流施設,沖縄県伊是名村字勢理客2621-12,1,,,26.93236,127.924402,
36,E4736000011111,伊是名村立伊是名幼稚園,沖縄県伊是名村字仲田1162-2,1,,,26.930342,127.942014,
37,E4736000012111,伊是名村立伊是名小学校,沖縄県伊是名村字仲田1163,1,,,26.92949,127.94159,
38,E4736000013111,伊是名村立伊是名中学校,沖縄県伊是名村字仲田1344,1,,,26.926487,127.94145,
39,E4736000009111,伊是名村保健センター,沖縄県伊是名村字仲田1385-1,1,,,26.924512,127.941316,
40,E4736000009112,伊是名村産業支援センター,沖縄県伊是名村字仲田1385-1,1,,,26.924148,127.940753,
41,E4736000004111,仲田地区農村総合管理施設,沖縄県伊是名村字仲田144-1,1,,,26.924823,127.949894,
42,E4736000010111,伊是名村立保育所,沖縄県伊是名村字仲田1687,1,,,26.924904,127.94078,
43,E4736000008111,伊是名村役場,沖縄県伊是名村字仲田1687-22,1,,,26.923693,127.941322,
44,E4736000002121,特別養護老人ホーム　チヂン園,沖縄県伊是名村字仲田1687-51,,,要配慮者,26.922234,127.943523,
45,E4736000002122,短期入所生活介護事業所　チヂン園,沖縄県伊是名村字仲田1687-51,,,要配慮者,26.922234,127.943523,
46,E4736000006111,内花区地域活動拠点活性化施設,沖縄県伊是名村字内花3051-56,1,,,26.948825,127.93961,
47,E4720800008111,浦城小学校,沖縄県浦添市伊祖2-13-1,1,,,26.2537670597095,127.71716653094,
48,E4720800009121,浦城っ子児童センター,沖縄県浦添市伊祖2-13-2,,【対象とする災害種別】 津波／高潮／土砂災害等,要配慮者,26.2539581221902,127.715459028052,
49,E4720800012111,浦添商業高等学校,沖縄県浦添市伊祖3-11-1,1,,,26.2590504592964,127.72041046944,
50,E4720800014121,若草児童センター,沖縄県浦添市伊祖3-44-1,,【対象とする災害種別】 津波／高潮／土砂災害等,要配慮者,26.2594767469825,127.721181981746,
51,E4720800018111,仲西中学校,沖縄県浦添市屋富祖2-13-1,1,,,26.2501606122415,127.709841732145,
52,E4720800019111,仲西小学校,沖縄県浦添市屋富祖2-32-1,1,,,26.2501514361507,127.706941513049,
53,E4720800023121,宮城ヶ原児童センター,沖縄県浦添市宮城2-4-1,,【対象とする災害種別】 津波／高潮,要配慮者,26.2492666427134,127.70706836062,
54,E4720800027111,宮城小学校,沖縄県浦添市宮城3-7-3,1,,,26.2469930870197,127.706481236105,
55,E4720800028121,みやぎ希望の森コミュニティセンター,沖縄県浦添市宮城3-7-3-1,,【対象とする災害種別】 津波／高潮／土砂災害等,要配慮者,26.2470469484007,127.706966581031,
56,E4720800032121,経塚ゆいまーるセンター,沖縄県浦添市経塚1-17-1,,【対象とする災害種別】 津波／高潮,要配慮者,26.2402587181403,127.722447791614,
57,E4720800034111,港川中学校,沖縄県浦添市港川1-1-1,1,,,26.2613802701895,127.718252558105,
58,E4720800052111,港川小学校,沖縄県浦添市城間4-37-1,1,,,26.2609810486837,127.716018783056,
59,E4720800056121,森の子児童センター,沖縄県浦添市勢理客1-4-1,1,【対象とする災害種別】 津波／高潮／土砂災害等,要配慮者,26.2426022435549,127.699738473497,
60,E4720800056111,神森小学校,沖縄県浦添市勢理客1-4-1,1,,,26.2419286306778,127.699684829316,
61,E4720800062121,西原児童センター,沖縄県浦添市西原4-9-1,,【対象とする災害種別】 津波／高潮／土砂災害等,要配慮者,26.2506039170738,127.744054781602,
62,E4720800072121,前田ユブシが丘児童センター,沖縄県浦添市前田323,,【対象とする災害種別】 津波／高潮／土砂災害等,要配慮者,26.2392481462181,127.735187341085,
63,E4720800073111,前田小学校,沖縄県浦添市前田333,1,,,26.2389937544537,127.734394627954,
64,E4720800076121,沖縄県立大平特別支援学校,沖縄県浦添市大平1-27-1,,【対象とする災害種別】 津波／高潮／土砂災害等,要配慮者,26.2479704558588,127.712133039087,
65,E4720800084111,沢岻小学校,沖縄県浦添市沢岻998,1,,,26.2367126501012,127.716981313995,
66,E4720800087111,浦添中学校,沖縄県浦添市仲間2-46-1,1,,,26.2459656348702,127.727297502901,
67,E4720800088111,浦添小学校,沖縄県浦添市仲間2-47-1,1,,,26.2469714664273,127.729753792416,
68,E4720800089121,うらそえぐすく児童センター,沖縄県浦添市仲間2-47-5,,【対象とする災害種別】 津波／高潮／土砂災害等,要配慮者,26.2454356920041,127.729309436,
69,E4720800096111,当山小学校,沖縄県浦添市当山2-34-1,1,,,26.2519464107334,127.733407243695,
70,E4720800098111,浦西中学校,沖縄県浦添市当山3-1-1,1,,,26.2484993397424,127.735763827804,
71,E4720800100111,神森中学校,沖縄県浦添市内間1-6-1,1,,,26.2393349222619,127.707081739076,
72,E4720800103111,浦添高等学校,沖縄県浦添市内間3-26-1,1,,,26.237673495003,127.70293358946,
73,E4720800104121,内間児童センター,沖縄県浦添市内間3-28-12,,【対象とする災害種別】 津波／高潮／土砂災害等,要配慮者,26.2369139874365,127.702225194278,
74,E4720800106111,内間小学校,沖縄県浦添市内間4-3-1,1,,,26.2390708475873,127.704450415587,
75,E4720800110111,牧港小学校,沖縄県浦添市牧港2-14-1,1,,,26.2592977724486,127.724517747759,
76,E4720800112121,まちなと児童センター,沖縄県浦添市牧港2-38-2,,【対象とする災害種別】 津波／高潮／土砂災害等,要配慮者,26.2633570072451,127.72456453881,
77,E4720800115121,浦添市障がい者福祉関連複合施設ピアラルうらそえ,沖縄県浦添市牧港4-5-10,,【対象とする災害種別】 高潮／土砂災害等,要配慮者,26.264548,127.728247,
78,E4721100003111,越来保育所,沖縄県沖縄市越来1-11-9,,,,26.340602771024,127.81008003796,
79,E4721100004111,越来中学校,沖縄県沖縄市越来1-2-1,1,,,26.341467,127.812485,
80,E4721100005111,越来小学校,沖縄県沖縄市越来1-2-2,1,,,26.342928284962,127.81230852188,
81,E4721100006111,美来工科高等学校,沖縄県沖縄市越来3-17-1,1,,,26.348109,127.8094,
82,E4721100010111,島袋小学校,沖縄県沖縄市久保田2-21-1,1,,,26.324498733417,127.79769360139,
83,E4721100011111,宮里小学校,沖縄県沖縄市宮里3-27-1,1,,,26.338385,127.822531,
84,E4721100012111,諸見小学校,沖縄県沖縄市胡屋2-3-1,1,,,26.332867,127.799877,
85,E4721100013111,コザ中学校,沖縄県沖縄市胡屋3-38-1,1,,,26.331819,127.804157,
86,E4721100014111,美東中学校（津波除く）,沖縄県沖縄市高原5-12-1,1,,,26.322605547772,127.82470898556,
87,E4721100015111,高原小学校（津波除く）,沖縄県沖縄市高原5-12-2,1,,,26.323119,127.825835,
88,E4721100017111,福祉文化プラザ（津波除く）,沖縄県沖縄市高原7-35-1,,,,26.32065852647,127.82602135191,
89,E4721100018111,山内中学校,沖縄県沖縄市山内2-20-1,1,,,26.32291,127.784769,
90,E4721100019111,山内小学校,沖縄県沖縄市山内2-32-2,1,,,26.324502799446,127.78336949605,
91,E4721100022111,沖縄市体育館,沖縄県沖縄市諸見里2-1-1,,,,26.332678092724,127.78689527011,
92,E4721100024111,美里高等学校,沖縄県沖縄市松本2-5-1,1,,,26.354731415817,127.81912954835,
93,E4721100025111,コザ高等学校,沖縄県沖縄市照屋5-5-1,1,,,26.331938524448,127.81886219771,
94,E4721100026111,中の町小学校,沖縄県沖縄市上地3-4-1,1,,,26.333605,127.793487,
95,E4721100027111,美里中学校,沖縄県沖縄市知花1-24-1,1,,,26.359954195725,127.81725742332,
96,E4721100028111,かりゆし園,沖縄県沖縄市知花6-36-17,,,,26.366173391721,127.81896035518,
97,E4721100028112,保健相談センター,沖縄県沖縄市知花6-36-17,,,,26.366351227631,127.81874577845,
98,E4721100030111,コザ小学校,沖縄県沖縄市中央4-16-1,1,,,26.341980220392,127.80190955049,
99,E4721100031111,北美小学校,沖縄県沖縄市登川1515,1,,,26.377422,127.821539,
100,E4721100033111,宮里中学校,沖縄県沖縄市東2-17-1,1,,,26.344618190811,127.82469366708,
101,E4721100035111,美東小学校（津波除く）,沖縄県沖縄市桃原3-4-1,1,,,26.334062209777,127.828033351,
102,E4721100037111,球陽高等学校・球陽中学校,沖縄県沖縄市南桃原1-10-1,1,,,26.319515999609,127.78437167858,
103,E4732600001111,北谷小学校体育館,沖縄県沖縄市南桃原4-13-1,1,,,26.325299247871,127.77854619718,
104,E4732600002111,北谷幼稚園,沖縄県沖縄市南桃原4-13-2,,乳幼児及び妊産婦（家族等含む）優先避難所,,26.324970752281,127.77931743831,
105,E4721100041111,比屋根小学校,沖縄県沖縄市比屋根6-2-1,1,,,26.31393,127.815851,
106,E4721100042111,美原小学校,沖縄県沖縄市美原4-20-1,1,,,26.349898876321,127.82127483414,
107,E4721100044111,美里小学校,沖縄県沖縄市美里4-1-1,1,,,26.349575719724,127.81263454201,
108,E4731100003111,沖縄県県民の森,沖縄県恩納村字安富祖1770,,,,26.511196,127.90662,
109,E4731100004111,安富祖小学校（校舎・体育館）,沖縄県恩納村字安富祖1868-1,1,,,26.51256947,127.8988831,
110,E4731100005111,恩納村役場,沖縄県恩納村字恩納2451,1,,,26.49737621,127.8536808,
111,E4731100006111,恩納公民館,沖縄県恩納村字恩納2524,1,,,26.49888107,127.851953,
112,E4731100007111,恩納小学校（校舎・体育館）,沖縄県恩納村字恩納6069-1,1,,,26.48916329,127.8453039,
113,E4731100008111,恩納村総合保健福祉センター,沖縄県恩納村字恩納6302,1,,,26.48757279,127.8475862,
114,E4731100009111,うんな中学校（校舎・体育館）,沖縄県恩納村字恩納7409-1,1,,,26.47568402,127.8406178,
115,E4731100010111,赤間総合運動公園,沖縄県恩納村字恩納7441,1,,,26.47159981,127.8421786,
116,E4731100011111,喜瀬武原公民館,沖縄県恩納村字喜瀬武原458-1,1,,,26.4895641,127.9083483,
117,E4731100012111,喜瀬武原小学校（校舎・体育館）,沖縄県恩納村字喜瀬武原458-16,1,,,26.48994328,127.9101877,
118,E4731100014111,山田小学校（校舎・体育館）,沖縄県恩納村字山田997,1,,,26.43332532,127.7770123,
119,E4731100022111,仲泊小学校（校舎・体育館）,沖縄県恩納村字仲泊433,1,,,26.4409908,127.8027849,
120,E4731100023111,冨着公民館,沖縄県恩納村字冨着879,1,,,26.455095,127.809743,
121,E4731100024111,名嘉真公民館,沖縄県恩納村字名嘉真1506,1,,,26.51520235,127.9205325,
122,E4732500001112,屋良小学校,沖縄県嘉手納町屋良1-31-1,1,,,26.364527,127.764789,
123,E4732500001111,屋良幼稚園,沖縄県嘉手納町屋良1-31-1,1,,,26.364189,127.764953,
124,E4732500003111,屋良地区体育館・図書室,沖縄県嘉手納町字屋良621-1,,,,26.366116,127.761985,
125,E4732500005111,嘉手納高等学校,沖縄県嘉手納町字屋良806,1,,,26.36879,127.766747,
126,E4732500007111,東区コミュニティーセンター,沖縄県嘉手納町字屋良928-1,,,,26.365906,127.766801,
127,E4732500009111,第二保育所,沖縄県嘉手納町字嘉手納147,,,,26.366482,127.762284,
128,E4732500013111,ロータリープラザ,沖縄県嘉手納町字嘉手納290-9,,,,26.363381,127.756338,
129,E4732500014114,北区コミュニティーセンター,沖縄県嘉手納町字嘉手納312,1,,,26.364345,127.753229,
130,E4732500014113,嘉手納中学校,沖縄県嘉手納町字嘉手納312,1,,,26.364899,127.75423,
131,E4732500014112,嘉手納小学校,沖縄県嘉手納町字嘉手納312,1,,,26.364765,127.752034,
132,E4732500014111,嘉手納幼稚園,沖縄県嘉手納町字嘉手納312,1,,,26.364296,127.751539,
133,E4732500017111,南区コミュニティーセンター,沖縄県嘉手納町字嘉手納489-2,,,,26.361311,127.753802,
134,E4732500031121,かでな未来館,沖縄県嘉手納町字嘉手納603-8,,,,26.362443,127.756107,
135,E4732500018111,中央区コミュニティーセンター,沖縄県嘉手納町字嘉手納81,,,,26.36553,127.757305,
136,E4732500019111,嘉手納町町民の家,沖縄県嘉手納町字久得5,,,,26.372568,127.770535,
137,E4732500020111,嘉手納町兼久体育館,沖縄県嘉手納町字兼久85-25,,,,26.354346,127.742374,
138,E4732500023111,西区コミュニティーセンター,沖縄県嘉手納町字水釜121,1,,,26.3601695,127.7496594,
139,E4732500024111,第三保育所,沖縄県嘉手納町字水釜373,,,,26.35791,127.742659,
140,E4732500027111,嘉手納町総合福祉センター,沖縄県嘉手納町字水釜447-1,,,,26.3608,127.744286,
141,E4732500028111,嘉手納地区学習等供用施設・児童館,沖縄県嘉手納町字水釜558-1,,,,26.362652,127.75104,
142,E4732500030111,西浜区コミュニティーセンター,沖縄県嘉手納町水釜6-5-29,,,,26.356837,127.742441,
143,E4731300001111,漢那区公民館,沖縄県宜野座村漢那1840,,,,26.4754690408365,127.959008946829,
144,E4731300002111,城原区公民館,沖縄県宜野座村漢那2276-8,,,,26.473467,127.941614,
145,E4731300003111,宜野座高等学校,沖縄県宜野座村宜野座1,,,,26.483287828361,127.977950847973,
146,E4731300005111,宜野座区公民館,沖縄県宜野座村宜野座427,,,,26.4814302586251,127.980371260715,
147,E4731300007112,漢那幼稚園,沖縄県宜野座村字漢那1987-5,1,,,26.4773156343601,127.953552185136,
148,E4731300007111,漢那小学校,沖縄県宜野座村字漢那1987-5,1,,,26.4779086488714,127.953326879569,
149,E4731300008111,かんな保育園,沖縄県宜野座村字漢那213,,,,26.4748461058278,127.962012221266,
150,E4731300012111,宜野座小学校,沖縄県宜野座村字宜野座1190,,,,26.4804297677628,127.975363491465,
151,E4731300012112,宜野座幼稚園,沖縄県宜野座村字宜野座1190,,,,26.47994109471,127.975275903595,
152,E4731300016111,宜野座ドーム,沖縄県宜野座村字宜野座181,1,,,26.484186,127.974281,
153,E4731300036111,宜野座村ふれあい交流センター,沖縄県宜野座村字宜野座291,,,,26.481396,127.975135,
154,E4731300020111,松田区公民館,沖縄県宜野座村字松田1,,,,26.4912719863272,127.992805389332,
155,E4731300024111,松田幼稚園,沖縄県宜野座村字松田601,,,,26.4885,127.991884,
156,E4731300024112,松田小学校,沖縄県宜野座村字松田601,,,,26.488438,127.991388,
157,E4731300025111,松田保育園,沖縄県宜野座村字松田611-5,,,,26.488924,127.989612,
158,E4731300026111,宜野座村立保育所,沖縄県宜野座村字惣慶126-1,,,,26.479641,127.976046,
159,E4731300030121,宜野座村地域福祉センター,沖縄県宜野座村字惣慶1898-1,,,要配慮者,26.483077,127.97162,
160,E4731300030111,宜野座村地域福祉センター,沖縄県宜野座村字惣慶1898-1,,,,26.483077,127.97162,
161,E4731300032111,宜野座中学校,沖縄県宜野座村惣慶1505-1,1,,,26.4792663041561,127.969412069083,
162,E4731300033111,惣慶区公民館,沖縄県宜野座村惣慶1585,,,,26.4765402571428,127.97461881145,
163,E4731300034111,宜野座村総合体育館,沖縄県宜野座村惣慶1880,,,,26.48191,127.971749,
164,E4731300035111,福山公民館,沖縄県宜野座村惣慶2046-46,,,,26.4831894519456,127.966573129543,
165,E4720500002111,愛知区公民館,沖縄県宜野湾市愛知2-6-1,,,,26.26903,127.769903,
166,E4720500005111,伊佐区公民館,沖縄県宜野湾市伊佐4-1-11,,,,26.289927,127.753655,
167,E4720500006121,伊利原老人福祉センター,沖縄県宜野湾市伊佐4-3-17,,,要配慮者,26.288690952458,127.75219650375,
168,E4720500007111,宇地泊区公民館,沖縄県宜野湾市宇地泊242,,,,26.271027,127.730952,
169,E4720500009111,ベイサイド情報センター,沖縄県宜野湾市宇地泊558-18,,,,26.273971,127.728986,
170,E4720500013111,嘉数区公民館,沖縄県宜野湾市嘉数3-2-22,,,,26.257062,127.736382,
171,E4720500014111,真栄原区公民館,沖縄県宜野湾市嘉数3-5-13,,,,26.261718,127.743976,
172,E4720500015111,嘉数ハイツ公民館,沖縄県宜野湾市嘉数4-24-11,,,,26.261929,127.729518,
173,E4720500018111,我如古区公民館,沖縄県宜野湾市我如古1-36-12,,,,26.258586,127.753662,
174,E4720500019121,我如古児童センター,沖縄県宜野湾市我如古2-5-1,,,要配慮者,26.255093,127.757503,
175,E4720500020111,市民図書館,沖縄県宜野湾市我如古3-4-10,,,,26.253925,127.754651,
176,E4720500022111,嘉数中学校,沖縄県宜野湾市我如古423,,,,26.260498,127.745651,
177,E4720500024111,喜友名区公民館,沖縄県宜野湾市喜友名2-16-7,,,,26.285142,127.762188,
178,E4720500026111,宜野湾区公民館,沖縄県宜野湾市宜野湾1-22-24,,,,26.264887,127.760678,
179,E4720500027121,宜野湾保育所,沖縄県宜野湾市宜野湾3-13-10,,,要配慮者,26.261564,127.755796,
180,E4720500028111,志真志小学校,沖縄県宜野湾市宜野湾3-5-1,,,,26.259632,127.75567,
181,E4720500029111,人材育成交流センター,沖縄県宜野湾市志真志1-15-22,,,,26.258037,127.76386,
182,E4720500030111,男女共同参画支援センター,沖縄県宜野湾市志真志1-15-22-2,,,,26.257792,127.764182,
183,E4720500034111,新城区公民館,沖縄県宜野湾市新城2-29-1,,,,26.288298,127.77074,
184,E4720500036121,新城児童センター,沖縄県宜野湾市新城2-4-11,,,要配慮者,26.285909,127.771478,
185,E4720500035111,普天間中学校,沖縄県宜野湾市新城2-41-1,,,,26.286243,127.767062,
186,E4720500038111,普天間第二小学校,沖縄県宜野湾市新城2-8-19,,,,26.28501,127.770451,
187,E4720500039111,嘉数小学校,沖縄県宜野湾市真栄原1-13-1,,,,26.257684,127.744587,
188,E4720500040111,保健相談センター,沖縄県宜野湾市真栄原1-13-15,,,,26.258023,127.744338,
189,E4720500046111,市立博物館,沖縄県宜野湾市真志喜1-25-1,,,,26.269836,127.740628,
190,E4720500047111,真志喜区公民館,沖縄県宜野湾市真志喜1-4-10,,,,26.271897,127.739991,
191,E4720500051111,真志喜中学校,沖縄県宜野湾市真志喜3-19-1,,,,26.2749,127.732928,
192,E4720500054111,宜野湾市立体育館,沖縄県宜野湾市真志喜4-2-1,1,,,26.280225,127.735894,
193,E4720500055111,宜野湾小学校,沖縄県宜野湾市神山1-1-1,,,,26.269031,127.767124,
194,E4720500056111,宜野湾中学校,沖縄県宜野湾市赤道1-15-1,,,,26.27416,127.771929,
195,E4720500057111,中原区公民館,沖縄県宜野湾市赤道1-18-1,,,,26.27538,127.772535,
196,E4720500059121,赤道児童センター,沖縄県宜野湾市赤道1-5-16,,,要配慮者,26.272297,127.770843,
197,E4720500060121,赤道老人福祉センター,沖縄県宜野湾市赤道1-5-17,,,要配慮者,26.272666,127.770333,
198,E4720500061111,社会福祉センター,沖縄県宜野湾市赤道2-7-1,,,,26.270233,127.771873,
199,E4720500062121,うなばら保育所,沖縄県宜野湾市大山3-30-1,,,要配慮者,26.28723,127.75209,
200,E4720500063121,大山児童センター,沖縄県宜野湾市大山4-14-3,,,要配慮者,26.283513,127.749578,
201,E4720500064111,大山小学校,沖縄県宜野湾市大山5-16-1,,,,26.279161,127.745898,
202,E4720500065111,はごろも小学校,沖縄県宜野湾市大山6-23-1,,,,26.278151,127.73999,
203,E4720500067111,大山区公民館,沖縄県宜野湾市大山6-34-1,,,,26.280339,127.741577,
204,E4720500069111,マリン支援センター,沖縄県宜野湾市大山7-10-27,,,,26.283984,127.743288,
205,E4720500070111,上大謝名公民館,沖縄県宜野湾市大謝名2-26-7,,,,26.263977,127.740971,
206,E4720500071111,大謝名区公民館,沖縄県宜野湾市大謝名5-10-1,,,,26.26683,127.733802,
207,E4720500072111,大謝名小学校,沖縄県宜野湾市大謝名5-12-1,,,,26.266399,127.732944,
208,E4720500073111,大謝名団地公民館,沖縄県宜野湾市大謝名5-23-1,,,,26.266950087402,127.73102323677,
209,E4720500074121,大謝名児童センター,沖縄県宜野湾市大謝名5-25-13,,,要配慮者,26.264593,127.732305,
210,E4720500075111,長田小学校,沖縄県宜野湾市長田3-19-1,,,,26.259647,127.766991,
211,E4720500077111,長田区公民館,沖縄県宜野湾市長田3-28-1,,,,26.261104588958,127.76542185319,
212,E4720500077121,長田児童館,沖縄県宜野湾市長田3-28-1,,,要配慮者,26.261021175874,127.76545472577,
213,E4720500078111,普天間小学校,沖縄県宜野湾市普天間1-10-1,,,,26.290121,127.778671,
214,E4720500079111,普天間一区公民館,沖縄県宜野湾市普天間1-19-1,,,,26.291691,127.779941,
215,E4720500081111,普天間二区公民館,沖縄県宜野湾市普天間1-4-1,,,,26.28887,127.779495,
216,E4720500082111,普天間三区公民館,沖縄県宜野湾市普天間2-10-1,,,,26.288684,127.775201,
217,E4720500083111,宜野湾市民会館,沖縄県宜野湾市野嵩1-1-2,,,,26.280631,127.778724,
218,E4720500087111,野嵩一区公民館,沖縄県宜野湾市野嵩2-21-1,,,,26.286466,127.780147,
219,E4720500089111,野嵩二区公民館,沖縄県宜野湾市野嵩3-16-2,,,,26.288396,127.78205,
220,E4720500090111,野嵩三区公民館,沖縄県宜野湾市野嵩4-18-1,,,,26.291047349093,127.78296375596,
221,E4736100013121,大岳小学校体育館,沖縄県久米島町山里177,1,,,26.359185007372,126.74988185258,
222,E4736100013111,大岳小学校体育館,沖縄県久米島町山里177,1,,,26.359185007372,126.74988185258,
223,E4736100024121,久米島西中学校体育館,沖縄県久米島町西銘1324,1,,,26.351435115641,126.74782649947,
224,E4736100024111,久米島西中学校体育館,沖縄県久米島町西銘1324,1,,,26.332646912026,126.76585371858,
225,E4736100033111,具志川農村環境改善センター,沖縄県久米島町仲泊730,1,,,26.34981995494,126.74738125277,
226,E4736100033121,具志川農村環境改善センター,沖縄県久米島町仲泊730,1,,,26.34981995494,126.74738125277,
227,E4736100035111,清水小学校体育館,沖縄県久米島町鳥島198,,,,26.348303101048,126.74038137785,
228,E4736100037111,比屋定小学校体育館,沖縄県久米島町比屋定2220,1,,,26.380976477949,126.77576590324,
229,E4736100037121,比屋定小学校体育館,沖縄県久米島町比屋定2220,1,,,26.380976477949,126.77576590324,
230,E4736100040111,球美中学校体育館,沖縄県久米島町比嘉2856,,,,26.340315018162,126.80427793928,
231,E4736100041111,久米島町役場仲里庁舎,沖縄県久米島町比嘉2870,,,,26.340652121558,126.80492854541,
232,E4721400003111,伊良部公民館（大ホール）,沖縄県宮古島市伊良部字前里添1056-1,,,,24.832109,125.193254,
233,E4721400005111,旧佐良浜小学校（体育館）,沖縄県宮古島市伊良部字前里添717,1,,,24.839276,125.205243,
234,E4721400007111,伊良部島小中学校（体育館）,沖縄県宮古島市伊良部字池間添1720,,,,24.836184,125.206418,
235,E4721400009111,下地中学校（体育館）,沖縄県宮古島市下地字洲鎌250,1,,,24.744339,125.284368,
236,E4721400010111,下地小学校（体育館）,沖縄県宮古島市下地字洲鎌305,1,,,24.745567,125.284449,
237,E4721400016111,来間島離島振興総合センター（和室）,沖縄県宮古島市下地字来間94-1,,,,24.723821,125.253722,
238,E4721400021111,宮古島市役所（上野庁舎１Ｆ厚生室）,沖縄県宮古島市上野字上野395-1,,,,24.737991,125.317681,
239,E4721400022111,上野中学校（体育館）,沖縄県宮古島市上野字新里356-1,1,,,24.741124,125.33333,
240,E4721400029111,上野小学校（体育館）,沖縄県宮古島市上野字野原734-2,1,,,24.742907,125.331822,
241,E4721400034111,砂川中学校（体育館）,沖縄県宮古島市城辺字砂川599,1,,,24.74204,125.349964,
242,E4721400035111,砂川小学校（体育館）,沖縄県宮古島市城辺字砂川605,1,,,24.743769,125.348833,
243,E4721400038111,福嶺小学校（体育館）,沖縄県宮古島市城辺字新城448,1,,,24.74243,125.411559,
244,E4721400042111,西城小学校（体育館）,沖縄県宮古島市城辺字西里添1048,1,,,24.759734,125.364143,
245,E4721400043111,城東中学校（体育館）,沖縄県宮古島市城辺字西里添1080,1,,,24.762073,125.363031,
246,E4721400121121,小規模多機能型居宅介護事業所きゃーぎ,沖縄県宮古島市城辺字長間1419-1,,,,24.763574,125.365002,
247,E4721400057111,宮古島市役所（城辺庁舎１Ｆ支所前）,沖縄県宮古島市城辺字福里600-1,,,,24.758014,125.387698,
248,E4721400061111,城辺小学校（体育館）,沖縄県宮古島市城辺字福里878,1,,,24.752553157305,125.39438234854,
249,E4721400067111,南小学校（体育館）,沖縄県宮古島市平良字下里1068,1,,,24.794524,125.283397,
250,E4721400068111,平良第一小学校（体育館）,沖縄県宮古島市平良字下里1141,1,,,24.797544,125.28498,
251,E4721400072111,県立宮古総合実業高等学校（体育館）,沖縄県宮古島市平良字下里288,1,,,24.800071,125.274219,
252,E4721400073111,鏡原小学校（体育館）,沖縄県宮古島市平良字下里3107-2,1,,,24.782626,125.310091,
253,E4721400076111,鏡原中学校（体育館）,沖縄県宮古島市平良字下里3107-3,1,,,24.782052,125.310976,
254,E4721400115121,社会福祉法人ムサアザ福祉会ケアハウスいけむら,沖縄県宮古島市平良字荷川取290,,,,24.819258,125.289623,
255,E4721400113111,久松中学校（体育館）,沖縄県宮古島市平良字久貝809-1,1,,,24.792657,125.270568,
256,E4721400084111,久松小学校（体育館）,沖縄県宮古島市平良字久貝933,1,,,24.792011,125.270872,
257,E4721400085111,狩俣小学校（体育館）,沖縄県宮古島市平良字狩俣1242,1,,,24.89495,125.275748,
258,E4721400087111,狩俣中学校（体育館）,沖縄県宮古島市平良字狩俣4337,1,,,24.887325,125.281397,
259,E4721400089111,西辺小学校（体育館）,沖縄県宮古島市平良字西原1081,1,,,24.830308,125.297881,
260,E4721400090111,西辺中学校（体育館）,沖縄県宮古島市平良字西原1138,1,,,24.829232,125.299936,
261,E4721400116121,社会福祉法人ムサアザ福祉会ふれあいの里,沖縄県宮古島市平良字西仲宗根1327-1,,,,24.813659,125.304589,
262,E4721400092111,北中学校（体育館）,沖縄県宮古島市平良字西仲宗根500,1,,,24.808315,125.289025,
263,E4721400117121,沖縄県社会福祉事業団宮古厚生園,沖縄県宮古島市平良字西仲宗根745-7,,,,24.815792,125.293909,
264,E4721400094111,宮古島市役所（総合庁舎１Ｆロビー）,沖縄県宮古島市平良字西里1140,,,,24.789966,125.294775,
265,E4721400118121,小規模多機能型居宅介護事業所ともの家,沖縄県宮古島市平良字西里162,,,,24.805669,125.279573,
266,E4721400097111,北小学校（体育館）,沖縄県宮古島市平良字西里217,1,,,24.805715,125.281842,
267,E4721400098111,県立宮古高等学校（体育館）,沖縄県宮古島市平良字西里718-1,1,,,24.797534,125.286257,
268,E4721400099111,平良中学校（体育館）,沖縄県宮古島市平良字西里724,1,,,24.798776,125.287405,
269,E4721400101111,大神島離島振興コミュニティセンター（集会室）,沖縄県宮古島市平良字大神145,1,,,24.914182,125.308096,
270,E4721400102111,池間地区防災センター（１Ｆ避難室）,沖縄県宮古島市平良字池間110-2,1,,,24.925169,125.245777,
271,E4721400107111,東小学校（体育館）,沖縄県宮古島市平良字東仲宗根698,1,,,24.805651,125.298616,
272,E4721400108111,県立宮古工業高等学校（体育館）,沖縄県宮古島市平良字東仲宗根968-4,1,,,24.798819,125.299796,
273,E4731400004111,伊芸地区公民館・体育館,沖縄県金武町字伊芸778-1,1,,,26.458959,127.878746,
274,E4731400006111,伊芸地区集会所,沖縄県金武町字伊芸957,,,,26.458221,127.879273,
275,E4731400015111,中川小学校体育館,沖縄県金武町字金武10154,1,,,26.471693,127.937911,
276,E4731400018111,中川地区公民館,沖縄県金武町字金武10543-1,1,,,26.469955,127.938764,
277,E4731400021111,町立武道館,沖縄県金武町字金武1832,,,,26.449097,127.926276,
278,E4731400022111,金武町総合保健福祉センター,沖縄県金武町字金武1842,1,,,26.44881,127.927657,
279,E4731400031111,金武小学校体育館,沖縄県金武町字金武549,1,,,26.452878,127.926823,
280,E4731400035111,並里地区公民館・体育館,沖縄県金武町字金武714-2,1,,,26.454514,127.92816,
281,E4731400036111,中央公民館,沖縄県金武町字金武7758,1,,,26.454702,127.913284,
282,E4731400036112,町立体育館,沖縄県金武町字金武7758,1,,,26.454922,127.912635,
283,E4731400041111,喜瀬武原地区農民集会所,沖縄県金武町字金武8909,1,,,26.482383,127.912802,
284,E4731400043111,金武ダムホール,沖縄県金武町字金武9959,1,,,26.467715,127.933834,
285,E4730100001111,安田小学校,沖縄県国頭村字安田279,1,,,26.7465060293104,128.318943519396,
286,E4730100044111,安田公民館,沖縄県国頭村字安田858,1,,,26.745754,128.315271,
287,E4730100003111,安波公民館,沖縄県国頭村字安波110,1,,,26.7162205371457,128.286443540827,
288,E4730100005111,安波小学校,沖縄県国頭村字安波601,1,,,26.7182207580646,128.28313662703,
289,E4730100006111,伊地地区体育館,沖縄県国頭村字伊地152-3,1,,,26.7569921951281,128.190238303275,
290,E4730100007111,宇嘉公民館,沖縄県国頭村字宇嘉2,1,,,26.8083243735785,128.234237740921,
291,E4730100008111,宇良集会所,沖縄県国頭村字宇良47-2,1,,,26.7543196402457,128.18819450202,
292,E4730100009111,奥集落センター,沖縄県国頭村字奥133,1,,,26.8378906520812,128.28785772845,
293,E4730100010111,奥小学校,沖縄県国頭村字奥313,1,,,26.8411568478838,128.28929623282,
294,E4730100011111,奥間小学校（体育館）,沖縄県国頭村字奥間1,1,,,26.7328381833134,128.172024432348,
295,E4730100012111,観光物産センター（道の駅）,沖縄県国頭村字奥間1605,1,,,26.7320142093896,128.169240945091,
296,E4730100013111,奥間公民館,沖縄県国頭村字奥間64,1,,,26.7352002334691,128.173552239848,
297,E4730100014111,宜名真公民館,沖縄県国頭村字宜名真214,1,,,26.8472266997074,128.254035514557,
298,E4730100015111,北国小学校,沖縄県国頭村字宜名真535,1,,,26.8605823909204,128.248661711527,
299,E4730100017111,鏡地公民館,沖縄県国頭村字鏡地172-2,1,,,26.7306585315819,128.163013015372,
300,E4730100018111,佐手公民館,沖縄県国頭村字佐手135,1,,,26.785334516644,128.219473204655,
301,E4730100019111,佐手小学校,沖縄県国頭村字佐手293,1,,,26.7869750913348,128.2219921438,
302,E4730100020111,謝敷公民館,沖縄県国頭村字謝敷213,1,,,26.7804585535619,128.213876351843,
303,E4730100021111,楚洲公民館,沖縄県国頭村字楚洲325,1,,,26.7926825343164,128.315242167889,
304,E4730100022121,楚洲あさひの丘,沖縄県国頭村字楚洲517,1,,要配慮者,26.7907530497711,128.314977865907,
305,E4730100023111,桃原公民館,沖縄県国頭村字桃原49,1,,,26.740463982869,128.164938491814,
306,E4730100024111,半地公民館,沖縄県国頭村字半地248,1,,,26.7266092735421,128.165572893692,
307,E4730100025111,比地コミュニティ施設,沖縄県国頭村字比地151-2,1,,,26.7261737657634,128.175923325425,
308,E4730100027111,浜公民館,沖縄県国頭村字浜102,1,,,26.7187072363488,128.158854091803,
309,E4730100028111,くにがみ屋内運動場,沖縄県国頭村字浜500,1,,,26.7241106190695,128.161275328839,
310,E4730100030111,辺戸公民館,沖縄県国頭村字辺戸51-3,1,,,26.8568904758978,128.260758524532,
311,E4730100031111,国頭村森林公園,沖縄県国頭村字辺土名1094,1,,,26.7326331601595,128.189330395816,
312,E4730100032111,村民ふれあいセンター,沖縄県国頭村字辺土名112,1,,,26.7460716661901,128.178233010837,
313,E4730100033111,上島公民館,沖縄県国頭村字辺土名1165,1,,,26.7404428463584,128.177813713258,
314,E4730100034111,保健センター,沖縄県国頭村字辺土名1437,1,,,26.7452697288253,128.175920822583,
315,E4730100035111,国頭中学校,沖縄県国頭村字辺土名1463,1,,,26.7465560188297,128.175120471402,
316,E4730100036121,特別養護老人ホーム北斗園,沖縄県国頭村字辺土名1692,1,,要配慮者,26.7406179970561,128.1746329956,
317,E4730100037121,老人福祉センター,沖縄県国頭村字辺土名1709,1,,要配慮者,26.7396502699931,128.174107282631,
318,E4730100038111,辺土名小学校,沖縄県国頭村字辺土名181,1,,,26.7472462942551,128.177059961059,
319,E4730100039111,総合体育館,沖縄県国頭村字辺土名2142,1,,,26.7467730456922,128.173515484093,
320,E4730100040111,辺土名公民館,沖縄県国頭村字辺土名791,1,,,26.7450272731245,128.177949781083,
321,E4730100041111,辺野喜公民館,沖縄県国頭村字辺野喜47,1,,,26.7965500609643,128.235600139401,
322,E4730100042111,旧佐手小学校辺野喜分校,沖縄県国頭村字辺野喜58,1,,,26.7973235146012,128.23562786557,
323,E4730100043111,与那公民館,沖縄県国頭村字与那70,1,,,26.7640687611697,128.204994562357,
324,E4730600034111,運天構造改善センター,沖縄県今帰仁村字運天882-1,1,,,26.687362,127.997001,
325,E4730600005121,認定こども園みらい,沖縄県今帰仁村字越地180,1,,,26.688866,127.966793,
326,E4730600006111,今帰仁小学校（体育館）,沖縄県今帰仁村字越地207,1,,,26.688373,127.967562,
327,E4730600006112,旧今帰仁幼稚園,沖縄県今帰仁村字越地207,1,,,26.686979,127.966973,
328,E4730600010121,今帰仁村保健センター,沖縄県今帰仁村字玉城163-2,1,,,26.680924,127.972662,
329,E4730600013111,地域活動拠点活性化施設（玉城区）,沖縄県今帰仁村字玉城612,1,,,26.678081,127.972324,
330,E4730600026111,兼次構造改善センター,沖縄県今帰仁村字兼次65,1,,,26.696224,127.938066,
331,E4730600015111,コルディオテラス古宇利,沖縄県今帰仁村字古宇利126,1,,,26.698993,128.016459,
332,E4730600001111,古宇利オーシャンタワー,沖縄県今帰仁村字古宇利538,1,,,26.70043083,128.0245516,
333,E4730600037112,呉我山女性若者等活動促進施設,沖縄県今帰仁村字呉我山155-2,1,,,26.655379,127.964836,
334,E4730600002111,兼次小学校（体育館）,沖縄県今帰仁村字今泊3933,1,,,26.698211,127.936026,
335,E4730600004121,村歴史文化センター,沖縄県今帰仁村字今泊5110,1,,,26.691763,127.927324,
336,E4730600023111,崎山公民館,沖縄県今帰仁村字崎山1,1,,,26.699804,127.957257,
337,E4730600031111,謝名女性若者等活動促進施設,沖縄県今帰仁村字謝名100,1,,,26.683001,127.966832,
338,E4730600025111,諸志公民館,沖縄県今帰仁村字諸志130,1,,,26.695884,127.942702,
339,E4730600012111,地域活動拠点活性化施設（上運天）,沖縄県今帰仁村字上運天438,1,,,26.68215,127.997444,
340,E4730600018121,今帰仁村役場,沖縄県今帰仁村字仲宗根219,1,,,26.682782,127.972908,
341,E4730600032111,仲宗根公民館,沖縄県今帰仁村字仲宗根224,1,,,26.683988,127.973906,
342,E4730600008121,今帰仁村コミュニティセンター,沖縄県今帰仁村字仲宗根230-2,1,,,26.681981,127.972405,
343,E4730600007111,今帰仁中学校（体育館）,沖縄県今帰仁村字仲宗根47,1,,,26.686931,127.973717,
344,E4730600003121,村総合運動公園（体育館等）,沖縄県今帰仁村字仲宗根851-1,1,,,26.695056,127.977959,
345,E4730600027111,仲尾次構造改善センター,沖縄県今帰仁村字仲尾次1,1,,,26.698702,127.952517,
346,E4730600028111,沖縄県立北山高等学校,沖縄県今帰仁村字仲尾次540-1,1,,,26.692289,127.953562,
347,E4730600014111,天底小学校（体育館）,沖縄県今帰仁村字天底420,1,,,26.673885,127.983571,
348,E4730600011121,今帰仁保育所,沖縄県今帰仁村字天底91,1,,,26.681291,127.979865,
349,E4730600033111,渡喜仁地域総合施設,沖縄県今帰仁村字渡喜仁1,1,,,26.689461,127.984174,
350,E4730600038111,湧川集落センター,沖縄県今帰仁村字湧川378,1,,,26.655005,127.986436,
351,E4721000001111,潮平中学校体育館,沖縄県糸満市阿波根1200,1,,,26.1487754475559,127.674553338343,
352,E4721000004111,兼城小学校体育館,沖縄県糸満市賀数1,1,,,26.1456714625792,127.691102961404,
353,E4721000005111,県立糸満青少年の家体育館,沖縄県糸満市賀数347,,,,26.1519326507931,127.693683304136,
354,E4721000006111,喜屋武小学校体育館,沖縄県糸満市喜屋武555,1,,,26.0946075401584,127.664624757659,
355,E4721000009111,兼城中学校体育館,沖縄県糸満市座波1271,1,,,26.1450309976493,127.691870073186,
356,E4721000011111,糸満中学校体育館,沖縄県糸満市糸満1880,1,,,26.1313884460016,127.67737288074,
357,E4721000012111,糸満小学校体育館,沖縄県糸満市糸満673,1,,,26.1310959209647,127.674082946899,
358,E4721000017111,農村環境改善センター,沖縄県糸満市照屋1221,,,,26.1324608831284,127.68620633137,
359,E4721000021111,三和中学校体育館,沖縄県糸満市真壁519,1,,,26.1033257885283,127.689584817305,
360,E4721000022111,真壁小学校体育館,沖縄県糸満市真壁630,1,,,26.103652651894,127.688815315555,
361,E4721000032111,高嶺小学校体育館,沖縄県糸満市大里1901,1,,,26.1284700743605,127.688535967664,
362,E4721000033111,高嶺中学校体育館,沖縄県糸満市大里1902,1,,,26.1271552383436,127.689056316217,
363,E4721000040111,米須小学校体育館,沖縄県糸満市米須632,1,,,26.0968415320646,127.697999966884,
364,E4732900001111,西原南小学校,沖縄県西原町字安室123-2,,,,26.2201171180654,127.754391508475,
365,E4732900002111,西原中学校,沖縄県西原町字翁長238,,,,26.2288347632213,127.754722406144,
366,E4732900003111,坂田小学校,沖縄県西原町字翁長627,,,,26.2370342523538,127.7511979835,
367,E4732900004111,西原運動公園,沖縄県西原町字翁長956,1,,,26.2349298837425,127.755703593528,
368,E4732900005111,西原東小学校,沖縄県西原町字嘉手苅90,,,,26.2283277593865,127.766278613038,
369,E4732900006111,西原東中学校,沖縄県西原町字小那覇308-1,,,,26.2216727555718,127.769014508494,
370,E4732900007111,西原町中央公民館,沖縄県西原町字与那城124,,,,26.2214265138508,127.757613255147,
371,E4732900008111,西原町町民交流センター,沖縄県西原町字与那城140-1,,,,26.2230125692054,127.758875076343,
372,E4732900009111,西原小学校,沖縄県西原町字与那城353,,,,26.218131201458,127.761901502538,
373,E4720700003111,明石小学校,沖縄県石垣市伊原間249,,,,24.5371873756029,124.301079193654,
374,E4720700004111,伊原間中学校,沖縄県石垣市伊原間28,1,,,24.5087145926021,124.28160275778,
375,E4720700005111,宮良小学校,沖縄県石垣市宮良331-1,1,,,24.3557558846106,124.223276671811,
376,E4720700007111,崎枝小中学校,沖縄県石垣市崎枝530-18,1,,,24.4408085147819,124.104655894821,
377,E4720700085121,特別養護老人ホーム　なごみの里,沖縄県石垣市字宮良1131-1,,,協定に基づく要配慮者,24.363546,124.215582,
378,E4720700084121,八重山厚生園,沖縄県石垣市字新川1740-2,,,協定に基づく要配慮者,24.359793,124.123428,
379,E4720700083121,介護老人保健施設　聖紫花の杜,沖縄県石垣市字新川2127-2,,,協定に基づく要配慮者,24.360629,124.141576,
380,E4720700088121,デイサービス　年輪,沖縄県石垣市字石垣213,,,協定に基づく要配慮者,24.345831,124.157494,
381,E4720700012121,福祉避難所兼ふれあい交流施設　結い心センター,沖縄県石垣市字大川100-3,1,,要配慮者,24.345357,124.162537,
382,E4720700086121,障害者支援施設　おもと学園,沖縄県石垣市字大川581,,,協定に基づく要配慮者,24.349012,124.162319,
383,E4720700013121,石垣市健康福祉センター,沖縄県石垣市字登野城1357-1,1,,要配慮者,24.3478492737173,124.171092444003,
384,E4720700087121,ケアハウス　ばすきなよお,沖縄県石垣市字白保287-60,,,協定に基づく要配慮者,24.348436,124.234403,
385,E4720700089121,グループホーム　ふだずめー,沖縄県石垣市字平得743-1,,,協定に基づく要配慮者,24.348372,124.18018,
386,E4720700019111,石垣中学校,沖縄県石垣市新川307,1,,,24.3477663572097,124.15419176277,
387,E4720700023111,大本小学校,沖縄県石垣市真栄里1111,,,,24.4112494034458,124.197925715012,
388,E4720700024111,八重山商工高校,沖縄県石垣市真栄里180,,,,24.3337695371124,124.173455507202,
389,E4720700031111,石垣小学校,沖縄県石垣市石垣204,1,,,24.3453322891656,124.158697790631,
390,E4720700033111,吉原小学校,沖縄県石垣市川平1218-137,1,,,24.4477051074999,124.158046423045,
391,E4720700036111,川平小中学校,沖縄県石垣市川平969,1,,,24.4590350232638,124.13930548554,
392,E4720700037111,八重山農林高校,沖縄県石垣市大川477-1,1,,,24.3451082411551,124.164444709615,
393,E4720700038111,大浜中学校（校舎２階以上）,沖縄県石垣市大浜103,1,,,24.346461843917,124.195170170975,
394,E4720700039111,川原小学校,沖縄県石垣市大浜2064,,,,24.3889982117269,124.208462248997,
395,E4720700042111,石垣第二中学校,沖縄県石垣市登野城1078,1,,,24.3446888156359,124.167574798394,
396,E4720700046111,八重山高校,沖縄県石垣市登野城275,1,,,24.3417996722446,124.164846042919,
397,E4720700047111,登野城小学校,沖縄県石垣市登野城290,1,,,24.3423347932713,124.163674846904,
398,E4720700052111,伊野田小学校,沖縄県石垣市桃里168-56,,,,24.453516659428,124.248119291718,
399,E4720700056111,白保中学校,沖縄県石垣市白保268-35,,,,24.3528281477697,124.235020457348,
400,E4720700071111,平久保小学校,沖縄県石垣市平久保77,,,,24.5864936118264,124.310422127597,
401,E4720700072111,平真小学校,沖縄県石垣市平得174,,,,24.33942328466,124.172098106868,
402,E4720700073111,石垣市総合体育館,沖縄県石垣市平得439,,,,24.3442059072372,124.175770482658,
403,E4720700074111,名蔵小中学校,沖縄県石垣市名蔵243,,,,24.3932566548253,124.161883506353,
404,E4720700076111,野底小学校,沖縄県石垣市野底138,,,,24.4975774073933,124.23634683793,
405,E4720700080111,富野小中学校,沖縄県石垣市桴海299-45,,,,24.4538232989333,124.201510627377,
406,E4737500001111,多良間中学校,沖縄県多良間村塩川576,,,,24.6648815427785,124.701505509067,
407,E4737500002111,多良間村地域振興拠点施設,沖縄県多良間村字塩川445-1,1,,,24.671054,124.706219,
408,E4737500004111,多良間小学校,沖縄県多良間村仲筋108,,,,24.6691884055998,124.700912819274,
409,E4737500008111,多良間村コミュニティー施設,沖縄県多良間村仲筋89,1,,,24.6696616082924,124.701765537808,
410,E4730200030111,大宜味小学校、大宜味中学校,沖縄県大宜味村字塩屋1306-6,1,,,26.682569,128.102501,
411,E4730200029121,おおぎみこども園,沖縄県大宜味村字塩屋1306-87,,,高齢者、障害者、乳幼児その他の特に配慮を要する者,26.678572,128.100389,
412,E4730200001111,塩屋公民館,沖縄県大宜味村字塩屋371-2,,,,26.6725621321068,128.107569993193,
413,E4730200004111,押川公民館,沖縄県大宜味村字押川156,1,,,26.672637,128.1323,
414,E4730200005111,屋古公民館,沖縄県大宜味村字屋古17,,,,26.672982,128.114767,
415,E4730200008111,農村環境改善センター,沖縄県大宜味村字喜如嘉320,,,,26.7078734093934,128.143605713187,
416,E4730200009111,喜如嘉公民館,沖縄県大宜味村字喜如嘉777-1,,,,26.7055815481919,128.144964521226,
417,E4730200010111,宮城公民館,沖縄県大宜味村字宮城10,,,,26.6651696328712,128.103337545321,
418,E4730200012111,根路銘公民館,沖縄県大宜味村字根路銘61,,,,26.695184,128.113587,
419,E4730200013111,謝名城公民館,沖縄県大宜味村字謝名城36,,,,26.711037,128.15648,
420,E4730200014111,上原公民館,沖縄県大宜味村字上原193,1,,,26.68717,128.113522,
421,E4730200016111,大宜味公民館,沖縄県大宜味村字大宜味189,,,,26.701721,128.117149,
422,E4730200028111,大宜味村役場,沖縄県大宜味村字大兼久157,1,,,26.701778,128.120102,避難所等に避難する際は、自分の食料や避難生活で必要な物資を持参するようお願いします。
423,E4730200017111,大兼久公民館,沖縄県大宜味村字大兼久30,,,,26.702104,128.121805,
424,E4730200018111,大保公民館,沖縄県大宜味村字大保1-17,,,,26.6584050921715,128.125294826975,
425,E4730200020111,津波公民館,沖縄県大宜味村字津波620,,,,26.657795,128.094275,
426,E4730200021111,田嘉里公民館,沖縄県大宜味村字田嘉里472,,,,26.7116153078936,128.163015606051,
427,E4730300001111,大保ダム地域防災センター（東村指定）,沖縄県大宜味村字田港1357-18,1,,,26.650037,128.146371,
428,E4730200022111,大保ダム地域防災センター,沖縄県大宜味村字田港1357-18,1,,,26.6499985940663,128.146335828325,
429,E4730200023111,田港公民館,沖縄県大宜味村字田港80,,,,26.668496,128.121421,
430,E4730200024111,白浜公民館,沖縄県大宜味村字白浜147,,,,26.6623949677055,128.108160275493,
431,E4730200025111,江洲公民館,沖縄県大宜味村字白浜442,1,,,26.6372778892916,128.120946532633,
432,E4730200026111,県立辺土名高等学校,沖縄県大宜味村字饒波2015,,,,26.7031772286702,128.131040515852,
433,E4730200027111,饒波公民館,沖縄県大宜味村字饒波22,,,,26.698107,128.130712,
434,E4732800001111,吉の浦会館,沖縄県中城村安里187,,,,26.2588173624469,127.791791071789,
435,E4732800002111,中城村民体育館,沖縄県中城村安里190,,,,26.258639361411,127.792193403139,
436,E4732800003111,安里公民館,沖縄県中城村安里343,,,,26.2605858924442,127.786408993514,
437,E4732800004111,伊舎堂構造改善センター,沖縄県中城村伊舎堂113,,,,26.2763923419342,127.800880725009,
438,E4732800005111,伊集構造改善センター,沖縄県中城村伊集45,,,,26.2391268915705,127.773677095695,
439,E4732800006111,奥間公民館,沖縄県中城村奥間24-2,,,,26.2552266741448,127.78303757484,
440,E4732800007111,村立中城小学校,沖縄県中城村屋宜239,,,,26.2704979090311,127.795695771082,
441,E4732800008111,屋宜公民館,沖縄県中城村屋宜282,,,,26.2712157123678,127.795255417172,
442,E4732800009111,村立中城中学校,沖縄県中城村屋宜741-1,,,,26.2685319501962,127.791487739005,
443,E4732800010111,久場地区健康スポーツセンター,沖縄県中城村久場241,,,,26.2812240949572,127.814056921231,
444,E4732800011111,新垣区民館,沖縄県中城村新垣129-1,,,,26.2696508704531,127.784407769232,
445,E4732800012111,村立津覇小学校,沖縄県中城村津覇1174,,,,26.2486575724851,127.781109072325,
446,E4732800013111,津覇構造改善センター,沖縄県中城村津覇516-1,,,,26.2470092414511,127.784305440332,
447,E4732800014111,添石公民館,沖縄県中城村添石231,,,,26.2735508139927,127.799037983046,
448,E4732800015111,老人福祉センター,沖縄県中城村添石236,,,,26.2745061660515,127.798373149624,
449,E4732800016111,登又公民館,沖縄県中城村登又390,,,,26.2824248075018,127.788929605933,
450,E4732800017111,当間区民館,沖縄県中城村当間59-2,,,,26.2665982768251,127.79055556293,
451,E4732800018111,南上原公民館,沖縄県中城村南上原754-5,,,,26.2511312699145,127.773237767581,
452,E4732800019111,村立中城南小学校,沖縄県中城村南上原800,,,,26.2481984904672,127.773620717661,
453,E4732800020111,南浜集落センター,沖縄県中城村南浜10,,,,26.2349760005425,127.783290481746,
454,E4732800021111,泊区民館,沖縄県中城村泊371,,,,26.2768116765345,127.806354507154,
455,E4732800022111,北上原区公民館,沖縄県中城村北上原297-1,,,,26.2682375391406,127.776879611063,
456,E4732800023111,村立北上原分校跡地,沖縄県中城村北上原439,,,,26.266291757761,127.776507105406,
457,E4732800024111,和宇慶構造改善センター,沖縄県中城村和宇慶781,,,,26.2412074872372,127.779617649378,
458,E4735600001111,渡名喜村多目的拠点施設,沖縄県渡名喜村1935,,,,26.372734,127.141244,
459,E4735600002111,渡名喜小中学校,沖縄県渡名喜村693,,,,26.3732915253852,127.142545337336,
460,E4735600003111,渡名喜村防災支援センター,沖縄県渡名喜村字サウジ445,1,,,26.3750961634087,127.1449979918,
461,E4730300002111,宮城区公民館,沖縄県東村字宮城179-1,,,,26.624814,128.183085,
462,E4730300005111,東村東部地域交流館,沖縄県東村字宮城533-1,,,,26.633284,128.156832,
463,E4730300007111,慶佐次区公民館,沖縄県東村字慶佐次19,,,,26.604013,128.145566,
464,E4730300010111,高江小学校,沖縄県東村字高江83-8,,,,26.662517,128.252598,
465,E4730300011111,高江区公民館,沖縄県東村字高江98-1,1,,,26.662865,128.250419,
466,E4730300013111,福地ダム地域防災センター,沖縄県東村字川田1105-108,,,,26.647374,128.175758,
467,E4730300014111,東村立山と水の生活博物館,沖縄県東村字川田61-1,,,,26.641212,128.166986,
468,E4730300016111,川田区公民館,沖縄県東村字川田788,,,,26.630526,128.166726,
469,E4730300017111,東小中学校,沖縄県東村字川田837,,,,26.629834,128.166096,
470,E4730300019111,東村営体育館,沖縄県東村字平良465,,,,26.632104,128.150673,
471,E4730300020111,平良区公民館,沖縄県東村字平良534,,,,26.630918,128.151462,
472,E4730300022111,東村村民の森つつじエコパーク,沖縄県東村字平良766-1,,,,26.638323,128.159152,
473,E4730300023121,東村保健福祉センター,沖縄県東村字平良804,,,要配慮者,26.632908,128.156081,
474,E4730300025111,有銘小学校,沖縄県東村字有銘1,,,,26.603923,128.121167,
475,E4730300028111,有銘区公民館,沖縄県東村字有銘518,,,,26.603556,128.119186,
476,E4732400001111,伊良皆公民館,沖縄県読谷村字伊良皆177-3,,,,26.3846905343964,127.753848887721,
477,E4732400002111,古堅中学校,沖縄県読谷村字伊良皆297,,,,26.3805736849587,127.752330429428,
478,E4732400003111,喜名公民館,沖縄県読谷村字喜名2207,,,,26.3989965930985,127.756681894194,
479,E4732400004111,読谷村地域振興センター,沖縄県読谷村字喜名2346-11,,,,26.3930982700066,127.746152817465,
480,E4732400005111,喜名小学校,沖縄県読谷村字喜名401,,,,26.4006569461297,127.757674692079,
481,E4732400007121,社会福祉法人祥永会　小規模多機能型居宅介護事業所　よみたんふれあいの里,沖縄県読谷村字喜名西原2272-4,,,要配慮者,26.3953805217953,127.750237791676,
482,E4732400008111,古堅南小学校,沖縄県読谷村字古堅612-1,,,,26.3711149273539,127.747926105338,
483,E4732400009111,古堅公民館,沖縄県読谷村字古堅75-3,,,,26.3693927654339,127.750469412803,
484,E4732400010121,みらい児童館,沖縄県読谷村字古堅867-2,,,要配慮者,26.3707318535596,127.748948937397,
485,E4732400011111,読谷小学校,沖縄県読谷村字高志保1277-1,,,,26.4070995380823,127.732597164262,
486,E4732400012111,読谷保育所,沖縄県読谷村字高志保1406,,,,26.4076237607907,127.733668280633,
487,E4732400014111,高志保公民館,沖縄県読谷村字高志保260,,,,26.4093778638573,127.73336341765,
488,E4732400015111,座喜味公民館,沖縄県読谷村字座喜味154,,,,26.4045847459766,127.74415987928,
489,E4732400016121,社会福祉法人祥永会　読谷の里,沖縄県読谷村字座喜味1875-1,,,要配慮者,26.3953225369727,127.726515667112,
490,E4732400018121,読谷村老人福祉センター,沖縄県読谷村字座喜味1976,,,要配慮者,26.3953485033659,127.730142208476,
491,E4732400019121,読谷村健康増進センター,沖縄県読谷村字座喜味2901-1,,,要配慮者,26.3960828508972,127.745933153911,
492,E4732400020111,読谷村体育センター,沖縄県読谷村字座喜味2975,,,,26.3992806316482,127.743064102798,
493,E4732400022111,読谷中学校,沖縄県読谷村字座喜味2976-2,,,,26.3961725928423,127.741507203464,
494,E4732400023111,世界遺産座喜味城跡ユンタンザミュージアム,沖縄県読谷村字座喜味708-4,,,,26.4070372018888,127.742668566152,
495,E4732400024111,瀬名波公民館,沖縄県読谷村字瀬名波138,,,,26.4206723166853,127.731295223578,
496,E4732400025111,渡慶次小学校,沖縄県読谷村字瀬名波510,,,,26.4185561894838,127.728944008205,
497,E4732400026111,読谷村南保育所,沖縄県読谷村字楚辺1030-1,,,,26.3819983325606,127.742463069937,
498,E4732400029111,古堅小学校,沖縄県読谷村字楚辺999-1,,,,26.3813423099554,127.741730346814,
499,E4732400030111,大木公民館,沖縄県読谷村字大木294,,,,26.3807726500583,127.746267649737,
500,E4732400031111,儀間公民館,沖縄県読谷村字長浜1409,,,,26.416108679123,127.729134124086,
501,E4732400032111,宇座公民館,沖縄県読谷村字長浜1840-2,,,,26.4125830667978,127.732818512579,
502,E4732400034111,渡慶次公民館,沖縄県読谷村字渡慶次180,,,,26.4207357319261,127.726438451514,
503,E4732400035121,社会福祉法人沖縄県福祉事業団　よみたん救護園,沖縄県読谷村字都屋167,,,要配慮者,26.3934951847737,127.725123033028,
504,E4732400036111,読谷村生き活き健康センター,沖縄県読谷村字都屋167-2,,,,26.3940602473817,127.725802404237,
505,E4732400037111,読谷村立図書館,沖縄県読谷村字波平37,,,,26.4066669868607,127.733379757529,
506,E4732400039111,波平公民館,沖縄県読谷村字波平61,,,,26.4058598682053,127.733937560664,
507,E4732400040111,比謝公民館,沖縄県読谷村字比謝26,,,,26.3747423347277,127.754203784637,
508,E4732400041111,牧原公民館,沖縄県読谷村字比謝315-4,,,,26.3804055011228,127.751275898454,
509,E4720100002112,安謝小学校,沖縄県那覇市安謝2-15-28,1,,,26.23722,127.690314,
510,E4720100003112,さつき小学校,沖縄県那覇市宇栄原1-12-1,1,,,26.19171,127.664512,
511,E4720100101111,小禄中学校,沖縄県那覇市宇栄原2-23-1,1,,,26.189014,127.667465,
512,E4720100005112,真和志小学校,沖縄県那覇市寄宮3-1-1,1,,,26.20719,127.699769,
513,E4720100006112,上山中学校,沖縄県那覇市久米1-3-1,1,,,26.216296,127.673512,
514,E4720100007112,天妃小学校,沖縄県那覇市久米1-3-2,1,,,26.215122,127.674019,
515,E4720100097111,鏡原中学校,沖縄県那覇市鏡原町36-1,1,,,26.196179,127.678318,
516,E4720100009111,那覇西高校（体育館）,沖縄県那覇市金城3-5-1,,,,26.2005566932408,127.665730377547,
517,E4720100010112,金城小学校,沖縄県那覇市金城4-3-1,1,,,26.197508,127.663427,
518,E4720100011112,金城中学校,沖縄県那覇市金城4-4-1,1,,,26.198425,127.664429,
519,E4720100012111,興南学園（体育館）,沖縄県那覇市古島1-7-1,,,,26.2279347423586,127.703692125898,
520,E4720100013112,松島中学校,沖縄県那覇市古島2-11-2,1,,,26.225605,127.708694,
521,E4720100014113,松島小学校,沖縄県那覇市古島2-30-12,1,,,26.227751,127.708519,
522,E4720100014114,松島こども園,沖縄県那覇市古島2-30-12,1,,,26.227751,127.708519,
523,E4720100015112,古蔵小学校,沖縄県那覇市古波蔵1-33-1,1,,,26.199665,127.69252,
524,E4720100016111,古蔵こども園,沖縄県那覇市古波蔵1-33-2,,,,26.2002770898183,127.692067910635,
525,E4720100100111,古蔵中学校,沖縄県那覇市古波蔵4-8-1,1,,,26.196861,127.689249,
526,E4720100017113,高良小学校,沖縄県那覇市高良2-12-1,1,,,26.184,127.664253,
527,E4720100017114,高良こども園,沖縄県那覇市高良2-12-1,1,,,26.184,127.664253,
528,E4720100019111,小禄南公民館,沖縄県那覇市高良2-7-1,,,,26.185161606888,127.662823061994,
529,E4720100020111,尚学学園（体育館）,沖縄県那覇市国場747,,,,26.1998815866945,127.699666237351,
530,E4720100021112,垣花小学校,沖縄県那覇市山下町17-1,1,,,26.202272,127.670968,
531,E4720100022112,宇栄原小学校,沖縄県那覇市字小禄1066,1,,,26.186758,127.67495,
532,E4720100023112,小禄小学校,沖縄県那覇市字小禄1150,1,,,26.197853,127.672296,
533,E4720100024112,真嘉比小学校,沖縄県那覇市字真嘉比1-17-1,1,,,26.222837,127.700371,
534,E4720100102111,真地小学校,沖縄県那覇市字真地313,1,,,26.200062,127.718582,
535,E4720100025114,大道みらいこども園,沖縄県那覇市字大道146-1,1,,,26.215952,127.699219,
536,E4720100025113,大道小学校,沖縄県那覇市字大道146-1,1,,,26.215952,127.699219,
537,E4720100026112,真和志中学校,沖縄県那覇市字大道158,1,,,26.214757,127.698695,
538,E4720100108111,仲井真小学校,沖縄県那覇市字仲井真173,1,,,26.196158,127.70734,
539,E4720100103111,仲井真中学校,沖縄県那覇市字仲井真189,1,,,26.194438,127.708191,
540,E4720100027112,識名小学校,沖縄県那覇市識名2-2-1,1,,,26.208399,127.707871,
541,E4720100106111,若狭小学校,沖縄県那覇市若狭2-16-1,1,,,26.222909,127.675727,
542,E4720100105111,城南小学校,沖縄県那覇市首里崎山町4-35-2,1,,,26.213127,127.722391,
543,E4720100028112,城西小学校,沖縄県那覇市首里真和志町1-5,1,,,26.219154,127.717072,
544,E4720100031111,城北中学校,沖縄県那覇市首里石嶺町1-112,1,,,26.227503,127.726343,
545,E4720100032112,城北小学校,沖縄県那覇市首里石嶺町1-162,1,,,26.227364,127.722137,
546,E4720100032111,城北こども園,沖縄県那覇市首里石嶺町1-162,1,,,26.2277294947756,127.722250940426,
547,E4720100033112,石嶺中学校,沖縄県那覇市首里石嶺町2-109,1,,,26.226576,127.731216,
548,E4720100034111,石嶺公民館,沖縄県那覇市首里石嶺町2-70-9,,,,26.2258081792959,127.732055870212,
549,E4720100107111,城東小学校,沖縄県那覇市首里石嶺町2-74-1,1,,,26.22304,127.73188,
550,E4720100035112,石嶺小学校,沖縄県那覇市首里石嶺町4-360-8,1,,,26.230576,127.732457,
551,E4720100037111,大名こども園,沖縄県那覇市首里大名町1-49,1,,,26.2318,127.712114,
552,E4720100037113,大名小学校,沖縄県那覇市首里大名町1-49,1,,,26.232273,127.712311,
553,E4720100038112,首里中学校,沖縄県那覇市首里汀良町2-55,1,,,26.219719,127.724251,
554,E4720100112111,沖縄県立芸術大学（体育館）,沖縄県那覇市首里当蔵町1-4,,,,26.219133,127.720445,
555,E4720100039111,首里公民館,沖縄県那覇市首里当蔵町2-8-2,,,,26.2190075479269,127.721287615951,
556,E4720100099111,曙小学校,沖縄県那覇市曙2-18-1,1,,,26.240204,127.682726,
557,E4720100113112,小禄南こども園,沖縄県那覇市小禄4-14,,,,26.190236,127.673211,
558,E4720100041113,小禄南小学校,沖縄県那覇市小禄4-14-1,1,,,26.190186,127.67247,
559,E4720100042111,那覇商業高校（体育館）,沖縄県那覇市松山1-16-1,,,,26.2173818436266,127.677696603448,
560,E4720100098111,那覇中学校,沖縄県那覇市松山2-24-1,1,,,26.221153,127.679385,
561,E4720100044113,松川小学校,沖縄県那覇市松川1-7-1,1,,,26.212872,127.70314,
562,E4720100044114,松川こども園,沖縄県那覇市松川1-7-1,1,,,26.212872,127.70314,
563,E4720100045111,沖縄工業高校（体育館）,沖縄県那覇市松川3-20-1,,,,26.2157257495149,127.706446460039,
564,E4720100046111,那覇高校（体育館）,沖縄県那覇市松尾1-21-44,,,,26.2117921767404,127.683469883432,
565,E4720100048111,真嘉比こども園,沖縄県那覇市真嘉比1-18-1,,,,26.2228902852999,127.701466735113,
566,E4720100052111,真和志高校（体育館）,沖縄県那覇市真地248,,,,26.2010092797402,127.721833631807,
567,E4720100053111,開南こども園,沖縄県那覇市泉崎1-1-5,,,,26.21195177114,127.679635851135,
568,E4720100054112,開南小学校,沖縄県那覇市泉崎1-1-6,1,,,26.211186,127.679981,
569,E4720100110111,那覇小学校,沖縄県那覇市前島1-7-1,1,,,26.220656,127.686414,
570,E4720100055113,城岳小学校,沖縄県那覇市楚辺2-1-1,1,,,26.206316,127.684685,
571,E4720100055114,城岳こども園,沖縄県那覇市楚辺2-1-1,1,,,26.206316,127.684685,
572,E4720100056112,寄宮中学校,沖縄県那覇市長田1-13-65,1,,,26.203747,127.700059,
573,E4720100109111,上間小学校,沖縄県那覇市長田2-11-60,1,,,26.202349,127.703081,
574,E4720100057111,那覇国際高校（体育館）,沖縄県那覇市天久1-29-1,,,,26.2318174346797,127.693045336189,
575,E4720100059111,天久みらいこども園,沖縄県那覇市天久1-4-1,1,,,26.2318896139528,127.689767676766,
576,E4720100059113,天久小学校,沖縄県那覇市天久1-4-1,1,,,26.230595,127.690331,
577,E4720100061111,泊こども園,沖縄県那覇市泊2-23-9,1,,,26.2245355359125,127.688848786306,
578,E4720100061113,泊小学校,沖縄県那覇市泊2-23-9,1,,,26.22464,127.688484,
579,E4720100104111,松城中学校,沖縄県那覇市繁多川3-15-1,1,,,26.213201,127.712938,
580,E4720100062112,石田中学校,沖縄県那覇市繁多川5-17-1,1,,,26.209499,127.711031,
581,E4720100064113,神原小学校,沖縄県那覇市樋川2-7-1,1,,,26.210457,127.692513,
582,E4720100064114,神原こども園,沖縄県那覇市樋川2-7-1,1,,,26.210457,127.692513,
583,E4720100065112,神原中学校,沖縄県那覇市樋川2-8-1,1,,,26.209465,127.691239,
584,E4720100067112,壷屋小学校,沖縄県那覇市牧志3-14-12,1,,,26.21664,127.691872,
585,E4720100068112,なは市民協働プラザ,沖縄県那覇市銘苅2-3-1,,,,26.230184,127.698206,
586,E4720100069112,銘苅小学校,沖縄県那覇市銘苅2-3-20,1,,,26.231611,127.698329,
587,E4720100070112,那覇市ＩＴ創造館,沖縄県那覇市銘苅2-3-6,,,,26.229869,127.697751,
588,E4720100071112,安岡中学校,沖縄県那覇市銘苅3-10-26,1,,,26.235668,127.697892,
589,E4720100072113,与儀小学校,沖縄県那覇市与儀1-1-1,1,,,26.205185,127.69014,
590,E4720100072111,与儀こども園,沖縄県那覇市与儀1-1-1,1,,,26.2064567159965,127.691218206829,
591,E4720100073112,看護大学（体育館）,沖縄県那覇市与儀1-24-1,,,,26.205935,127.695065,
592,E4721500018111,船越小学校,沖縄県南城市玉城字船越960,1,,,26.15315609,127.7517565,
593,E4721500025111,百名小学校,沖縄県南城市玉城字百名54,1,,,26.14258464,127.7913766,
594,E4721500097111,大里南小学校,沖縄県南城市大里字仲間1375,1,,,26.17303364,127.7487243,
595,E4721500102111,大里中学校,沖縄県南城市大里字仲間978,1,,,26.179037,127.745979,
596,E4721500104111,大里北小学校,沖縄県南城市大里字嶺井392,1,,,26.19023171,127.7523246,
597,E4721500115111,南城市知念児童館,沖縄県南城市知念字久手堅22,1,,,26.17001274,127.8211038,
598,E4721500116111,南城市知念社会福祉センター,沖縄県南城市知念字久手堅453,1,,,26.16870332,127.8265966,
599,E4721500118111,知念体育館,沖縄県南城市知念字久手堅532,1,,,26.16748755,127.8285576,
600,E4721500120111,知念中学校,沖縄県南城市知念字久手堅700,1,,,26.17278499,127.8191568,
601,E4735000001111,南風原町立中央公民館,沖縄県南風原町喜屋武236,,,,26.1877846250316,127.730834897586,
602,E4735000002111,翔南小学校,沖縄県南風原町喜屋武450,,,,26.1836976490178,127.728901827209,
603,E4735000003111,北丘小学校,沖縄県南風原町宮平336,,,,26.2019718998049,127.732159329839,
604,E4735000004111,北丘児童館,沖縄県南風原町宮平489-1,,,,26.2001686123703,127.733618120567,
605,E4735000005111,南風原町総合保健福祉防災センター,沖縄県南風原町宮平697-10,,,,26.1918598416165,127.732679910247,
606,E4735000006111,沖縄県盲学校,沖縄県南風原町兼城473,,,,26.1973894040347,127.721506756174,
607,E4735000007111,南風原小学校,沖縄県南風原町兼城685,,,,26.1920289561164,127.729654692879,
608,E4735000008111,南風原中学校,沖縄県南風原町兼城780,,,,26.1923514667646,127.731827282183,
609,E4736200027121,沖縄中央育成園あおぞら荘,沖縄県南風原町字宮平548-1,,受け入れ対象者のうち、 事前に町が特定し、受入施設側と調整できた者,町が特定した者,26.201449,127.730647,
610,E4736200027122,沖縄中央育成園あさひ寮,沖縄県南風原町字宮平548-1,,受け入れ対象者のうち、 事前に町が特定し、受入施設側と調整できた者,町が特定した者,26.201553,127.730647,
611,E4736200026121,よもぎ学園,沖縄県南風原町字宮平550,,受け入れ対象者のうち、 事前に町が特定し、受入施設側と調整できた者,町が特定した者,26.200923,127.729844,
612,E4735000009111,南星中学校,沖縄県南風原町照屋200,,,,26.1871868114936,127.723129459366,
613,E4735000010111,東新川災害時避難施設,沖縄県南風原町新川584,,,,26.2132908719284,127.729468844472,
614,E4735000011111,津嘉山児童館,沖縄県南風原町津嘉山663-1,,,,26.1858901908855,127.715855844537,
615,E4735000012111,津嘉山小学校,沖縄県南風原町津嘉山684,,,,26.1846214921033,127.7178219272,
616,E4735000013111,本部児童館,沖縄県南風原町本部116,,,,26.1890048140394,127.724516891206,
617,E4736200024111,八重瀬町図書館・こども学習センター,沖縄県八重瀬町字屋宜原515-1,1,,,26.162304,127.726879,
618,E4736200002112,八重瀬町中央公民館具志頭分館,沖縄県八重瀬町字具志頭1,1,,,26.119549400079,127.74424232652,
619,E4736200002111,具志頭社会体育館,沖縄県八重瀬町字具志頭1,1,,,26.119503642467,127.74353422336,
620,E4736200020111,八重瀬町スポーツ観光交流施設,沖縄県八重瀬町字具志頭1305,1,,,26.131514,127.745244,
621,E4736200030121,てだこ学園,沖縄県八重瀬町字具志頭1392-1,,受け入れ対象者のうち、 事前に町が特定し、受入施設側と調整できた者,町が特定した者,26.129686,127.748294,
622,E4736200028121,あけもどろ学園,沖縄県八重瀬町字具志頭1427-1,,受け入れ対象者のうち、 事前に町が特定し、受入施設側と調整できた者,町が特定した者,26.131081,127.74812,
623,E4736200021111,南の駅やえせ,沖縄県八重瀬町字具志頭659,1,,,26.121863,127.742814,
624,E4736200004111,具志頭小学校,沖縄県八重瀬町字具志頭666,1,,,26.123086867996,127.74247557607,
625,E4736200005111,具志頭中学校,沖縄県八重瀬町字具志頭690,1,,,26.123613992598,127.74191162336,
626,E4736200007111,白川小学校,沖縄県八重瀬町字小城551,1,,,26.162413929441,127.70916721585,
627,E4736200008111,新城小学校,沖縄県八重瀬町字新城1381,1,,,26.135650827956,127.73598966805,
628,E4736200010111,東風平運動公園,沖縄県八重瀬町字東風平1076,1,,,26.154209184846,127.71330854658,
629,E4736200011111,八重瀬町社会福祉会館,沖縄県八重瀬町字東風平1318-1,1,,,26.156235717557,127.72595679262,
630,E4736200012111,八重瀬町保健センター,沖縄県八重瀬町字東風平1318-3,1,,,26.156524621798,127.72580658891,
631,E4736200013111,東風平中学校,沖縄県八重瀬町字東風平267,1,,,26.151963731416,127.72422167087,
632,E4736200014111,東風平小学校,沖縄県八重瀬町字東風平304,1,,,26.153499467978,127.7224687972,
633,E4721400120121,社会福祉法人ユームツ会青潮園,沖縄県平良字下里2632-1,,,,24.772006,125.31033,
634,E4721400119121,看護小規模多機能型居宅介護ゴン,沖縄県平良字西仲宗根1496-7,,,,24.80954,125.304785,
635,E4721200049111,豊見城中学校,沖縄県豊見城市宜保1-1-2,1,,,26.177399,127.680435,
636,E4721200001111,上田小学校,沖縄県豊見城市宜保1-1-4,1,,,26.177778,127.678889,
637,E4721200002111,伊良波中学校,沖縄県豊見城市字伊良波273,1,,,26.171105754717,127.67285068684,
638,E4721200003111,伊良波小学校,沖縄県豊見城市字伊良波300,1,,,26.173141480002,127.67249208975,
639,E4721200004111,豊見城南高等学校,沖縄県豊見城市字翁長520,1,,,26.16107887181,127.67130473575,
640,E4721200053111,嘉数地区コミュニティ共用施設,沖縄県豊見城市字嘉数1-1,,,,26.18886,127.698824,
641,E4721200005111,宜保コミュニティー供用施設,沖縄県豊見城市字宜保21,,,,26.179802580001,127.67802234471,
642,E4721200006121,特別養護老人ホーム良長園,沖縄県豊見城市字金良88,,,要配慮者,26.179592557881,127.70327669469,
643,E4721200007111,とよみ小学校,沖縄県豊見城市字高安1132-2,1,,,26.185393621026,127.68910334831,
644,E4721200008111,高安地区コミュニティー供用施設,沖縄県豊見城市字高安43,,,,26.177973611585,127.68634631874,
645,E4721200009121,介護老人保健施設桜山荘,沖縄県豊見城市字高嶺111,,,要配慮者,26.170369269865,127.68923977319,
646,E4721200010111,豊見城小学校,沖縄県豊見城市字高嶺439-2,1,,,26.167044830003,127.69992231662,
647,E4721200011111,高嶺公民館,沖縄県豊見城市字高嶺5-1,,,,26.168330975806,127.6924802018,
648,E4721200013111,根差部公民館,沖縄県豊見城市字根差部287,,,,26.187222529017,127.69255925683,
649,E4721200014111,真嘉部コミュニティーセンター,沖縄県豊見城市字根差部375-2,,,,26.189728786792,127.69370830069,
650,E4721200015111,豊見城ニュータウン自治会館,沖縄県豊見城市字根差部66-5,,,,26.187389381764,127.69703391215,
651,E4721200016111,座安小学校,沖縄県豊見城市字座安230-1,1,,,26.165943391699,127.67339354446,
652,E4721200017121,介護老人保健施設友愛園,沖縄県豊見城市字上田25,,,要配慮者,26.175530787992,127.67553738041,
653,E4721200019111,長堂公民館,沖縄県豊見城市字長堂62,,,,26.18246298983,127.70544569231,
654,E4721200020122,介護老人保健施設はまゆう,沖縄県豊見城市字渡嘉敷150,,,要配慮者,26.172576682241,127.68389948133,
655,E4721200020121,特別養護老人ホームすみれ,沖縄県豊見城市字渡嘉敷150,,,要配慮者,26.172480394087,127.68401036376,
656,E4721200021111,渡嘉敷集落センター,沖縄県豊見城市字渡嘉敷407,,,,26.168075259102,127.68186441524,
657,E4721200025111,わくわく児童館,沖縄県豊見城市字保栄茂1153-109,,,,26.164667103978,127.67676588423,
658,E4721200026111,保栄茂構造改善センター,沖縄県豊見城市字保栄茂241-1,,,,26.160437201959,127.68068184708,
659,E4721200027111,豊見城地区コミュニティー供用施設,沖縄県豊見城市字豊見城150,,,,26.185238283721,127.67968492803,
660,E4721200028121,介護老人保健施設養生の里,沖縄県豊見城市字豊見城344-5,,,要配慮者,26.184226271557,127.67315062398,
661,E4721200030111,ゆたか小学校,沖縄県豊見城市字豊見城601-1,1,,,26.181367208935,127.68201212308,
662,E4721200046111,沖縄空手会館,沖縄県豊見城市字豊見城854-1,1,,,26.187706,127.683022,
663,E4721200032121,介護老人保健施設平成苑,沖縄県豊見城市字名嘉地217-2,,,要配慮者,26.174394818276,127.66435801634,
664,E4721200034111,長嶺小学校,沖縄県豊見城市字饒波1018,1,,,26.181882576772,127.69573807055,
665,E4721200035111,長嶺中学校,沖縄県豊見城市字饒波1068-2,1,,,26.183183,127.695584,
666,E4721200036111,饒波農業集落多目的集会施設,沖縄県豊見城市字饒波500-1,,,,26.177151776901,127.69518788961,
667,E4735800001111,港集会所,沖縄県北大東村字港18-2,,,,25.954922,131.287689,
668,E4735800002111,人材交流センター,沖縄県北大東村字中野152-1,,,,25.949693,131.29551,
669,E4735800003111,北大東島こども園,沖縄県北大東村字中野180,,,,25.946138,131.296685,
670,E4735800004111,北大東村小中学校,沖縄県北大東村字中野181,,,,25.945342,131.296846,
671,E4735800005111,保健・福祉センター,沖縄県北大東村字中野212,,,,25.944672,131.299029,
672,E4735800006111,中野集会所,沖縄県北大東村字中野226-1,,,,25.946625,131.299249,
673,E4735800007111,地域スポーツセンター,沖縄県北大東村字中野282-20,,,,25.943084,131.302961,
674,E4735800008111,南集会所,沖縄県北大東村字南84-1,,,,25.937744,131.312129,
675,E4732600005121,北玉児童館,沖縄県北谷町字吉原10,,左記のうち、医療的ケア及び専門的な設備・人材等を必要としない者,乳幼児、妊産婦及び障害児（家族等含む）,26.314872300926,127.77277218653,
676,E4732600008111,宇地原区公民館,沖縄県北谷町字吉原1138-1,,,,26.315158396901,127.76858876407,
677,E4732600009111,謝苅区公民館,沖縄県北谷町字吉原2,,,,26.313630839378,127.77472400286,
678,E4732600010121,謝苅保育所,沖縄県北谷町字吉原26-1,,左記のうち、医療的ケア及び専門的な設備・人材等を必要としない者,乳幼児、妊産婦及び障害児（家族等含む）,26.315216029953,127.76965852175,
679,E4732600010111,子育て支援センター,沖縄県北谷町字吉原26-1,,乳幼児及び妊産婦（家族等含む）優先避難所,,26.315254497919,127.76959414873,
680,E4732600011111,北谷中学校体育館,沖縄県北谷町字吉原480,1,,,26.320164591371,127.78068086346,
681,E4732600013111,桃原区公民館,沖縄県北谷町字吉原620-3,,,,26.323407525188,127.77817450856,
682,E4732600014111,栄口区公民館,沖縄県北谷町字吉原708-4,,,,26.32310880218,127.77297081387,
683,E4732600015121,北玉幼稚園,沖縄県北谷町字吉原875,1,左記のうち、医療的ケア及び専門的な設備・人材等を必要としない者,乳幼児、妊産婦及び障害児（家族等含む）,26.314107321777,127.77293916531,
684,E4732600015111,北玉小学校体育館,沖縄県北谷町字吉原875,1,,,26.313681764974,127.77234371491,
685,E4732600016111,北玉区公民館,沖縄県北谷町字吉原898,,,,26.312499607079,127.77275469127,
686,E4732600019111,浜川小学校体育館,沖縄県北谷町字宮城1-172,1,,,26.326809931607,127.74953811401,
687,E4732600019121,浜川幼稚園,沖縄県北谷町字宮城1-172,1,左記のうち、医療的ケア及び専門的な設備・人材等を必要としない者,乳幼児、妊産婦及び障害児（家族等含む）,26.32671857928,127.74808972115,
688,E4732600020111,宮城区公民館,沖縄県北谷町字宮城1-472,,,,26.327034519848,127.74666507309,
689,E4732600021121,宮城児童館,沖縄県北谷町字宮城2-215,,左記のうち、医療的ケア及び専門的な設備・人材等を必要としない者,乳幼児、妊産婦及び障害児（家族等含む）,26.33012118724,127.74698071954,
690,E4732600059111,北谷高等学校体育館,沖縄県北谷町字桑江414,1,,,26.32206,127.764734,
691,E4732600023121,桑江地区体育館,沖縄県北谷町字桑江438,,左記のうち、医療的ケア及び専門的な設備・人材等を必要としない者,高齢者及び障害者（家族等含む。）,26.324143652309,127.76630746717,
692,E4732600025111,ちゃたん二ライセンター,沖縄県北谷町字桑江467-1,,,,26.325310356555,127.76865954983,
693,E4732600027121,上勢桑江児童館,沖縄県北谷町字桑江556-3,,左記のうち、医療的ケア及び専門的な設備・人材等を必要としない者,乳幼児、妊産婦及び障害児（家族等含む）,26.325722517173,127.7737639801,
694,E4732600028111,北谷第二小学校体育館,沖縄県北谷町字桑江567-1,1,,,26.324711404561,127.77323585339,
695,E4732600028121,北谷第二幼稚園,沖縄県北谷町字桑江567-1,1,左記のうち、医療的ケア及び専門的な設備・人材等を必要としない者,乳幼児、妊産婦及び障害児（家族等含む）,26.32420354763,127.77268975553,
696,E4732600030121,北谷町保健相談センター,沖縄県北谷町字桑江731,,左記のうち、医療的ケア及び専門的な設備・人材等を必要としない者,高齢者及び障害者（家族等含む。）,26.31574806421,127.77002570513,
697,E4732600034111,砂辺区公民館,沖縄県北谷町字砂辺61,,,,26.332592935454,127.74784478416,
698,E4732600035111,北谷町育ちの支援センター,沖縄県北谷町字上勢頭622-1,,乳幼児及び妊産婦（家族等含む）優先避難所,,26.328783661789,127.77421353063,
699,E4732600035121,上勢保育所,沖縄県北谷町字上勢頭622-1,,左記のうち、医療的ケア及び専門的な設備・人材等を必要としない者,乳幼児、妊産婦及び障害児（家族等含む）,26.328798085588,127.77429936132,
700,E4732600037111,上勢区公民館,沖縄県北谷町字上勢頭696-4,,,,26.330528690072,127.77438267196,
701,E4732600040122,北谷町老人福祉センター,沖縄県北谷町字上勢頭837-1,,左記のうち、医療的ケア及び専門的な設備・人材等を必要としない者,高齢者及び障害者（家族等含む。）,26.327349513087,127.76793231096,
702,E4732600040121,北谷町障がい者地域活動支援センター　たんぽぽ,沖縄県北谷町字上勢頭837-1,,左記のうち、医療的ケア及び専門的な設備・人材等を必要としない者,精神障害者（家族等含む。）,26.326756325447,127.76619772636,
703,E4732600040111,北谷町商工業研修等施設,沖縄県北谷町字上勢頭837-1,,,,26.327154789213,127.76785452689,
704,E4732600043111,美浜区公民館,沖縄県北谷町字美浜15-1,,,,26.319523033884,127.75782132331,
705,E4732600044111,北谷公園屋内運動場,沖縄県北谷町字美浜2,1,,,26.31018513921,127.76073517304,
706,E4732600045111,北前区公民館,沖縄県北谷町字北前276,,,,26.295124380488,127.75738398995,
707,E4732600046111,美浜保育所,沖縄県北谷町美浜1-2-7,,乳幼児及び妊産婦（家族等含む）優先避難所,,26.310554082772,127.76133238056,
708,E4732600048111,桑江中学校体育館,沖縄県北谷町美浜1-4-7,1,,,26.312184260492,127.76111948697,
709,E4732700003111,北中城村民体育館,沖縄県北中城村字ライカム638,,,,26.314974,127.798998,
710,E4732700005111,石平公民館,沖縄県北中城村字安谷屋2151,,,,26.295375,127.780738,
711,E4732700006111,安谷屋公民館,沖縄県北中城村字安谷屋223,1,,,26.295418,127.787567,
712,E4732700008111,荻道公民館,沖縄県北中城村字荻道79,,,,26.291046,127.798693,
713,E4732700009111,屋宜原公民館,沖縄県北中城村字屋宜原602,,,,26.309662,127.789418,
714,E4732700011111,北中城小学校,沖縄県北中城村字喜舎場1,1,,,26.30143019,127.7946181,
715,E4732700012111,あやかりの杜,沖縄県北中城村字喜舎場1214,,,,26.30662,127.790694,
716,E4732700014121,喜舎場保育所,沖縄県北中城村字喜舎場240,1,,要配慮者,26.30251113,127.7966952,
717,E4732700015111,北中城幼稚園,沖縄県北中城村字喜舎場255-1,1,,,26.30205333,127.7963471,
718,E4732700016111,北中城中学校,沖縄県北中城村字喜舎場306,1,,,26.29861335,127.7960878,
719,E4732700017111,喜舎場公民館,沖縄県北中城村字喜舎場75,,,,26.303728,127.794015,
720,E4732700018111,瑞慶覧公民館,沖縄県北中城村字瑞慶覧416,,,,26.30747,127.779965,
721,E4732700021111,大城公民館,沖縄県北中城村字大城86,,,,26.290157,127.799524,
722,E4732700022111,北中城村中央公民館,沖縄県北中城村字仲順435,1,,,26.304208,127.801436,
723,E4732700023121,北中城村社会福祉センター,沖縄県北中城村字仲順451,,,要配慮者,26.305628,127.800769,
724,E4732700024111,仲順公民館,沖縄県北中城村字仲順60,1,,,26.301843,127.798703,
725,E4732700024121,仲順児童館,沖縄県北中城村字仲順60,1,,要配慮者,26.30186919,127.7987398,
726,E4732700028111,渡口公民館,沖縄県北中城村字渡口55,,,,26.304224,127.809952,
727,E4732700030111,島袋公民館,沖縄県北中城村字島袋102,,,,26.320107,127.799336,
728,E4732700031111,島袋小学校,沖縄県北中城村字島袋1234,1,,,26.32136282,127.8055222,
729,E4732700032121,島袋児童館,沖縄県北中城村字島袋215,1,,要配慮者,26.31862097,127.7998441,
730,E4732700036111,県営北中城団地集会所,沖縄県北中城村字熱田2070-15,,,,26.295986,127.811819,
731,E4732700040111,熱田公民館,沖縄県北中城村字熱田68-1,,,,26.296029,127.807619,
732,E4732700041121,北中城村老人デイサービスセンターしおさい,沖縄県北中城村字美崎262,1,,要配慮者,26.30375784,127.8219533,
733,E4732700043111,美崎集会所,沖縄県北中城村字美崎266,,,,26.303767,127.821706,
734,E4732700044111,和仁屋公民館,沖縄県北中城村字和仁屋174,,,,26.29927,127.808037,
735,E4730800001111,伊豆味小中学校,沖縄県本部町字伊豆味13,1,,,26.6504325225826,127.946344067984,
736,E4730800002111,伊豆味公民館（伊豆味構造改善センター）,沖縄県本部町字伊豆味95,1,,,26.6504393216838,127.947570834267,
737,E4730800004111,伊野波公民館（伊野波コミュニティ供用施設）,沖縄県本部町字伊野波487,1,,,26.6605165226632,127.909987291707,
738,E4730800006111,浦崎公民館（本部町立浦崎地区公民館）,沖縄県本部町字浦崎46,1,,,26.6785642631533,127.892454849732,
739,E4730800007111,本部町民体育館,沖縄県本部町字浦崎467-1,1,,,26.6759354031093,127.895142077925,
740,E4730800007112,本部町運動公園,沖縄県本部町字浦崎467-1,1,,,26.6749671262369,127.895142077934,
741,E4730800008111,嘉津宇公民館（嘉津宇コミュニティ供用施設）,沖縄県本部町字嘉津宇11,1,,,26.687657370678,127.908170516985,
742,E4730800009111,具志堅公民館（本部町立具志堅地区公民館）,沖縄県本部町字具志堅158,1,,,26.698603173899,127.913175751917,
743,E4730800010111,健堅公民館,沖縄県本部町字健堅1061-1,1,,,26.647216306452,127.881014189665,
744,E4730800011111,本部小学校旧健堅分校,沖縄県本部町字健堅145,1,,,26.6489807188576,127.883373633938,
745,E4730800012111,古島公民館（古島集落センター）,沖縄県本部町字古島2,1,,,26.6791497265948,127.898845245088,
746,E4730800013111,崎本部小学校,沖縄県本部町字崎本部127,1,,,26.6290858814216,127.889083285181,
747,E4730800014111,崎本部公民館,沖縄県本部町字崎本部15,1,,,26.6297577022121,127.887735805464,
748,E4730800016111,豊川公民館,沖縄県本部町字山川716-1,1,,,26.6886237895852,127.88405806701,
749,E4730800017111,山里公民館,沖縄県本部町字山里498,1,,,26.6664992005418,127.909932199136,
750,E4730800018111,謝花公民館（本部町立謝花地区公民館）,沖縄県本部町字謝花124,1,,,26.6833149092811,127.895115978227,
751,E4730800019111,新里公民館（新里コミュニティーセンター）,沖縄県本部町字新里593,1,,,26.6995980076387,127.893730087752,
752,E4730800020111,瀬底集落センター,沖縄県本部町字瀬底1788-1,1,,,26.6492480895711,127.867429805015,
753,E4730800021111,水納小中学校,沖縄県本部町字瀬底6260,1,,,26.6490303166313,127.815677722501,
754,E4730800022111,瀬底小学校,沖縄県本部町字瀬底693,1,,,26.648027409317,127.862866183511,
755,E4730800023111,大堂公民館（大堂集落センター）,沖縄県本部町字大堂377,1,,,26.6787566142997,127.91927338405,
756,E4730800024111,大浜公民館（大浜コミュニティ供用施設）,沖縄県本部町字大浜867-1,1,,,26.6547945059157,127.884309493061,
757,E4730800025111,本部町立中央公民館,沖縄県本部町字大浜874-1,1,,,26.6557202577874,127.884191498432,
758,E4730800026121,本部町地域福祉センター,沖縄県本部町字大浜881-4,1,一人暮らし要配慮者又は、要配慮者のみ世帯など、町が福祉避難所での避難生活が必要と判断した者,要配慮者,26.6580364898275,127.884552829334,
759,E4730800028121,障害者支援施設　本部海陽園,沖縄県本部町字谷茶268,1,一人暮らし要配慮者又は、要配慮者のみ世帯など、町が福祉避難所での避難生活が必要と判断した者,要配慮者,26.6551516943499,127.891689189205,
760,E4730800029121,老人デイサービスセンター本部園,沖縄県本部町字谷茶310,1,一人暮らし要配慮者又は、要配慮者のみ世帯など、町が福祉避難所での避難生活が必要と判断した者,要配慮者,26.6560574494292,127.89172971705,
761,E4730800030111,谷茶公民館（本部町立谷茶地区公民館）,沖縄県本部町字谷茶445-13,1,,,26.658288652357,127.88816517967,
762,E4730800031111,渡久地公民館（渡久地コミュニティ供用施設）,沖縄県本部町字渡久地123,1,,,26.6587255368262,127.894170762558,
763,E4730800032111,本部中学校,沖縄県本部町字渡久地231-1,1,,,26.6607203869408,127.898276696126,
764,E4730800033111,本部高等学校,沖縄県本部町字渡久地377,1,,,26.6638110486711,127.896108243977,
765,E4730800034111,東公民館（本部町立東地区公民館）,沖縄県本部町字東430-1,1,,,26.6575817437603,127.901685491174,
766,E4730800036111,本部小学校,沖縄県本部町字東605,1,,,26.6599696885152,127.901619716871,
767,E4730800038111,備瀬公民館（備瀬構造改善センター）,沖縄県本部町字備瀬457,1,,,26.7027813757363,127.880839070683,
768,E4730800040111,浜元公民館（本部町立浜元地区公民館）,沖縄県本部町字浜元121,1,,,26.6714276658375,127.890523396,
769,E4730800042111,並里公民館（並里コミュニティ供用施設）,沖縄県本部町字並里15-2,1,,,26.6580178828411,127.915301753396,
770,E4730800044111,辺名地公民館,沖縄県本部町字辺名地51,1,,,26.6531733679492,127.893924156552,
771,E4730800045111,上本部小学校,沖縄県本部町字北里1317,1,,,26.6923157796755,127.90003625466,
772,E4730800046111,北里公民館,沖縄県本部町字北里153-1,1,,,26.6889232749225,127.902595180882,
773,E4730800047111,上本部中学校,沖縄県本部町字北里573,1,,,26.6943247265911,127.898180264837,
774,E4730800048111,野原公民館,沖縄県本部町字野原1,1,,,26.6679250362717,127.898263777607,
775,E4720900008111,名護市立大宮小学校,沖縄県名護市宮里5-13-22,1,,,26.597115447513,127.97376367261,
776,E4720900011111,名護市立大宮中学校,沖縄県名護市宮里7-2-66,,,,26.604918779291,127.97932507212,
777,E4720900019111,北部生涯学習推進センター,沖縄県名護市字為又1220-146,,,,26.625896001118,127.97463298168,
778,E4720900100121,社会福祉法人　松籟会　かりゆしぬ村,沖縄県名護市字宇茂佐1873-1,,,要支援者,26.612179,127.965968,
779,E4720900030111,名護市立稲田小学校,沖縄県名護市字我部祖河400-1,,,,26.623128828336,128.00323993945,
780,E4720900031121,社会福祉法人翠泉会　在宅複合型施設　羽地苑,沖縄県名護市字我部祖河829,,,高齢者,26.627947954493,127.99382487301,
781,E4720900062111,名護市立屋部小学校中山分校,沖縄県名護市字中山208-1,,,,26.623892452828,127.96580296891,
782,E4720900066111,名護市立羽地中学校,沖縄県名護市字仲尾次770,,,,26.624395030293,128.02153859148,
783,E4720900072111,名護市立羽地小学校,沖縄県名護市字田井等601-2,,,,26.61883543125,128.01042672898,
784,E4720900077111,名護市立久辺中学校,沖縄県名護市字豊原208,1,,,26.520777250211,128.02326731134,
785,E4720900077112,名護市立久辺小学校,沖縄県名護市字豊原208,1,,,26.519892426964,128.02375541969,
786,E4720900078121,社会福祉法人美健会　特別養護老人ホーム久辺の里,沖縄県名護市字豊原216,,,高齢者,26.521443872831,128.02252747322,
787,E4720900085111,名護市立名護小学校,沖縄県名護市大西2-2-22,,,,26.594681518476,127.98190679637,
788,E4720900103121,医療法人松風会　介護老人保健施設　桃源の郷,沖縄県名護市大西3-19-25,,,要配慮者,26.597608,127.983127,
789,E4720900094111,名護市立大北小学校,沖縄県名護市大北4-19-37,,,,26.60558612905,127.99137384907,
790,E4734800042111,浜田地区公民館,沖縄県与那原町字2998-90,,,,26.202958,127.753296,
791,E4734800001113,御神屋,沖縄県与那原町字上与那原16,,,,26.204723,127.751228,
792,E4734800001112,与那原町上の森かなちホール,沖縄県与那原町字上与那原16,,,,26.199652,127.754989,
793,E4734800001121,与那原町上の森かなちホール,沖縄県与那原町字上与那原16,,,要配慮者,26.199657600847,127.75495117755,
794,E4734800002121,与那原町社会福祉センター,沖縄県与那原町字上与那原16-2,,,要配慮者,26.199466356808,127.75541204907,
795,E4734800002112,与那原町社会福祉センター,沖縄県与那原町字上与那原16-2,,,,26.19955,127.755432,
796,E4734800004111,第一修道院,沖縄県与那原町字上与那原323-1,1,,,26.200455,127.753494,
797,E4734800005111,上与那原区公民館,沖縄県与那原町字上与那原84-2,1,,,26.198588,127.753693,
798,E4734800037111,東浜区コミュニティーセンター,沖縄県与那原町字東浜20-5,,,,26.208527,127.760801,
799,E4734800038111,供済寺研修道場,沖縄県与那原町字板良敷1121-1,,,,26.188705,127.765668,
800,E4734800008111,板良敷区公民館,沖縄県与那原町字板良敷353,1,,,26.195252,127.767313,
801,E4734800009111,与那原町立与那原東小学校,沖縄県与那原町字板良敷50,1,,,26.198983,127.768713,
802,E4734800039111,県営与那原団地（集会場）,沖縄県与那原町字板良敷674,,,,26.19118,127.770932,
803,E4734800010111,町高齢者能力活用センター（とぅしむらやー）,沖縄県与那原町字板良敷751,1,,,26.189327,127.772468,
804,E4734800011111,港地区コミュニティーセンター,沖縄県与那原町字与那原120,1,,,26.202029,127.760136,
805,E4734800012111,大見武集落センター,沖縄県与那原町字与那原2720-7,1,,,26.205288,127.747948,
806,E4734800040111,県営須利原団地（集会場）,沖縄県与那原町字与那原2941-2,,,,26.202231,127.75074,
807,E4734800015111,与那原町交流センターひざし,沖縄県与那原町字与那原3090-2,1,,,26.200075,127.755265,
808,E4734800034111,カトリック与那原教会,沖縄県与那原町字与那原3090-5,,,,26.200232,127.753494,
809,E4734800018111,与那原町商工館,沖縄県与那原町字与那原3090-8,1,,,26.199883,127.755571,
810,E4734800036111,森下区事務所,沖縄県与那原町字与那原3121-3,,,,26.20046,127.75512,
811,E4734800019112,上の森公園,沖縄県与那原町字与那原3179,1,,,26.19905,127.756265,
812,E4734800019121,与那原町観光交流施設,沖縄県与那原町字与那原3179,1,,要配慮者,26.198982426725,127.7562014908,
813,E4734800020111,与那原町営阿知利団地,沖縄県与那原町字与那原3209,1,,,26.197754,127.757256,
814,E4734800021111,与那原町大綱曳倉庫・作業場,沖縄県与那原町字与那原3274-1,1,,,26.197054914362,127.75721996543,
815,E4734800022111,江口公民館,沖縄県与那原町字与那原3691-79,1,,,26.19899,127.763194,
816,E4734800023111,与那原町営江口団地,沖縄県与那原町字与那原3857-1,1,,,26.198785,127.764087,
817,E4734800035111,中島区事務所,沖縄県与那原町字与那原465,,,,26.201827,127.758079,
818,E4734800032111,親川広場,沖縄県与那原町字与那原556,,,,26.202097,127.756123,
819,E4734800025111,与那原町立与那原中学校,沖縄県与那原町字与那原57,1,,,26.201442,127.762949,
820,E4734800026111,与那原町コミュニティーセンター,沖縄県与那原町字与那原712,1,,,26.203618,127.75542,
821,E4734800027111,与那原町立与那原小学校,沖縄県与那原町字与那原735,1,,,26.204378,127.754135,
822,E4734800031111,御殿山青少年広場,沖縄県与那原町字与那原832,,,,26.204022,127.755911,
823,E4734800028111,与原公園,沖縄県与那原町字与那原897,1,,,26.207603,127.754581,
824,E4734800029111,あかぎ児童館,沖縄県与那原町字与那原912,1,,,26.206621,127.755654,
825,E4734800029112,与原区公民館,沖縄県与那原町字与那原912,1,,,26.206659,127.755699,
826,E4738200020111,与那国町立与那国中学校,沖縄県与那国町字与那国1020,,,,24.468469,123.008472,
827,E4738200001111,与那国町立与那国小学校,沖縄県与那国町字与那国1025,,,,24.46718,123.008267,
828,E4738200017111,与那国町児童交流センター,沖縄県与那国町字与那国2114,,,,24.455979,123.010993,
829,E4738200004111,与那国町構造改善センター,沖縄県与那国町字与那国255,,,,24.465295,123.005123,
830,E4738200004112,与那国町保健センター,沖縄県与那国町字与那国255,,,,24.470783,123.005102,
831,E4738200010111,与那国町立比川小学校,沖縄県与那国町字与那国3031,,,,24.442686,122.981938,
832,E4738200011111,比川多目的集会施設,沖縄県与那国町字与那国3464-1,,,,24.442896,122.979597,
833,E4738200012111,与那国町離島振興総合センター,沖縄県与那国町字与那国3465,1,,,24.442471,122.979096,
834,E4738200008111,与那国町立久部良中学校,沖縄県与那国町字与那国4022,,,,24.454904,122.943743,
835,E4738200008112,与那国町立久部良小学校,沖縄県与那国町字与那国4022,,,,24.454377,122.944933,
836,E4738200009111,久部良多目的集会施設,沖縄県与那国町字与那国4022-223,,,,24.452404,122.943806,
837,E4738200018111,与那国町活性化施設（嶋仲公民館）,沖縄県与那国町字与那国468,,,,24.466867,123.000401,
